{
  "version": 0.6,
  "generator": "Overpass API 0.7.62.8 e802775f",
  "osm3s": {
    "timestamp_osm_base": "2025-11-02T22:53:19Z",
    "copyright": "The data included in this document is from www.openstreetmap.org. The data is made available under ODbL."
  },
  "elements": [

{
  "type": "way",
  "id": 4786076,
  "center": {
    "lat": 49.9974048,
    "lon": 9.1138448
  },
  "nodes": [
    30654818,
    5368617706,
    2144939763,
    2144939762,
    30654817,
    2321933199,
    2321933198,
    5368626786,
    5370261260,
    5370261262,
    5370261255,
    30654816,
    30654815,
    5368617704,
    30654818
  ],
  "tags": {
    "landuse": "cemetery",
    "name": "Nordfriedhof"
  }
},
{
  "type": "way",
  "id": 4993364,
  "center": {
    "lat": 49.7616200,
    "lon": 9.9798847
  },
  "nodes": [
    33144939,
    3463260029,
    33144950,
    1313332517,
    1313332522,
    3463286045,
    1313332521,
    33144954,
    33144957,
    33144939
  ],
  "tags": {
    "landuse": "cemetery"
  }
},
{
  "type": "way",
  "id": 4997364,
  "center": {
    "lat": 49.0044882,
    "lon": 9.5064518
  },
  "nodes": [
    33181615,
    33181617,
    33181619,
    34633006,
    34654621,
    807796314,
    12218700988,
    807796315,
    12218700987,
    807796316,
    807796317,
    33181588,
    248529079,
    33181590,
    3966685996,
    33181591,
    33181592,
    33181593,
    33181594,
    248529080,
    33181595,
    33181597,
    33181600,
    248529081,
    33181602,
    33181605,
    12218700994,
    33181607,
    33181610,
    33181612,
    33181615
  ],
  "tags": {
    "landuse": "cemetery",
    "name": "Friedhof Sulzbach an der Murr",
    "religion": "christian"
  }
},
{
  "type": "way",
  "id": 5349371,
  "center": {
    "lat": 49.1293298,
    "lon": 9.1647774
  },
  "nodes": [
    38213010,
    38213019,
    38213027,
    1272426726,
    1272426721,
    1272426719,
    1272426716,
    264371545,
    264371546,
    264371547,
    38213053,
    38213058,
    38213061,
    38213010
  ],
  "tags": {
    "landuse": "cemetery",
    "name": "Westfriedhof Böckingen"
  }
},
{
  "type": "way",
  "id": 5407837,
  "center": {
    "lat": 49.1454068,
    "lon": 9.1889090
  },
  "nodes": [
    38929090,
    10770595289,
    10770595287,
    820925422,
    10770595288,
    10770595290,
    38928840,
    820925419,
    38928849,
    38928900,
    38928926,
    820925421,
    38928953,
    38928963,
    10770421518,
    38928973,
    10770421519,
    38929090
  ],
  "tags": {
    "barrier": "fence",
    "landuse": "cemetery",
    "name": "Friedhof Böckingen",
    "start_date": "1905",
    "wikidata": "Q1457287",
    "wikimedia_commons": "Category:Friedhof (Böckingen)",
    "wikipedia": "de:Friedhof (Böckingen)"
  }
},
{
  "type": "way",
  "id": 8091218,
  "center": {
    "lat": 49.5868819,
    "lon": 9.6391076
  },
  "nodes": [
    60614654,
    5691016324,
    60614655,
    60614657,
    4427744318,
    60614658,
    60614654
  ],
  "tags": {
    "landuse": "cemetery",
    "name": "Friedhof Dittwar",
    "operator": "Stadt Tauberbischofsheim",
    "wikidata": "Q47004047"
  }
},
{
  "type": "way",
  "id": 8613907,
  "center": {
    "lat": 49.3255289,
    "lon": 9.4901172
  },
  "nodes": [
    61306151,
    5959922630,
    61306152,
    860120654,
    61306153,
    5959922634,
    5959922633,
    5959922632,
    5959922635,
    61306155,
    860120703,
    860120685,
    61306151
  ],
  "tags": {
    "barrier": "fence",
    "landuse": "cemetery",
    "name": "Friedhof Berlichingen",
    "operator": "Gemeinde Schöntal"
  }
},
{
  "type": "way",
  "id": 16131360,
  "center": {
    "lat": 49.6602786,
    "lon": 9.9220829
  },
  "nodes": [
    162833356,
    162833366,
    162833374,
    162833381,
    162833356
  ],
  "tags": {
    "landuse": "cemetery"
  }
},
{
  "type": "way",
  "id": 16236250,
  "center": {
    "lat": 49.6539244,
    "lon": 9.9495768
  },
  "nodes": [
    8260465023,
    8260465024,
    165071234,
    8260383107,
    165071240,
    165071246,
    165071251,
    463727943,
    8260465023
  ],
  "tags": {
    "barrier": "wall",
    "landuse": "cemetery"
  }
},
{
  "type": "way",
  "id": 17349345,
  "center": {
    "lat": 49.2797447,
    "lon": 9.1578611
  },
  "nodes": [
    1584906722,
    5048501748,
    1584906697,
    1584906693,
    1584906713,
    2704426467,
    2704426471,
    1584906723,
    9990954094,
    9990954097,
    1584906722
  ],
  "tags": {
    "landuse": "cemetery",
    "name": "Friedhof Gundelsheim",
    "operator": "Stadt Gundelsheim (Württemberg)"
  }
},
{
  "type": "way",
  "id": 18914180,
  "center": {
    "lat": 49.8095338,
    "lon": 9.9921172
  },
  "nodes": [
    195713795,
    278493234,
    278493233,
    195713797,
    11038066815,
    195713801,
    11038066816,
    2314325454,
    2314325499,
    2314325527,
    2314325406,
    11038066806,
    195713806,
    195713795
  ],
  "tags": {
    "landuse": "cemetery",
    "name": "Friedhof Lengfeld",
    "toilets:wheelchair": "no",
    "website": "https://www.wuerzburg.de/buerger/friedhofsverwaltung/friedhoefe/406966.Friedhof-Lengfeld.html",
    "wheelchair": "limited"
  }
},
{
  "type": "way",
  "id": 19187029,
  "center": {
    "lat": 49.6928859,
    "lon": 9.3951180
  },
  "nodes": [
    199016937,
    11113613865,
    199016699,
    199016920,
    199016926,
    10635516896,
    11113613868,
    199016937
  ],
  "tags": {
    "barrier": "wall",
    "landuse": "cemetery",
    "name": "Friedhof Richelbach",
    "operator": "Gemeinde Neunkirchen (Unterfranken)",
    "religion": "christian",
    "website": "https://grabsteine.genealogy.net/namelist.php?cem=2210&lang=de"
  }
},
{
  "type": "way",
  "id": 19835031,
  "center": {
    "lat": 49.1166126,
    "lon": 9.2050717
  },
  "nodes": [
    782650494,
    831570603,
    7547637258,
    831570606,
    207217397,
    207217405,
    382449108,
    382449111,
    382449117,
    382449113,
    382449115,
    373503390,
    382449114,
    373503384,
    207217416,
    1171104942,
    782650494
  ],
  "tags": {
    "landuse": "cemetery",
    "name": "Südfriedhof",
    "wikidata": "Q123469247"
  }
},
{
  "type": "way",
  "id": 23036650,
  "center": {
    "lat": 49.0331753,
    "lon": 9.4368899
  },
  "nodes": [
    248528699,
    248419528,
    248528700,
    3876270229,
    2304212677,
    2304212664,
    248528698,
    12563675640,
    12563675639,
    248419551,
    12223112465,
    12563675641,
    3876270234,
    248528699
  ],
  "tags": {
    "fenced": "yes",
    "landuse": "cemetery",
    "name": "Friedhof Jux",
    "religion": "christian",
    "toilets:wheelchair": "no",
    "wheelchair": "limited"
  }
},
{
  "type": "way",
  "id": 23075589,
  "center": {
    "lat": 49.8538739,
    "lon": 9.9564222
  },
  "nodes": [
    249076405,
    249076406,
    249076407,
    3222145706,
    249076408,
    249076409,
    322501117,
    249076411,
    249076412,
    249076413,
    249076415,
    249076416,
    249076417,
    249076418,
    249076419,
    249076405
  ],
  "tags": {
    "landuse": "cemetery",
    "name": "Friedhof Rimpar",
    "religion": "christian",
    "wikidata": "Q41250229"
  }
},
{
  "type": "way",
  "id": 23123430,
  "center": {
    "lat": 49.9617528,
    "lon": 9.1630922
  },
  "nodes": [
    249659444,
    249659445,
    1692722625,
    249659447,
    249659450,
    918723568,
    249659444
  ],
  "tags": {
    "landuse": "cemetery",
    "name": "Friedhof Schweinheim"
  }
},
{
  "type": "way",
  "id": 23153397,
  "center": {
    "lat": 49.1592996,
    "lon": 9.1673346
  },
  "nodes": [
    250135654,
    1122037682,
    835352941,
    250135656,
    835099233,
    835099084,
    835099108,
    835099702,
    835099221,
    835099052,
    250135657,
    474982041,
    250135659,
    474982042,
    1057732563,
    474982049,
    474982050,
    835352778,
    250135662,
    1120262383,
    250135654
  ],
  "tags": {
    "landuse": "cemetery",
    "name": "Friedhof Frankenbach"
  }
},
{
  "type": "way",
  "id": 23236274,
  "center": {
    "lat": 49.0722105,
    "lon": 9.0647386
  },
  "nodes": [
    251396084,
    251396085,
    2087442882,
    353440842,
    2093655992,
    2087442879,
    1507525828,
    251396086,
    2086304276,
    2093655991,
    291107663,
    2096123683,
    2086304275,
    2086304273,
    2086304272,
    2096123675,
    2096123674,
    2096123672,
    2096123671,
    2096123670,
    2093655979,
    2093655985,
    2093655983,
    1507524529,
    2093655976,
    354786681,
    2093655969,
    2093655970,
    354786682,
    251396087,
    251396088,
    989395495,
    2093655971,
    251396089,
    251286393,
    251396084
  ],
  "tags": {
    "landuse": "cemetery",
    "name": "Friedhof Brackenheim",
    "source": "Bing"
  }
},
{
  "type": "way",
  "id": 23254922,
  "center": {
    "lat": 49.9614325,
    "lon": 9.1657761
  },
  "nodes": [
    251651088,
    251651086,
    268549857,
    251651083,
    251651085,
    1692722629,
    1719987958,
    251651088
  ],
  "tags": {
    "landuse": "cemetery",
    "name": "Friedhof Schweinheim"
  }
},
{
  "type": "way",
  "id": 23463262,
  "center": {
    "lat": 49.4875332,
    "lon": 9.7744190
  },
  "nodes": [
    1430324920,
    1430324910,
    254094541,
    254111064,
    254094542,
    254094543,
    254094544,
    254094545,
    1051121931,
    5047969075,
    255134801,
    1240176366,
    255192310,
    254094547,
    255476857,
    255477028,
    254094549,
    254094550,
    255476920,
    254094551,
    254094552,
    1430324946,
    254094553,
    254094554,
    254094555,
    254094556,
    254094557,
    1430324928,
    1430324920
  ],
  "tags": {
    "landuse": "cemetery",
    "name": "Alter Friedhof Bad Mergentheim",
    "operator": "Stadt Bad Mergentheim",
    "wikidata": "Q105622512"
  }
},
{
  "type": "way",
  "id": 23527592,
  "center": {
    "lat": 49.3618228,
    "lon": 9.2797441
  },
  "nodes": [
    254777590,
    254777591,
    254777592,
    254777593,
    254777590
  ],
  "tags": {
    "landuse": "cemetery",
    "name": "Friedhof Waldmühlbach",
    "operator": "Gemeinde Billigheim",
    "religion": "christian",
    "website": "https://grabsteine.genealogy.net/namelist.php?cem=5052",
    "wikidata": "Q110979113"
  }
},
{
  "type": "way",
  "id": 23600771,
  "center": {
    "lat": 49.4814367,
    "lon": 9.7845422
  },
  "nodes": [
    255589827,
    255589828,
    255589829,
    255589830,
    255589831,
    255589827
  ],
  "tags": {
    "landuse": "cemetery",
    "name": "Friedhof Bad Mergentheim",
    "operator": "Stadt Bad Mergentheim",
    "wikidata": "Q105622507"
  }
},
{
  "type": "way",
  "id": 23899290,
  "center": {
    "lat": 49.8497033,
    "lon": 9.9793699
  },
  "nodes": [
    259040661,
    2278125042,
    530741394,
    259040662,
    259040663,
    259040664,
    259040661
  ],
  "tags": {
    "landuse": "cemetery"
  }
},
{
  "type": "way",
  "id": 24358000,
  "center": {
    "lat": 49.1149361,
    "lon": 9.1701752
  },
  "nodes": [
    264243485,
    2677052112,
    2677052109,
    475534604,
    2677052100,
    2677052091,
    2677052085,
    2677052089,
    264243488,
    264243491,
    264243494,
    2677052067,
    2677052065,
    264243515,
    1097963549,
    1097963552,
    1085915339,
    1097963551,
    8237039275,
    8237039276,
    1085915585,
    1097963554,
    1097963548,
    3370157804,
    3370157805,
    264243485
  ],
  "tags": {
    "bicycle": "no",
    "dog": "no",
    "landuse": "cemetery",
    "name": "Friedhof Horkheim",
    "religion": "christian"
  }
},
{
  "type": "way",
  "id": 24433168,
  "center": {
    "lat": 49.1195641,
    "lon": 9.1550298
  },
  "nodes": [
    265558708,
    265558709,
    265558711,
    265558712,
    265558708
  ],
  "tags": {
    "amenity": "grave_yard",
    "created_by": "JOSM"
  }
},
{
  "type": "way",
  "id": 24544714,
  "center": {
    "lat": 49.1705820,
    "lon": 9.1993167
  },
  "nodes": [
    266875791,
    266875792,
    922443281,
    922443412,
    802972192,
    266875793,
    1033095202,
    436883553,
    1033095389,
    1033095310,
    1033095355,
    1033095334,
    1033095087,
    266875795,
    1033095101,
    930001398,
    930001403,
    266875796,
    802972191,
    266875791
  ],
  "tags": {
    "barrier": "fence",
    "landuse": "cemetery",
    "name": "Nordfriedhof"
  }
},
{
  "type": "way",
  "id": 24604836,
  "center": {
    "lat": 49.8801953,
    "lon": 9.2423251
  },
  "nodes": [
    267466278,
    267466279,
    3596224522,
    3596224507,
    267466280,
    267466281,
    269395142,
    269395143,
    269395144,
    3596217387,
    3596217385,
    269395141,
    3596224499,
    267466283,
    269395139,
    267466278
  ],
  "tags": {
    "landuse": "cemetery",
    "name": "Friedhof",
    "religion": "christian",
    "source": "geodaten.bayern.de"
  }
},
{
  "type": "way",
  "id": 24682433,
  "center": {
    "lat": 49.0385842,
    "lon": 9.4435570
  },
  "nodes": [
    12223127686,
    12223127685,
    12223127683,
    12223127684,
    12223127681,
    268283274,
    268283275,
    268283276,
    268283225,
    12561132271,
    1294682944,
    268283280,
    12223127691,
    12223127692,
    12223127688,
    12223127687,
    12223127686
  ],
  "tags": {
    "fenced": "yes",
    "landuse": "cemetery",
    "religion": "christian"
  }
},
{
  "type": "way",
  "id": 24698461,
  "center": {
    "lat": 49.6274802,
    "lon": 9.9467850
  },
  "nodes": [
    268461024,
    268461025,
    268461026,
    268461027,
    4338449698,
    268461024
  ],
  "tags": {
    "landuse": "cemetery",
    "name": "Friedhof Herchsheim"
  }
},
{
  "type": "way",
  "id": 24732307,
  "center": {
    "lat": 49.9652697,
    "lon": 9.0935666
  },
  "nodes": [
    268807257,
    1675591578,
    268807258,
    9400254840,
    1675591676,
    268807259,
    268807260,
    268807261,
    268807262,
    268807263,
    268807264,
    268807265,
    268807266,
    11916833827,
    11916833849,
    268807267,
    11916833839,
    11916833826,
    268807268,
    268807257
  ],
  "tags": {
    "landuse": "cemetery",
    "name": "Waldfriedhof"
  }
},
{
  "type": "way",
  "id": 24732534,
  "center": {
    "lat": 49.9713907,
    "lon": 9.1941342
  },
  "nodes": [
    268808989,
    268809002,
    599536820,
    1715718457,
    1715718459,
    269655910,
    3188423897,
    1715718468,
    268808993,
    269655908,
    1985222744,
    268809014,
    1727577354,
    268809017,
    268809000,
    268809021,
    268809024,
    599536809,
    268808989
  ],
  "tags": {
    "landuse": "cemetery",
    "name": "Waldfriedhof Haibach"
  }
},
{
  "type": "way",
  "id": 24753810,
  "center": {
    "lat": 49.9435986,
    "lon": 9.2126843
  },
  "nodes": [
    269009473,
    269009474,
    269009475,
    1596222977,
    269009476,
    2684662822,
    269009477,
    2584881607,
    2584881603,
    2584881601,
    2684662820,
    269009478,
    2584881600,
    269009479,
    2684662825,
    269009473
  ],
  "tags": {
    "barrier": "wall",
    "landuse": "cemetery"
  }
},
{
  "type": "way",
  "id": 24797698,
  "center": {
    "lat": 49.8464350,
    "lon": 9.1650246
  },
  "nodes": [
    269423541,
    269423544,
    269423548,
    269423552,
    269423556,
    642679741,
    269423560,
    269423562,
    6270137702,
    6270137703,
    269423565,
    269423541
  ],
  "tags": {
    "landuse": "cemetery",
    "religion": "christian"
  }
},
{
  "type": "way",
  "id": 24803304,
  "center": {
    "lat": 49.9832157,
    "lon": 9.0911272
  },
  "nodes": [
    269474490,
    269474491,
    316186544,
    316186538,
    316186546,
    266597044,
    269474490
  ],
  "tags": {
    "landuse": "cemetery",
    "name": "Friedhof Mainaschaff"
  }
},
{
  "type": "way",
  "id": 24821037,
  "center": {
    "lat": 49.9659504,
    "lon": 9.2038411
  },
  "nodes": [
    269657978,
    9750071635,
    269657979,
    269657980,
    9750071636,
    269657981,
    269657978
  ],
  "tags": {
    "amenity": "grave_yard"
  }
},
{
  "type": "way",
  "id": 25014046,
  "center": {
    "lat": 49.7285998,
    "lon": 9.2164503
  },
  "nodes": [
    271932563,
    271932564,
    271932565,
    271932566,
    8265292154,
    271932567,
    4973515725,
    293997963,
    293997962,
    5720884070,
    5720884071,
    4973512419,
    448283308,
    5718348936,
    271932571,
    271932563
  ],
  "tags": {
    "denomination": "catholic",
    "landuse": "cemetery",
    "name": "Friedhof Großheubach",
    "religion": "christian"
  }
},
{
  "type": "way",
  "id": 25157709,
  "center": {
    "lat": 49.3546958,
    "lon": 9.2268698
  },
  "nodes": [
    274249403,
    274249404,
    274293159,
    274293160,
    274249405,
    274249406,
    274958452,
    274958453,
    274249403
  ],
  "tags": {
    "landuse": "cemetery",
    "name": "Friedhof Sulzbach",
    "operator": "Gemeinde Billigheim",
    "religion": "christian",
    "website": "https://grabsteine.genealogy.net/namelist.php?cem=5053",
    "wikidata": "Q110979108"
  }
},
{
  "type": "way",
  "id": 25200966,
  "center": {
    "lat": 49.7124778,
    "lon": 9.1817507
  },
  "nodes": [
    274767521,
    274767526,
    8780559976,
    8780559975,
    274767553,
    274767575,
    274767661,
    8780559977,
    274767710,
    8780559978,
    274767791,
    274767521
  ],
  "tags": {
    "denomination": "catholic",
    "landuse": "cemetery",
    "operator": "Gemeinde Rüdenau",
    "religion": "christian"
  }
},
{
  "type": "way",
  "id": 25301393,
  "center": {
    "lat": 49.1628801,
    "lon": 9.4316720
  },
  "nodes": [
    275595241,
    275595242,
    5530234785,
    275595243,
    1122212774,
    275595245,
    275595246,
    275595247,
    275595241
  ],
  "tags": {
    "landuse": "cemetery"
  }
},
{
  "type": "way",
  "id": 25309434,
  "center": {
    "lat": 49.0670993,
    "lon": 9.2861113
  },
  "nodes": [
    275688502,
    275688500,
    2332011372,
    2332011374,
    2332011383,
    2332011403,
    275688497,
    2332011385,
    2332011365,
    2332011344,
    275688495,
    275688488,
    275688486,
    275688484,
    275688482,
    275688480,
    275688478,
    389743450,
    2332011335,
    2332011346,
    275688466,
    275688464,
    2332011381,
    2332011387,
    2332011398,
    389743453,
    275688502
  ],
  "tags": {
    "landuse": "cemetery",
    "name": "Friedhof Abstatt"
  }
},
{
  "type": "way",
  "id": 25322488,
  "center": {
    "lat": 49.9221163,
    "lon": 9.1380658
  },
  "nodes": [
    275880473,
    275880474,
    275880476,
    275880477,
    275880478,
    275880479,
    275880480,
    275880473
  ],
  "tags": {
    "landuse": "cemetery",
    "name": "Friedhof Niedernberg",
    "operator": "Gemeinde Niedernberg"
  }
},
{
  "type": "way",
  "id": 25335981,
  "center": {
    "lat": 49.1407502,
    "lon": 9.1205551
  },
  "nodes": [
    276061915,
    276061916,
    276061917,
    276061918,
    276061919,
    1140867624,
    276061920,
    1140867542,
    1140867607,
    276061921,
    276061922,
    276061923,
    276061924,
    276061925,
    9672019131,
    276061926,
    1140867491,
    276061927,
    276061928,
    1140867609,
    276061935,
    276061948,
    276061966,
    1140867621,
    1140867522,
    1140867597,
    1140867463,
    1140867688,
    1140867601,
    1140867643,
    276061977,
    276061991,
    1140867623,
    276061992,
    276061915
  ],
  "tags": {
    "landuse": "cemetery",
    "name": "Friedhof Leingarten"
  }
},
{
  "type": "way",
  "id": 25406286,
  "center": {
    "lat": 49.9848361,
    "lon": 9.0586882
  },
  "nodes": [
    276884372,
    457582241,
    457582255,
    6295442359,
    6295442360,
    6295442357,
    6295442364,
    6295442355,
    6295442358,
    6295442361,
    6295442354,
    443819252,
    276884372
  ],
  "tags": {
    "landuse": "cemetery",
    "name": "Friedhof Stockstadt"
  }
},
{
  "type": "way",
  "id": 25468101,
  "center": {
    "lat": 49.8892326,
    "lon": 9.0393302
  },
  "nodes": [
    277518426,
    277518427,
    3800850259,
    3800850261,
    277518428,
    3800850263,
    8611345344,
    277518429,
    4442022388,
    4442022360,
    4442022346,
    277518426
  ],
  "tags": {
    "landuse": "cemetery",
    "name": "Friedhof Wenigumstadt",
    "religion": "christian"
  }
},
{
  "type": "way",
  "id": 25532156,
  "center": {
    "lat": 49.8969091,
    "lon": 9.1896379
  },
  "nodes": [
    278261815,
    278261818,
    278261819,
    278261822,
    278261815
  ],
  "tags": {
    "denomination": "catholic",
    "landuse": "cemetery",
    "religion": "christian"
  }
},
{
  "type": "way",
  "id": 25538982,
  "center": {
    "lat": 49.1487088,
    "lon": 9.2816766
  },
  "nodes": [
    278335264,
    278335287,
    278335280,
    501987251,
    278335266,
    501903370,
    669070965,
    669074141,
    278335264
  ],
  "tags": {
    "landuse": "cemetery",
    "name": "Friedhof",
    "religion": "christian"
  }
},
{
  "type": "way",
  "id": 25570441,
  "center": {
    "lat": 49.5689488,
    "lon": 9.7053767
  },
  "nodes": [
    190624021,
    3351481424,
    3351481423,
    3351701757,
    3351481425,
    3351481434,
    1195499530,
    5837034753,
    278735075,
    190624021
  ],
  "tags": {
    "barrier": "wall",
    "landuse": "cemetery",
    "name": "Friedhof Lauda",
    "operator": "Stadt Lauda-Königshofen",
    "wikidata": "Q106742616"
  }
},
{
  "type": "way",
  "id": 25767427,
  "center": {
    "lat": 49.7617846,
    "lon": 9.9556028
  },
  "nodes": [
    281031463,
    281031464,
    11056610025,
    281031465,
    281031466,
    281031467,
    281031468,
    281031469,
    281031470,
    281031471,
    281031463
  ],
  "tags": {
    "landuse": "cemetery",
    "name": "Friedhof Heidingsfeld",
    "religion": "christian",
    "website": "https://www.wuerzburg.de/buerger/friedhofsverwaltung/friedhoefe/406965.Friedhof-Heidingsfeld.html"
  }
},
{
  "type": "way",
  "id": 25770366,
  "center": {
    "lat": 49.7096595,
    "lon": 9.0978066
  },
  "nodes": [
    281069714,
    8322321396,
    281069715,
    277625896,
    281069717,
    281069718,
    8322321394,
    8322321400,
    9231175978,
    281069714
  ],
  "tags": {
    "landuse": "cemetery",
    "name": "Friedhof Vielbrunn",
    "operator": "Stadt Michelstadt",
    "website": "https://grabsteine.genealogy.net/namelist.php?cem=1194&lang=de"
  }
},
{
  "type": "way",
  "id": 25845820,
  "center": {
    "lat": 49.9748388,
    "lon": 9.1192293
  },
  "nodes": [
    281909364,
    281909392,
    1096190364,
    281909388,
    281909382,
    3771664156,
    3771664155,
    281909378,
    281909370,
    281909364
  ],
  "tags": {
    "landuse": "cemetery"
  }
},
{
  "type": "way",
  "id": 25969473,
  "center": {
    "lat": 49.6278867,
    "lon": 9.8523132
  },
  "nodes": [
    283308204,
    2617149398,
    2617149399,
    283308206,
    268635124,
    3243734787,
    283308205,
    283308204
  ],
  "tags": {
    "amenity": "grave_yard",
    "name": "Friedhof Oberwittighausen",
    "wikidata": "Q101209099"
  }
},
{
  "type": "way",
  "id": 25970661,
  "center": {
    "lat": 49.7768574,
    "lon": 9.1847873
  },
  "nodes": [
    283317081,
    283317083,
    1064768723,
    283317086,
    283317089,
    13179484699,
    283317091,
    13179484688,
    13179484694,
    283317093,
    746864768,
    283317094,
    283317081
  ],
  "tags": {
    "landuse": "cemetery",
    "name": "Friedhof Klingenberg am Main",
    "operator": "Stadt Klingenberg am Main"
  }
},
{
  "type": "way",
  "id": 26198793,
  "center": {
    "lat": 49.3678545,
    "lon": 9.0647069
  },
  "nodes": [
    286869130,
    2427059798,
    3873236719,
    3873236718,
    2427059800,
    286869139,
    286869130
  ],
  "tags": {
    "landuse": "cemetery",
    "name": "Jüdischer Friedhof und KZ-Gedenkstätte",
    "religion": "jewish",
    "wikidata": "Q971564"
  }
},
{
  "type": "way",
  "id": 26308970,
  "center": {
    "lat": 49.3696052,
    "lon": 9.0219666
  },
  "nodes": [
    288219146,
    288219148,
    288219149,
    288219152,
    288219146
  ],
  "tags": {
    "landuse": "cemetery",
    "name": "Friedhof Breitenbronn",
    "operator": "Gemeinde Aglasterhausen",
    "website": "https://grabsteine.genealogy.net/namelist.php?cem=6218&lang=de",
    "wikidata": "Q110969384"
  }
},
{
  "type": "way",
  "id": 26398129,
  "center": {
    "lat": 49.3925821,
    "lon": 9.0958998
  },
  "nodes": [
    289195649,
    289195650,
    289195651,
    289195652,
    289195649
  ],
  "tags": {
    "landuse": "cemetery",
    "name": "Friedhof Reichenbuch",
    "operator": "Stadt Mosbach",
    "religion": "christian",
    "website": "https://grabsteine.genealogy.net/namelist.php?cem=5051&lang=de",
    "wikidata": "Q111011189"
  }
},
{
  "type": "way",
  "id": 26407998,
  "center": {
    "lat": 49.7577768,
    "lon": 9.8281663
  },
  "nodes": [
    289323625,
    289323626,
    289323627,
    289323628,
    289323629,
    289323630,
    5205489163,
    289323640,
    5205489166,
    289323651,
    289323654,
    5205489162,
    5205489161,
    289323655,
    289323657,
    289323625
  ],
  "tags": {
    "landuse": "cemetery",
    "religion": "christian"
  }
},
{
  "type": "way",
  "id": 26434867,
  "center": {
    "lat": 49.7878726,
    "lon": 9.8535196
  },
  "nodes": [
    268092629,
    4631727939,
    28844175,
    309854564,
    6123369863,
    6123369864,
    289665429,
    289665452,
    4066453634,
    4066453633,
    4097141748,
    268092629
  ],
  "tags": {
    "landuse": "cemetery",
    "name": "Waldfriedhof Waldbüttelbrunn"
  }
},
{
  "type": "way",
  "id": 26487865,
  "center": {
    "lat": 49.3851203,
    "lon": 9.0337248
  },
  "nodes": [
    290299330,
    290299331,
    290299332,
    290299344,
    290299333,
    290299330
  ],
  "tags": {
    "amenity": "grave_yard",
    "landuse": "cemetery",
    "name": "Friedhof Neckarkatzenbach",
    "operator": "Gemeinde Neunkirchen",
    "religion": "christian",
    "website": "https://grabsteine.genealogy.net/namelist.php?cem=3966",
    "wikidata": "Q111015864"
  }
},
{
  "type": "way",
  "id": 26492924,
  "center": {
    "lat": 49.4681699,
    "lon": 9.8731561
  },
  "nodes": [
    290359873,
    290360227,
    290359750,
    358868140,
    290360436,
    290359530,
    290360329,
    358868204,
    290360477,
    358868428,
    358868631,
    290359873
  ],
  "tags": {
    "landuse": "cemetery",
    "religion": "christian",
    "source": "gps"
  }
},
{
  "type": "way",
  "id": 26516646,
  "center": {
    "lat": 49.2288284,
    "lon": 9.1533435
  },
  "nodes": [
    290623811,
    290623812,
    1431897201,
    1431897203,
    1431897200,
    1431897199,
    290623811
  ],
  "tags": {
    "landuse": "cemetery",
    "name": "Friedhof Bad Wimpfen",
    "operator": "Stadt Bad Wimpfen",
    "religion": "christian"
  }
},
{
  "type": "way",
  "id": 26525823,
  "center": {
    "lat": 49.2297590,
    "lon": 9.1853635
  },
  "nodes": [
    290735128,
    3531035057,
    290735132,
    2976911338,
    290735136,
    290735140,
    290735146,
    290735150,
    290735161,
    290735165,
    290735167,
    2976940537,
    290735128
  ],
  "tags": {
    "landuse": "cemetery",
    "religion": "christian"
  }
},
{
  "type": "way",
  "id": 26682659,
  "center": {
    "lat": 49.7966896,
    "lon": 9.9463830
  },
  "nodes": [
    336134409,
    344219161,
    298456541,
    292634991,
    292629692,
    336134237,
    292653543,
    292634887,
    336134409
  ],
  "tags": {
    "barrier": "wall",
    "cemetery": "sector",
    "height": "3",
    "material": "stone",
    "ref": "Abt. 1",
    "wall": "stone"
  }
},
{
  "type": "way",
  "id": 26683536,
  "center": {
    "lat": 49.7965637,
    "lon": 9.9476150
  },
  "nodes": [
    292642835,
    336133202,
    292634885,
    336134409,
    292634887,
    317407922,
    292642835
  ],
  "tags": {
    "barrier": "wall",
    "cemetery": "sector",
    "height": "3",
    "material": "stone",
    "ref": "Abt. 2",
    "wall": "stone"
  }
},
{
  "type": "way",
  "id": 26715852,
  "center": {
    "lat": 49.3482587,
    "lon": 9.0024936
  },
  "nodes": [
    293004893,
    293004896,
    1155587159,
    293004899,
    3757635599,
    3757635595,
    293006508,
    3757635563,
    293004893
  ],
  "tags": {
    "landuse": "cemetery",
    "name": "Friedhof Daudenzell",
    "operator": "Gemeinde Aglasterhausen",
    "religion": "christian",
    "website": "https://grabsteine.genealogy.net/namelist.php?cem=6198&lang=de",
    "wikidata": "Q110969375"
  }
},
{
  "type": "way",
  "id": 26727104,
  "center": {
    "lat": 49.8786016,
    "lon": 9.8468578
  },
  "nodes": [
    9327680794,
    9327680795,
    9327680796,
    293148602,
    293148603,
    293148604,
    9327680793,
    9327680794
  ],
  "tags": {
    "landuse": "cemetery"
  }
},
{
  "type": "way",
  "id": 26789664,
  "center": {
    "lat": 49.0009774,
    "lon": 9.0226949
  },
  "nodes": [
    293872539,
    3026997428,
    3026997427,
    703965986,
    293872550,
    3026997430,
    293872548,
    3026997429,
    293872547,
    701292054,
    293872540,
    293872539
  ],
  "tags": {
    "landuse": "cemetery"
  }
},
{
  "type": "way",
  "id": 26804050,
  "center": {
    "lat": 49.7950594,
    "lon": 9.9493473
  },
  "nodes": [
    294036991,
    294040132,
    294036990,
    294036963,
    294036991
  ],
  "tags": {
    "cemetery": "sector",
    "ref": "Abt. 10"
  }
},
{
  "type": "way",
  "id": 26804070,
  "center": {
    "lat": 49.7946852,
    "lon": 9.9494095
  },
  "nodes": [
    294037496,
    294037748,
    9861727415,
    50508919,
    344220940,
    294036990,
    294040132,
    294037496
  ],
  "tags": {
    "cemetery": "sector",
    "ref": "Abt. 9"
  }
},
{
  "type": "way",
  "id": 26804124,
  "center": {
    "lat": 49.7954953,
    "lon": 9.9460289
  },
  "nodes": [
    292634885,
    344219629,
    296389516,
    294037967,
    50508932,
    292634991,
    298456541,
    344219418,
    292634885
  ],
  "tags": {
    "cemetery": "sector",
    "ref": "Abt. 8"
  }
},
{
  "type": "way",
  "id": 26811833,
  "center": {
    "lat": 49.6957011,
    "lon": 9.9301552
  },
  "nodes": [
    294121971,
    294121964,
    294121966,
    294121968,
    294121971
  ],
  "tags": {
    "landuse": "cemetery",
    "name": "Friedhof Albertshausen",
    "religion": "christian"
  }
},
{
  "type": "way",
  "id": 26841408,
  "center": {
    "lat": 49.4701620,
    "lon": 9.8300356
  },
  "nodes": [
    294795633,
    5055423799,
    294795646,
    294795663,
    311513365,
    5055423800,
    294795692,
    294795701,
    294795633
  ],
  "tags": {
    "denomination": "catholic",
    "landuse": "cemetery",
    "name": "Neuer Friedhof Markelsheim",
    "operator": "Stadt Bad Mergentheim",
    "religion": "christian"
  }
},
{
  "type": "way",
  "id": 26841412,
  "center": {
    "lat": 49.4705076,
    "lon": 9.8307856
  },
  "nodes": [
    294795774,
    294795781,
    358868322,
    294795997,
    358868485,
    294795787,
    294795795,
    294795801,
    343443536,
    294795807,
    343444624,
    294795814,
    5009312635,
    294795821,
    294795829,
    294795774
  ],
  "tags": {
    "denomination": "catholic",
    "landuse": "cemetery",
    "name": "Alter Friedhof Markelsheim",
    "operator": "Stadt Bad Mergentheim",
    "religion": "christian"
  }
},
{
  "type": "way",
  "id": 27039555,
  "center": {
    "lat": 49.7950129,
    "lon": 9.9466023
  },
  "nodes": [
    294037967,
    296389516,
    296389718,
    296389513,
    294037967
  ],
  "tags": {
    "cemetery": "sector",
    "ref": "Abt. 12"
  }
},
{
  "type": "way",
  "id": 27065025,
  "center": {
    "lat": 49.4843963,
    "lon": 9.8998969
  },
  "nodes": [
    296947255,
    296947136,
    296947142,
    296947147,
    296947151,
    2355185644,
    296947155,
    296947160,
    296947163,
    296947175,
    296947184,
    296947192,
    2355185637,
    2355185647,
    296947206,
    296947211,
    296947215,
    296947219,
    296947227,
    296947232,
    2355185698,
    296947235,
    296947239,
    296947246,
    296947249,
    296947255
  ],
  "tags": {
    "denomination": "catholic",
    "landuse": "cemetery",
    "name": "Friedhof Weikersheim",
    "religion": "christian",
    "source": "gps",
    "wikidata": "Q47004051"
  }
},
{
  "type": "way",
  "id": 27066284,
  "center": {
    "lat": 49.0169411,
    "lon": 9.9084315
  },
  "nodes": [
    296957053,
    296957060,
    296957057,
    472155946,
    296957055,
    296957053
  ],
  "tags": {
    "barrier": "wall",
    "landuse": "cemetery",
    "religion": "christian"
  }
},
{
  "type": "way",
  "id": 27074441,
  "center": {
    "lat": 49.2780845,
    "lon": 9.4819405
  },
  "nodes": [
    297038841,
    297038844,
    2829560011,
    297038848,
    297038851,
    2829560007,
    297038841
  ],
  "tags": {
    "landuse": "cemetery"
  }
},
{
  "type": "way",
  "id": 27097436,
  "center": {
    "lat": 49.6677986,
    "lon": 9.3148301
  },
  "nodes": [
    297313714,
    297313712,
    297313719,
    11116331565,
    1069396748,
    297313724,
    2398431695,
    297313714
  ],
  "tags": {
    "barrier": "wall",
    "dog": "no",
    "landuse": "cemetery",
    "name": "Friedhof Schippach",
    "operator": "Stadt Miltenberg",
    "website": "https://grabsteine.genealogy.net/namelist.php?cem=2212&lang=de"
  }
},
{
  "type": "way",
  "id": 27120576,
  "center": {
    "lat": 49.3921881,
    "lon": 9.0706657
  },
  "nodes": [
    297552834,
    4012713527,
    12878676488,
    4012713528,
    4012713529,
    4012713530,
    297552838,
    4012152039,
    297552842,
    297552847,
    4012152038,
    4012713525,
    4012713526,
    297552834
  ],
  "tags": {
    "landuse": "cemetery",
    "name": "Friedhof Guttenbach",
    "operator": "Gemeinde Neckargerach",
    "religion": "christian",
    "website": "https://grabsteine.genealogy.net/namelist.php?cem=3967",
    "wikidata": "Q111015843"
  }
},
{
  "type": "way",
  "id": 27251219,
  "center": {
    "lat": 49.6925828,
    "lon": 9.2215203
  },
  "nodes": [
    299091461,
    299091462,
    299091465,
    299091466,
    299091467,
    299091468,
    299091461
  ],
  "tags": {
    "denomination": "catholic",
    "landuse": "cemetery",
    "name": "Friedhof Breitendiel",
    "operator": "Stadt Miltenberg",
    "religion": "christian"
  }
},
{
  "type": "way",
  "id": 27305692,
  "center": {
    "lat": 49.7234854,
    "lon": 9.0079358
  },
  "nodes": [
    299749885,
    299749889,
    299749891,
    299749893,
    4424754802,
    299749885
  ],
  "tags": {
    "barrier": "wall",
    "landuse": "cemetery",
    "name": "Friedhof Momart",
    "operator": "Stadt Bad König",
    "religion": "christian",
    "website": "https://grabsteine.genealogy.net/namelist.php?cem=681&lang=de"
  }
},
{
  "type": "way",
  "id": 27310183,
  "center": {
    "lat": 49.6216566,
    "lon": 9.9032651
  },
  "nodes": [
    299785140,
    2398660791,
    345282400,
    299785142,
    299785150,
    299785156,
    299785162,
    299785165,
    345282402,
    299785140
  ],
  "tags": {
    "access": "private",
    "barrier": "wall",
    "landuse": "cemetery",
    "name": "Jüdischer Friedhof Allersheim",
    "religion": "jewish",
    "wikidata": "Q1716044"
  }
},
{
  "type": "way",
  "id": 27515797,
  "center": {
    "lat": 49.7563635,
    "lon": 9.8059003
  },
  "nodes": [
    302071508,
    302071512,
    302071513,
    302071514,
    302071508
  ],
  "tags": {
    "created_by": "JOSM",
    "landuse": "cemetery",
    "name": "Neuer Friedhof",
    "religion": "christian",
    "source": "survey"
  }
},
{
  "type": "way",
  "id": 27515802,
  "center": {
    "lat": 49.7584998,
    "lon": 9.8031085
  },
  "nodes": [
    302071885,
    302071887,
    302071888,
    5079453736,
    302071890,
    302071891,
    302071894,
    302071895,
    302071885
  ],
  "tags": {
    "landuse": "cemetery",
    "name": "Alter Friedhof",
    "religion": "christian",
    "source": "survey"
  }
},
{
  "type": "way",
  "id": 27567582,
  "center": {
    "lat": 49.4959281,
    "lon": 9.8154464
  },
  "nodes": [
    302695447,
    302695448,
    375910170,
    375910168,
    375910174,
    375926845,
    302695451,
    302695452,
    302695453,
    375910221,
    375923278,
    375910215,
    375910212,
    375910209,
    375910206,
    375910202,
    375910195,
    375910227,
    375910188,
    375910184,
    375910182,
    375910180,
    302695455,
    375910177,
    375910176,
    302695456,
    302695457,
    302695458,
    302695459,
    302695460,
    302695461,
    302695462,
    302695447
  ],
  "tags": {
    "landuse": "cemetery",
    "name": "Friedhof Igersheim",
    "operator": "Stadt Igersheim"
  }
},
{
  "type": "way",
  "id": 27645087,
  "center": {
    "lat": 49.6979214,
    "lon": 9.9712346
  },
  "nodes": [
    303618194,
    303618201,
    303618207,
    2546172778,
    2546172781,
    2546172779,
    303618212,
    2546172784,
    303618194
  ],
  "tags": {
    "amenity": "grave_yard"
  }
},
{
  "type": "way",
  "id": 27821131,
  "center": {
    "lat": 49.3605443,
    "lon": 9.1526729
  },
  "nodes": [
    305474623,
    2034391161,
    305474624,
    305474639,
    305474640,
    305474641,
    305474642,
    11297927404,
    305474643,
    305474628,
    2034391228,
    305474630,
    305474631,
    13179104086,
    13179092791,
    2020651364,
    10110081839,
    305474634,
    305474635,
    305474636,
    8533294631,
    305474637,
    8533294632,
    2020651277,
    305474638,
    305474623
  ],
  "tags": {
    "amenity": "grave_yard",
    "denomination": "catholic",
    "landuse": "cemetery",
    "name": "Friedhof Mosbach",
    "operator": "Stadt Mosbach",
    "religion": "christian",
    "website": "https://grabsteine.genealogy.net/namelist.php?cem=5024&lang=de",
    "wikidata": "Q111011171"
  }
},
{
  "type": "way",
  "id": 27821132,
  "center": {
    "lat": 49.3602311,
    "lon": 9.1512485
  },
  "nodes": [
    305474639,
    305474640,
    305474641,
    305474642,
    11297927404,
    305474643,
    305474639
  ],
  "tags": {
    "amenity": "grave_yard",
    "denomination": "orthodox",
    "landuse": "cemetery",
    "religion": "jewish",
    "website": "https://grabsteine.genealogy.net/namelist.php?cem=5024&lang=de"
  }
},
{
  "type": "way",
  "id": 27870951,
  "center": {
    "lat": 49.7798943,
    "lon": 9.8657312
  },
  "nodes": [
    305995036,
    1698662394,
    1698662396,
    1698662391,
    1698662395,
    1698662399,
    301586827,
    1698662419,
    305995043,
    1698662412,
    1698662407,
    1698662404,
    305995083,
    305995036
  ],
  "tags": {
    "landuse": "cemetery",
    "name": "Neuer Friedhof"
  }
},
{
  "type": "way",
  "id": 28023009,
  "center": {
    "lat": 49.4428162,
    "lon": 9.8558316
  },
  "nodes": [
    307710630,
    307710823,
    307709751,
    307710719,
    307709824,
    307710598,
    307710167,
    307711022,
    307710630
  ],
  "tags": {
    "denomination": "lutheran",
    "landuse": "cemetery",
    "name": "Friedhof Rüsselhausen",
    "religion": "christian",
    "wikidata": "Q106780685"
  }
},
{
  "type": "way",
  "id": 28143823,
  "center": {
    "lat": 49.9113854,
    "lon": 9.1507196
  },
  "nodes": [
    309121561,
    9376135265,
    9376135269,
    4321662704,
    10044546726,
    309121562,
    10044546728,
    10044546736,
    10044546737,
    10044546732,
    10044546735,
    10044546738,
    10044546733,
    10044546739,
    309121564,
    10044546740,
    309121568,
    1705373239,
    309121569,
    309121561
  ],
  "tags": {
    "landuse": "cemetery",
    "name": "Friedhof Sulzbach",
    "operator": "Markt Sulzbach",
    "operator:type": "public",
    "seamark:landmark:category": "tower",
    "seamark:landmark:conspicuity": "conspicuous",
    "seamark:landmark:function": "church",
    "seamark:type": "landmark",
    "source": "WSV"
  }
},
{
  "type": "way",
  "id": 28154588,
  "center": {
    "lat": 49.9245142,
    "lon": 9.2160317
  },
  "nodes": [
    309244703,
    2459605769,
    2459605805,
    2459605796,
    309244705,
    5888382840,
    309244707,
    1995473190,
    2459124008,
    2459605765,
    309244708,
    2459605759,
    1995473264,
    1995473262,
    309244703
  ],
  "tags": {
    "barrier": "fence",
    "landuse": "cemetery"
  }
},
{
  "type": "way",
  "id": 28164458,
  "center": {
    "lat": 49.9672811,
    "lon": 9.6975678
  },
  "nodes": [
    309351415,
    5467828691,
    10311193119,
    10311193120,
    309351418,
    10311193118,
    309351416,
    5467828693,
    303179757,
    309351414,
    9514893395,
    9514893402,
    309351415
  ],
  "tags": {
    "denomination": "catholic",
    "landuse": "cemetery",
    "religion": "christian",
    "wikidata": "Q41357290"
  }
},
{
  "type": "way",
  "id": 28215207,
  "center": {
    "lat": 49.7061297,
    "lon": 9.0424134
  },
  "nodes": [
    309901749,
    309901770,
    660711732,
    660711720,
    309901809,
    660711726,
    1860754736,
    1860754734,
    309901839,
    1860754722,
    1860754728,
    1860754727,
    1729247925,
    1729247926,
    309901749
  ],
  "tags": {
    "barrier": "wall",
    "landuse": "cemetery",
    "name": "Friedhof Weiten-Gesäß",
    "operator": "Stadt Michelstadt",
    "website": "https://grabsteine.genealogy.net/namelist.php?cem=859&lang=de"
  }
},
{
  "type": "way",
  "id": 28218158,
  "center": {
    "lat": 49.9263223,
    "lon": 9.7993365
  },
  "nodes": [
    6900807111,
    6900807112,
    11237988787,
    11237988786,
    6900807119,
    6900807118,
    6900807113,
    6900807114,
    6900807115,
    6900807124,
    6900807111
  ],
  "tags": {
    "landuse": "cemetery"
  }
},
{
  "type": "way",
  "id": 28226898,
  "center": {
    "lat": 49.8606913,
    "lon": 9.8410874
  },
  "nodes": [
    310020514,
    310020515,
    310020517,
    3158700054,
    310020518,
    3158700055,
    297034844,
    3158700056,
    3158700053,
    3158700052,
    9240452613,
    9240452612,
    310020514
  ],
  "tags": {
    "landuse": "cemetery",
    "name": "Friedhof Erlabrunn"
  }
},
{
  "type": "way",
  "id": 28230805,
  "center": {
    "lat": 49.9010490,
    "lon": 9.8122356
  },
  "nodes": [
    9561913372,
    310071165,
    6665503081,
    6665503082,
    310071166,
    6426184353,
    9561913375,
    9561913374,
    9561913373,
    9561913371,
    9561913372
  ],
  "tags": {
    "denomination": "catholic",
    "landuse": "cemetery",
    "name": "Friedhof Zellingen",
    "religion": "christian"
  }
},
{
  "type": "way",
  "id": 28453895,
  "center": {
    "lat": 49.4981354,
    "lon": 9.9020299
  },
  "nodes": [
    312604053,
    312604058,
    312604063,
    312604067,
    312604053
  ],
  "tags": {
    "landuse": "cemetery",
    "name": "Friedhof Schäftersheim",
    "wikidata": "Q105621785"
  }
},
{
  "type": "way",
  "id": 28494888,
  "center": {
    "lat": 49.6247430,
    "lon": 9.9797900
  },
  "nodes": [
    313040205,
    313040207,
    313040209,
    313040212,
    3187665320,
    3187665332,
    1474511606,
    1474511604,
    313040205
  ],
  "tags": {
    "landuse": "cemetery",
    "religion": "christian"
  }
},
{
  "type": "way",
  "id": 28496066,
  "center": {
    "lat": 49.6340647,
    "lon": 9.9986108
  },
  "nodes": [
    313050702,
    3203014943,
    313050703,
    313050704,
    3203019062,
    3203014958,
    3203014955,
    313050705,
    1043946811,
    1043946507,
    3203014945,
    3203014940,
    1043946680,
    1043946700,
    1043946573,
    313050702
  ],
  "tags": {
    "landuse": "cemetery",
    "religion": "christian"
  }
},
{
  "type": "way",
  "id": 28661313,
  "center": {
    "lat": 49.4793426,
    "lon": 9.3136308
  },
  "nodes": [
    1255785316,
    3334290177,
    1943204949,
    1943204944,
    1943204924,
    3334290172,
    1943204862,
    1943204893,
    2544501227,
    6596571937,
    6596571938,
    6596571939,
    6596571944,
    6596571945,
    6596571943,
    3340489566,
    3340489565,
    6596571946,
    6596571942,
    6596571941,
    6596571940,
    2544501228,
    423349722,
    9797971514,
    1255785316
  ],
  "tags": {
    "landuse": "cemetery",
    "name": "Friedhof Bödigheim",
    "operator": "Stadt Buchen",
    "religion": "christian",
    "website": "https://grabsteine.genealogy.net/namelist.php?cem=4441&lang=de",
    "wikidata": "Q110986617"
  }
},
{
  "type": "way",
  "id": 28728738,
  "center": {
    "lat": 49.0788119,
    "lon": 9.1977107
  },
  "nodes": [
    315870600,
    790938045,
    790938028,
    790937991,
    1094403264,
    315870641,
    315870650,
    315870659,
    315870667,
    315870674,
    790439891,
    790439264,
    315870688,
    1132436835,
    1132436921,
    1132436900,
    1132436844,
    315870600
  ],
  "tags": {
    "landuse": "cemetery",
    "name": "Gemeindefriedhof Talheim"
  }
},
{
  "type": "way",
  "id": 28800034,
  "center": {
    "lat": 49.9014022,
    "lon": 9.7210063
  },
  "nodes": [
    316653998,
    9033061598,
    9033061597,
    316653999,
    9033061580,
    9033061581,
    1576188350,
    1576188352,
    316653998
  ],
  "tags": {
    "landuse": "cemetery",
    "name": "Friedhof Duttenbrunn",
    "religion": "christian"
  }
},
{
  "type": "way",
  "id": 28828905,
  "center": {
    "lat": 49.8036061,
    "lon": 9.8131107
  },
  "nodes": [
    316952001,
    6030208898,
    316952007,
    316952002,
    316952003,
    316952004,
    6030192988,
    316952005,
    6030208897,
    316952001
  ],
  "tags": {
    "denomination": "catholic",
    "landuse": "cemetery",
    "religion": "christian"
  }
},
{
  "type": "way",
  "id": 28849887,
  "center": {
    "lat": 48.9996169,
    "lon": 9.1042712
  },
  "nodes": [
    2549741659,
    317179676,
    317179678,
    317179679,
    4986620243,
    317179680,
    4986620240,
    4986620241,
    1690273739,
    4986620237,
    4986620239,
    4986620238,
    2549741663,
    4986625261,
    4032682449,
    2549741659
  ],
  "tags": {
    "landuse": "cemetery",
    "name": "Friedhof Löchgau",
    "wheelchair": "yes"
  }
},
{
  "type": "way",
  "id": 28864091,
  "center": {
    "lat": 49.7045212,
    "lon": 9.9036283
  },
  "nodes": [
    317317076,
    3179418080,
    317317077,
    3179418077,
    3179418079,
    317317076
  ],
  "tags": {
    "barrier": "wall",
    "landuse": "cemetery",
    "religion": "christian"
  }
},
{
  "type": "way",
  "id": 28870979,
  "center": {
    "lat": 49.7756169,
    "lon": 9.6484204
  },
  "nodes": [
    317380714,
    317380715,
    317380716,
    317380717,
    317380714
  ],
  "tags": {
    "created_by": "Potlatch 0.10f",
    "landuse": "cemetery"
  }
},
{
  "type": "way",
  "id": 28879337,
  "center": {
    "lat": 49.7029185,
    "lon": 9.8439019
  },
  "nodes": [
    317450774,
    3220905862,
    3220905852,
    317450776,
    13018345196,
    13018345195,
    317450777,
    317450775,
    317450774
  ],
  "tags": {
    "landuse": "cemetery",
    "name": "Friedhof",
    "religion": "christian"
  }
},
{
  "type": "way",
  "id": 28959159,
  "center": {
    "lat": 49.9861008,
    "lon": 9.5873915
  },
  "nodes": [
    318406757,
    318406763,
    13001306224,
    2171510564,
    2171510555,
    2171510552,
    318406769,
    318406770,
    2171510559,
    318406757
  ],
  "tags": {
    "landuse": "cemetery",
    "name": "Friedhof Sendelbach",
    "religion": "christian"
  }
},
{
  "type": "way",
  "id": 29247847,
  "center": {
    "lat": 49.5889712,
    "lon": 9.3616962
  },
  "nodes": [
    321671378,
    3048392445,
    321671379,
    321671380,
    321671381,
    321671382,
    3101926828,
    3101926827,
    1338026872,
    1338026877,
    2035035636,
    2035035669,
    2035035627,
    321671383,
    321671384,
    321671385,
    321671386,
    321671387,
    321671388,
    321671389,
    321671378
  ],
  "tags": {
    "amenity": "grave_yard",
    "landuse": "cemetery",
    "name": "Friedhof Walldürn",
    "operator": "Stadt Walldürn",
    "religion": "christian",
    "website": "https://grabsteine.genealogy.net/namelist.php?cem=4465",
    "wikidata": "Q109728855"
  }
},
{
  "type": "way",
  "id": 29331656,
  "center": {
    "lat": 49.3713685,
    "lon": 9.5419715
  },
  "nodes": [
    322685700,
    322685701,
    322685702,
    322685703,
    322685704,
    322685705,
    322685700
  ],
  "tags": {
    "landuse": "cemetery",
    "layer": "-1",
    "name": "Friedhof Aschhausen",
    "operator": "Gemeinde Schöntal",
    "religion": "christian"
  }
},
{
  "type": "way",
  "id": 29381549,
  "center": {
    "lat": 49.3282109,
    "lon": 9.3547448
  },
  "nodes": [
    323179289,
    323179290,
    323179291,
    323179293,
    9439898502,
    323179294,
    323179295,
    323179296,
    323179298,
    323179299,
    323179300,
    9439898503,
    9439898501,
    323179289
  ],
  "tags": {
    "landuse": "cemetery",
    "name": "Friedhof Möckmühl",
    "operator": "Stadt Möckmühl"
  }
},
{
  "type": "way",
  "id": 29427129,
  "center": {
    "lat": 49.4638714,
    "lon": 9.9017506
  },
  "nodes": [
    324316807,
    324316983,
    324317107,
    324317334,
    370666763,
    324316807
  ],
  "tags": {
    "landuse": "cemetery",
    "name": "Jüdischer Friedhof Weikersheim",
    "religion": "jewish",
    "source": "gps",
    "website": "http://www.juedischer-kulturweg.de/de/weikersheim.html",
    "wikidata": "Q1716774",
    "wikipedia": "de:Jüdischer Friedhof Weikersheim"
  }
},
{
  "type": "way",
  "id": 29427413,
  "center": {
    "lat": 49.9640813,
    "lon": 9.6062038
  },
  "nodes": [
    324321636,
    324321637,
    324321639,
    324321641,
    324321642,
    324321636
  ],
  "tags": {
    "denomination": "catholic",
    "landuse": "cemetery",
    "name": "Waldfriedhof",
    "religion": "christian"
  }
},
{
  "type": "way",
  "id": 29557124,
  "center": {
    "lat": 49.3951394,
    "lon": 9.9825975
  },
  "nodes": [
    325724539,
    325724584,
    325724605,
    325724619,
    325724645,
    325724723,
    325724772,
    325724823,
    325724855,
    325724964,
    325724978,
    325725009,
    325725051,
    325724539
  ],
  "tags": {
    "amenity": "grave_yard",
    "denomination": "lutheran",
    "landuse": "cemetery",
    "religion": "christian",
    "source": "gps",
    "tourism": "attraction"
  }
},
{
  "type": "way",
  "id": 29978732,
  "center": {
    "lat": 49.5935432,
    "lon": 9.9190245
  },
  "nodes": [
    330021839,
    330021844,
    330021850,
    330021860,
    3169060300,
    330021839
  ],
  "tags": {
    "barrier": "wall",
    "landuse": "cemetery",
    "name": "Friedhof",
    "religion": "christian",
    "wikidata": "Q41386236"
  }
},
{
  "type": "way",
  "id": 30669680,
  "center": {
    "lat": 49.4530447,
    "lon": 9.9283992
  },
  "nodes": [
    339169546,
    339169547,
    339169548,
    339169549,
    339169550,
    339169551,
    339169552,
    339169546
  ],
  "tags": {
    "landuse": "cemetery",
    "religion": "christian",
    "source": "gps"
  }
},
{
  "type": "way",
  "id": 30759308,
  "center": {
    "lat": 49.8162437,
    "lon": 9.8611513
  },
  "nodes": [
    340173839,
    340173840,
    340173841,
    340173842,
    340173843,
    340173844,
    340173845,
    6205522414,
    340173846,
    340173847,
    340173848,
    340173849,
    9442821065,
    340173850,
    340173851,
    340173852,
    340173853,
    340173854,
    340173855,
    340173856,
    340173857,
    340173858,
    340173859,
    340173861,
    8829722362,
    8829722363,
    8829722364,
    340173863,
    340173816,
    8829722361,
    340173839
  ],
  "tags": {
    "landuse": "cemetery",
    "name": "Neuer Friedhof Zell a. Main",
    "religion": "christian"
  }
},
{
  "type": "way",
  "id": 30822104,
  "center": {
    "lat": 49.6740671,
    "lon": 9.9968469
  },
  "nodes": [
    11005508140,
    342196683,
    11005508139,
    11005508138,
    11005508141,
    11005508140
  ],
  "tags": {
    "landuse": "cemetery"
  }
},
{
  "type": "way",
  "id": 30828432,
  "center": {
    "lat": 49.3723322,
    "lon": 9.1281886
  },
  "nodes": [
    342384004,
    342384006,
    2983759157,
    342384009,
    342384012,
    342384014,
    342384004
  ],
  "tags": {
    "landuse": "cemetery",
    "name": "Friedhof Nüstenbach",
    "operator": "Stadt Mosbach",
    "religion": "christian",
    "website": "https://grabsteine.genealogy.net/namelist.php?cem=5044&lang=de",
    "wikidata": "Q111011204"
  }
},
{
  "type": "way",
  "id": 30899028,
  "center": {
    "lat": 49.0184041,
    "lon": 9.1488931
  },
  "nodes": [
    343527075,
    3016548132,
    3016548131,
    589033442,
    3016548130,
    589033444,
    3016562735,
    589033465,
    3016562737,
    3016562736,
    589033467,
    3016611443,
    589033530,
    589033532,
    589033523,
    343527124,
    343527131,
    343527133,
    343527134,
    343527136,
    343527075
  ],
  "tags": {
    "landuse": "cemetery",
    "name": "Neuer Friedhof Walheim",
    "religion": "christian",
    "wheelchair": "yes"
  }
},
{
  "type": "way",
  "id": 30913749,
  "center": {
    "lat": 49.7950659,
    "lon": 9.9482548
  },
  "nodes": [
    336133376,
    336133202,
    292644401,
    294036963,
    294036990,
    344220940,
    50508919,
    336133376
  ],
  "tags": {
    "barrier": "wall",
    "cemetery": "sector",
    "height": "3",
    "material": "stone",
    "ref": "Abt. 6",
    "wall": "stone"
  }
},
{
  "type": "way",
  "id": 30914043,
  "center": {
    "lat": 49.7952580,
    "lon": 9.9498696
  },
  "nodes": [
    50508908,
    294037041,
    294036991,
    294036963,
    292644401,
    336133614,
    50508908
  ],
  "tags": {
    "cemetery": "sector",
    "ref": "Abt. 5"
  }
},
{
  "type": "way",
  "id": 30956621,
  "center": {
    "lat": 49.7952490,
    "lon": 9.9471909
  },
  "nodes": [
    336133376,
    336133377,
    296403385,
    296389513,
    296389718,
    296389516,
    344219629,
    292634885,
    336133202,
    336133376
  ],
  "tags": {
    "barrier": "wall",
    "cemetery": "sector",
    "height": "3",
    "material": "stone",
    "ref": "Abt. 7",
    "wall": "stone"
  }
},
{
  "type": "way",
  "id": 30967091,
  "center": {
    "lat": 49.7964639,
    "lon": 9.9487599
  },
  "nodes": [
    336133202,
    292642835,
    292644434,
    292644401,
    336133202
  ],
  "tags": {
    "barrier": "wall",
    "cemetery": "sector",
    "height": "3",
    "material": "stone",
    "ref": "Abt. 3",
    "wall": "stone"
  }
},
{
  "type": "way",
  "id": 30967108,
  "center": {
    "lat": 49.7949483,
    "lon": 9.9500684
  },
  "nodes": [
    294037041,
    294037144,
    294040132,
    294036991,
    294037041
  ],
  "tags": {
    "cemetery": "sector",
    "ref": "Abt. 11"
  }
},
{
  "type": "way",
  "id": 31116456,
  "center": {
    "lat": 49.1383059,
    "lon": 9.4673735
  },
  "nodes": [
    2275260714,
    2275260718,
    2275260729,
    2275260733,
    2275260737,
    2252137009,
    345830243,
    2252137011,
    345830245,
    345830247,
    345830252,
    345830238,
    2252136982,
    2275260714
  ],
  "tags": {
    "denomination": "protestant",
    "landuse": "cemetery",
    "religion": "christian"
  }
},
{
  "type": "way",
  "id": 31694255,
  "center": {
    "lat": 49.2064478,
    "lon": 9.0571995
  },
  "nodes": [
    354671744,
    1216820879,
    1216821061,
    1216821237,
    1216820163,
    1216820354,
    1216820533,
    1216820762,
    354671747,
    354671748,
    1216821168,
    1216820973,
    1216820770,
    354671749,
    1216820672,
    354671744
  ],
  "tags": {
    "landuse": "cemetery",
    "name": "Friedhof Fürfeld",
    "operator": "Stadt Bad Rappenau"
  }
},
{
  "type": "way",
  "id": 31778265,
  "center": {
    "lat": 49.9029930,
    "lon": 9.8287265
  },
  "nodes": [
    355752105,
    355752106,
    355752107,
    355752108,
    4381050165,
    355752110,
    355752111,
    355752112,
    355752105
  ],
  "tags": {
    "denomination": "catholic",
    "landuse": "cemetery",
    "layer": "-4",
    "name": "Friedhof Retzbach",
    "religion": "christian"
  }
},
{
  "type": "way",
  "id": 31787543,
  "center": {
    "lat": 49.0549156,
    "lon": 9.8974563
  },
  "nodes": [
    355876429,
    355876430,
    4962480031,
    355639189,
    355876432,
    355882467,
    4962480036,
    355876434,
    4962480030,
    355876435,
    355876436,
    8964330182,
    4962659564,
    12825585227,
    355876437,
    12825585228,
    6591888318,
    12825585224,
    355876438,
    355876439,
    6591888323,
    355876440,
    6591823875,
    355876441,
    12825585139,
    4959568106,
    4959568105,
    4959568104,
    2294717766,
    355876429
  ],
  "tags": {
    "denomination": "catholic",
    "landuse": "cemetery",
    "name": "Friedhof Obersontheim",
    "religion": "christian"
  }
},
{
  "type": "way",
  "id": 31871313,
  "center": {
    "lat": 49.4037813,
    "lon": 9.8752538
  },
  "nodes": [
    356875388,
    356875410,
    356875457,
    356875615,
    356875388
  ],
  "tags": {
    "barrier": "wall",
    "denomination": "lutheran",
    "landuse": "cemetery",
    "religion": "christian",
    "wikidata": "Q106781037"
  }
},
{
  "type": "way",
  "id": 31897952,
  "center": {
    "lat": 49.4250294,
    "lon": 9.8913250
  },
  "nodes": [
    357240130,
    357240152,
    357240171,
    357240205,
    357240130
  ],
  "tags": {
    "denomination": "lutheran",
    "landuse": "cemetery",
    "religion": "christian"
  }
},
{
  "type": "way",
  "id": 31904210,
  "center": {
    "lat": 49.0654500,
    "lon": 9.8888737
  },
  "nodes": [
    4993250321,
    7592841084,
    355546156,
    7592861785,
    11991901841,
    362661439,
    7592861787,
    7592861786,
    4993249919,
    4993249912,
    4993249918,
    355546155,
    4993250321
  ],
  "tags": {
    "landuse": "cemetery",
    "name": "Friedhof Untersontheim"
  }
},
{
  "type": "way",
  "id": 32013607,
  "center": {
    "lat": 49.8193441,
    "lon": 9.0154047
  },
  "nodes": [
    359073158,
    359073163,
    359073166,
    2434073555,
    359075161,
    359073172,
    359073174,
    359073178,
    359073181,
    359073184,
    359073189,
    359073194,
    359073202,
    359073206,
    359073210,
    359073214,
    359073218,
    359073222,
    359073224,
    359073233,
    2434073557,
    2434073558,
    359081911,
    2434073556,
    359081919,
    359073252,
    359073275,
    359073303,
    359073314,
    359073331,
    359073336,
    359073158
  ],
  "tags": {
    "barrier": "wall",
    "denomination": "protestant",
    "landuse": "cemetery",
    "name": "Friedhof Sandbach"
  }
},
{
  "type": "way",
  "id": 32143648,
  "center": {
    "lat": 49.8180478,
    "lon": 9.9617792
  },
  "nodes": [
    360857093,
    360857149,
    360857146,
    360932849,
    360858643,
    360857096,
    360857099,
    360926864,
    360857101,
    360857102,
    360857104,
    9831876326,
    9831876325,
    360857107,
    360857108,
    360857110,
    360857112,
    360857113,
    360857115,
    3376419217,
    360857117,
    360857120,
    365311032,
    360857121,
    360857124,
    1030741587,
    360857125,
    365311030,
    360857128,
    365311031,
    360857129,
    9831876311,
    360931941,
    9831876315,
    9831876312,
    9831876314,
    9831876313,
    360931943,
    360858678,
    360857152,
    360857093
  ],
  "tags": {
    "landuse": "cemetery",
    "name": "Friedhof Versbach",
    "website": "https://www.wuerzburg.de/buerger/friedhofsverwaltung/friedhoefe/406970.Friedhof-Versbach.html"
  }
},
{
  "type": "way",
  "id": 32208148,
  "center": {
    "lat": 49.4772665,
    "lon": 9.7664795
  },
  "nodes": [
    361185916,
    361185917,
    2688380671,
    12710746701,
    2688380674,
    2688380676,
    2688380682,
    361185918,
    361185921,
    361185925,
    361185927,
    361185929,
    2688380687,
    2688380685,
    361185930,
    2688380679,
    361185931,
    361185916
  ],
  "tags": {
    "landuse": "cemetery",
    "name": "Friedhof Neunkirchen",
    "operator": "Stadt Bad Mergentheim"
  }
},
{
  "type": "way",
  "id": 32256091,
  "center": {
    "lat": 49.7633510,
    "lon": 9.9159964
  },
  "nodes": [
    362242250,
    362242251,
    362242292,
    362242253,
    362242296,
    362242255,
    287764710,
    9308342374,
    8672420761,
    8672420760,
    8672420762,
    5141589425,
    5141589426,
    362242259,
    5141589427,
    5141589428,
    5141589429,
    362242264,
    362242269,
    8455304534,
    433320349,
    362242273,
    362242276,
    433320360,
    362242281,
    362242300,
    362242284,
    362242250
  ],
  "tags": {
    "landuse": "cemetery",
    "name": "Waldfriedhof",
    "website": "https://www.wuerzburg.de/buerger/friedhofsverwaltung/friedhoefe/406963.Waldfriedhof.html",
    "wikidata": "Q52158697"
  }
},
{
  "type": "way",
  "id": 32264420,
  "center": {
    "lat": 49.9805069,
    "lon": 9.7577223
  },
  "nodes": [
    362592013,
    362592021,
    2527929724,
    2527929735,
    362592030,
    2527929740,
    2527929723,
    2524773168,
    2524773173,
    362592038,
    362592013
  ],
  "tags": {
    "landuse": "cemetery"
  }
},
{
  "type": "way",
  "id": 32316052,
  "center": {
    "lat": 49.4294670,
    "lon": 9.8654755
  },
  "nodes": [
    363779891,
    363779897,
    363779903,
    363779909,
    363779891
  ],
  "tags": {
    "denomination": "lutheran",
    "landuse": "cemetery",
    "religion": "christian"
  }
},
{
  "type": "way",
  "id": 32398393,
  "center": {
    "lat": 49.9705443,
    "lon": 9.3998646
  },
  "nodes": [
    364483995,
    364483997,
    2608484707,
    2608484711,
    364484001,
    2608484748,
    364483941,
    364483936,
    5228627474,
    5260512915,
    364483995
  ],
  "tags": {
    "landuse": "cemetery",
    "religion": "christian"
  }
},
{
  "type": "way",
  "id": 32510676,
  "center": {
    "lat": 49.8203977,
    "lon": 9.0319159
  },
  "nodes": [
    1923733304,
    762578958,
    365540715,
    5107382446,
    365540716,
    5107382448,
    365540717,
    5107382444,
    1923733304
  ],
  "tags": {
    "landuse": "cemetery",
    "name": "Friedhof Neustadt",
    "wheelchair": "yes"
  }
},
{
  "type": "way",
  "id": 32621421,
  "center": {
    "lat": 49.2694776,
    "lon": 9.0938027
  },
  "nodes": [
    366853841,
    366853843,
    366853845,
    366853847,
    2130372286,
    2130372280,
    366853849,
    2475020727,
    366853850,
    2130372257,
    2475020735,
    366853855,
    366853857,
    366853841
  ],
  "tags": {
    "barrier": "wall",
    "landuse": "cemetery",
    "name": "Friedhof Siegelsbach",
    "operator": "Gemeinde Siegelsbach"
  }
},
{
  "type": "way",
  "id": 32697451,
  "center": {
    "lat": 49.9101372,
    "lon": 9.8805727
  },
  "nodes": [
    367930921,
    367930922,
    367930924,
    367930902,
    367930925,
    3276703260,
    367930927,
    367930934,
    367930921
  ],
  "tags": {
    "denomination": "catholic",
    "landuse": "cemetery",
    "name": "Friedhof Retzstadt",
    "religion": "christian"
  }
},
{
  "type": "way",
  "id": 32787685,
  "center": {
    "lat": 49.1085725,
    "lon": 9.6952989
  },
  "nodes": [
    5437962320,
    5437962421,
    5437962318,
    5437962319,
    5437962317,
    5437962316,
    6017619075,
    446331653,
    446331675,
    6017636623,
    369388250,
    6017636618,
    6017636619,
    369388248,
    6017636607,
    6017636606,
    6017636604,
    6017636603,
    6017636601,
    6017636602,
    6017636605,
    446331650,
    6017636614,
    6017636600,
    6017636598,
    446331648,
    446331646,
    6017636596,
    446331644,
    6017619058,
    446331643,
    6017619071,
    6017619072,
    6017619069,
    446331641,
    6017619067,
    369388244,
    6017619063,
    6017619062,
    6017619060,
    6017619061,
    5437962320
  ],
  "tags": {
    "landuse": "cemetery",
    "name": "Waldfriedhof"
  }
},
{
  "type": "way",
  "id": 33082067,
  "center": {
    "lat": 49.5225255,
    "lon": 9.8915661
  },
  "nodes": [
    373316379,
    373316061,
    373313934,
    373316721,
    373314268,
    373314588,
    373315021,
    373316379
  ],
  "tags": {
    "landuse": "cemetery",
    "source": "gps"
  }
},
{
  "type": "way",
  "id": 33126001,
  "center": {
    "lat": 49.9742199,
    "lon": 9.3024050
  },
  "nodes": [
    374094756,
    5942558684,
    5942558985,
    5942558986,
    5139767015,
    5942558683,
    374094759,
    374094760,
    374094744,
    374094766,
    3660803702,
    3660804157,
    374094756
  ],
  "tags": {
    "denomination": "catholic",
    "landuse": "cemetery",
    "name": "Friedhof Waldaschaff",
    "religion": "christian"
  }
},
{
  "type": "way",
  "id": 33175211,
  "center": {
    "lat": 49.2516721,
    "lon": 9.8592673
  },
  "nodes": [
    375740736,
    10123961131,
    10123961127,
    10123961128,
    375740742,
    375740740,
    4339574168,
    4339574166,
    4339537818,
    4339537829,
    4339574171,
    375740737,
    10123961129,
    4339537938,
    4936643419,
    375740736
  ],
  "tags": {
    "landuse": "cemetery",
    "name": "Friedhof Langenburg",
    "religion": "christian",
    "source": "extrapolation"
  }
},
{
  "type": "way",
  "id": 33424220,
  "center": {
    "lat": 49.0027509,
    "lon": 9.2854114
  },
  "nodes": [
    1325496633,
    1325496630,
    1325496718,
    12546378974,
    1325496582,
    380313673,
    1325496603,
    1325496753,
    380313674,
    1325496633
  ],
  "tags": {
    "landuse": "cemetery",
    "name": "Neuer Friedhof Großbottwar"
  }
},
{
  "type": "way",
  "id": 33426679,
  "center": {
    "lat": 49.0021933,
    "lon": 9.2871537
  },
  "nodes": [
    380351060,
    380351061,
    1326296139,
    380351062,
    1326296673,
    12626229250,
    12626229248,
    12626229249,
    12628322076,
    12628322063,
    12626229247,
    380351065,
    12626229223,
    12626229222,
    1326296841,
    1326297081,
    12612781489,
    12612781490,
    12612781491,
    12612781493,
    12612781492,
    1325496562,
    380351068,
    1325496734,
    380351060
  ],
  "tags": {
    "landuse": "cemetery",
    "name": "Friedhof Großbottwar"
  }
},
{
  "type": "way",
  "id": 33463308,
  "center": {
    "lat": 49.2432809,
    "lon": 9.0982382
  },
  "nodes": [
    380814439,
    380814441,
    380814443,
    380814445,
    380814447,
    380814448,
    380814450,
    2137558362,
    380814452,
    1751654180,
    380814454,
    1414844845,
    380814456,
    2137558406,
    380814457,
    2399476531,
    2399476533,
    380814459,
    380814439
  ],
  "tags": {
    "landuse": "cemetery",
    "name": "Friedhof Bad Rappenau",
    "operator": "Stadt Bad Rappenau"
  }
},
{
  "type": "way",
  "id": 33534703,
  "center": {
    "lat": 49.5843462,
    "lon": 9.5271861
  },
  "nodes": [
    382604607,
    382604611,
    382604613,
    2057272364,
    382604609,
    382604607
  ],
  "tags": {
    "amenity": "grave_yard",
    "landuse": "cemetery",
    "name": "Friedhof Pülfringen",
    "operator": "Gemeinde Königheim",
    "religion": "christian"
  }
},
{
  "type": "way",
  "id": 33650979,
  "center": {
    "lat": 49.5798829,
    "lon": 9.4844630
  },
  "nodes": [
    384955499,
    387417326,
    716946636,
    716946639,
    716946641,
    384955503,
    384955521,
    384955518,
    384955508,
    384955532,
    384955516,
    384955506,
    387417324,
    384955501,
    384955499
  ],
  "tags": {
    "amenity": "grave_yard",
    "landuse": "cemetery",
    "name": "Friedhof Bretzingen",
    "note": "Evtl fehlt noch ein Weg",
    "operator": "Gemeinde Hardheim",
    "religion": "christian",
    "website": "https://grabsteine.genealogy.net/namelist.php?cem=5893",
    "wikidata": "Q110996784"
  }
},
{
  "type": "way",
  "id": 33651015,
  "center": {
    "lat": 49.5558551,
    "lon": 9.4955133
  },
  "nodes": [
    384955674,
    384955676,
    384955697,
    384955677,
    384955675,
    384955674
  ],
  "tags": {
    "amenity": "grave_yard",
    "landuse": "cemetery",
    "name": "Friedhof Erfeld",
    "operator": "Gemeinde Hardheim",
    "religion": "christian",
    "website": "https://grabsteine.genealogy.net/namelist.php?cem=5895",
    "wikidata": "Q110996794"
  }
},
{
  "type": "way",
  "id": 33703385,
  "center": {
    "lat": 49.4474509,
    "lon": 9.8231673
  },
  "nodes": [
    385311297,
    385311298,
    12122619054,
    385311299,
    385311300,
    385311301,
    385311302,
    385311297
  ],
  "tags": {
    "denomination": "catholic",
    "landuse": "cemetery",
    "name": "Friedhof Apfelbach",
    "operator": "Stadt Bad Mergentheim",
    "religion": "christian"
  }
},
{
  "type": "way",
  "id": 33999038,
  "center": {
    "lat": 49.6713556,
    "lon": 9.0168037
  },
  "nodes": [
    12556230877,
    3270560964,
    10033022743,
    10033022744,
    1038120560,
    2030449502,
    3603524087,
    1038120555,
    243823805,
    3195587503,
    3144566947,
    3270560979,
    3270560978,
    6328721721,
    3226591057,
    1038117124,
    1038117123,
    3195587541,
    1038117119,
    1038117121,
    1038117118,
    389462759,
    3270560976,
    389462762,
    3195587527,
    3195587523,
    12556230877
  ],
  "tags": {
    "barrier": "fence",
    "landuse": "cemetery",
    "name": "Friedhof Michelstadt",
    "operator": "Stadt Michelstadt"
  }
},
{
  "type": "way",
  "id": 34040411,
  "center": {
    "lat": 49.0403417,
    "lon": 9.9052899
  },
  "nodes": [
    390077797,
    4933285443,
    390077798,
    4933285446,
    390077799,
    4933285441,
    4933285445,
    4933285442,
    390077800,
    390077797
  ],
  "tags": {
    "landuse": "cemetery",
    "name": "Friedhof Bühlertann",
    "religion": "christian"
  }
},
{
  "type": "way",
  "id": 34108783,
  "center": {
    "lat": 49.9608361,
    "lon": 9.6558318
  },
  "nodes": [
    390990647,
    390990648,
    390990649,
    3230003445,
    390990647
  ],
  "tags": {
    "landuse": "cemetery",
    "name": "Friedhof Hausen"
  }
},
{
  "type": "way",
  "id": 34252008,
  "center": {
    "lat": 49.7798780,
    "lon": 9.9941090
  },
  "nodes": [
    392825298,
    3798765227,
    3134218643,
    3790519644,
    3796146124,
    1654700239,
    1654700240,
    3797107437,
    3797107438,
    392825299,
    392825300,
    10544057734,
    10544057735,
    392825301,
    3796196238,
    3796196273,
    392825302,
    1654700238,
    1654700237,
    1654700236,
    392825303,
    392825304,
    392825305,
    392825306,
    1654700235,
    3796196272,
    392825307,
    245946082,
    13269164247,
    392825316,
    12866662688,
    1654700233,
    3797107447,
    3797107440,
    392825318,
    12866662694,
    1654700234,
    392825309,
    392825310,
    3797107445,
    3797107441,
    392825311,
    392825313,
    3812514574,
    392825298
  ],
  "tags": {
    "landuse": "cemetery",
    "name": "Neuer Friedhof",
    "religion": "christian"
  }
},
{
  "type": "way",
  "id": 34902026,
  "center": {
    "lat": 49.0867436,
    "lon": 9.0786084
  },
  "nodes": [
    409446113,
    3525034344,
    409446114,
    3525034342,
    1108147599,
    1108147358,
    1108146945,
    1119014494,
    1108147404,
    409446115,
    409446117,
    409446113
  ],
  "tags": {
    "landuse": "cemetery",
    "name": "Friedhof Dürrenzimmern",
    "religion": "christian"
  }
},
{
  "type": "way",
  "id": 34918018,
  "center": {
    "lat": 49.2025939,
    "lon": 9.5330348
  },
  "nodes": [
    310104898,
    409701108,
    1393739793,
    408055686,
    4985343167,
    408055673,
    3438055108,
    1059316908,
    310104898
  ],
  "tags": {
    "amenity": "grave_yard"
  }
},
{
  "type": "way",
  "id": 35019057,
  "center": {
    "lat": 49.1674645,
    "lon": 9.3897548
  },
  "nodes": [
    410751548,
    4547851893,
    9008710027,
    410751551,
    410751554,
    410751557,
    4547851904,
    4547851905,
    4547851906,
    4547851907,
    410751548
  ],
  "tags": {
    "barrier": "fence",
    "landuse": "cemetery",
    "religion": "christian"
  }
},
{
  "type": "way",
  "id": 35274645,
  "center": {
    "lat": 49.7749520,
    "lon": 9.2495231
  },
  "nodes": [
    413492010,
    413492008,
    8906755503,
    413492014,
    7525403223,
    8906852902,
    8906852887,
    420053384,
    7525403225,
    413492012,
    413492018,
    413492010
  ],
  "tags": {
    "denomination": "catholic",
    "dog": "no",
    "landuse": "cemetery",
    "religion": "christian"
  }
},
{
  "type": "way",
  "id": 35284867,
  "center": {
    "lat": 49.4260970,
    "lon": 9.9184670
  },
  "nodes": [
    413589551,
    413589672,
    413589586,
    413589654,
    413589828,
    413589700,
    413589748,
    413589772,
    413589808,
    413589551
  ],
  "tags": {
    "landuse": "cemetery"
  }
},
{
  "type": "way",
  "id": 35336085,
  "center": {
    "lat": 49.7599778,
    "lon": 9.1834559
  },
  "nodes": [
    414202294,
    393376230,
    414202295,
    414202296,
    6356855912,
    414202297,
    414202298,
    414202294
  ],
  "tags": {
    "denomination": "catholic",
    "landuse": "cemetery",
    "name": "Friedhof Röllfeld",
    "operator": "Stadt Klingenberg am Main",
    "religion": "christian"
  }
},
{
  "type": "way",
  "id": 35417073,
  "center": {
    "lat": 49.1200034,
    "lon": 9.7356299
  },
  "nodes": [
    415442627,
    4237295850,
    415442628,
    1477353598,
    2358480310,
    415442630,
    6295402305,
    415442631,
    415442627
  ],
  "tags": {
    "fixme": "genauer Verlauf",
    "landuse": "cemetery",
    "name": "Nikolaifriedhof"
  }
},
{
  "type": "way",
  "id": 35417074,
  "center": {
    "lat": 49.1196831,
    "lon": 9.7382073
  },
  "nodes": [
    1383546204,
    1383546198,
    4236519141,
    5377731654,
    5377731659,
    5377731658,
    5377731656,
    4236519146,
    5377731649,
    5377731660,
    1438799201,
    1438799178,
    4234545649,
    1438799176,
    1438799206,
    415442633,
    1383546204
  ],
  "tags": {
    "landuse": "cemetery",
    "name": "Nikolaifriedhof"
  }
},
{
  "type": "way",
  "id": 35536494,
  "center": {
    "lat": 49.1941233,
    "lon": 9.4981627
  },
  "nodes": [
    416339900,
    3439146168,
    3439146166,
    3439146167,
    12200238125,
    12200238126,
    12200238124,
    12200238127,
    427966423,
    11308531868,
    416339901,
    427966424,
    11308531750,
    11308531755,
    11308531756,
    11308531757,
    11308531758,
    11308531759,
    11308531768,
    11308531761,
    11308531767,
    11308531766,
    11308531763,
    11308531765,
    11308531762,
    11308531764,
    11308531760,
    416339902,
    11308531833,
    2434072439,
    429478375,
    2028923291,
    11308531784,
    429478377,
    11308531785,
    416339903,
    416339900
  ],
  "tags": {
    "area": "yes",
    "landuse": "cemetery",
    "name": "Friedhof"
  }
},
{
  "type": "way",
  "id": 35547398,
  "center": {
    "lat": 49.4776641,
    "lon": 9.3653074
  },
  "nodes": [
    416495986,
    1886376373,
    416495990,
    1886376371,
    416495995,
    416495999,
    416495986
  ],
  "tags": {
    "denomination": "protestant",
    "landuse": "cemetery",
    "name": "Friedhof Eberstadt",
    "operator": "Stadt Buchen",
    "religion": "christian",
    "website": "https://grabsteine.genealogy.net/namelist.php?cem=4442&lang=de",
    "wikidata": "Q110986641"
  }
},
{
  "type": "way",
  "id": 35961435,
  "center": {
    "lat": 49.4031717,
    "lon": 9.9197184
  },
  "nodes": [
    420355398,
    420355400,
    420355401,
    420355403,
    420355404,
    420355406,
    420355398
  ],
  "tags": {
    "landuse": "cemetery",
    "name": "Friedhof Niederstetten"
  }
},
{
  "type": "way",
  "id": 36595355,
  "center": {
    "lat": 49.2034426,
    "lon": 9.9673716
  },
  "nodes": [
    425940100,
    425940102,
    425940104,
    425940098,
    425940100
  ],
  "tags": {
    "landuse": "cemetery",
    "name": "Friedhof Lendsiedel",
    "religion": "christian"
  }
},
{
  "type": "way",
  "id": 36681524,
  "center": {
    "lat": 49.8438415,
    "lon": 9.6144214
  },
  "nodes": [
    426440192,
    426440194,
    426440196,
    426440198,
    426440200,
    426440192
  ],
  "tags": {
    "landuse": "cemetery",
    "name": "Neuer Friedhof",
    "religion": "christian"
  }
},
{
  "type": "way",
  "id": 36793029,
  "center": {
    "lat": 49.0435438,
    "lon": 9.0965251
  },
  "nodes": [
    427736610,
    1653395721,
    4007657746,
    1653395734,
    2574606628,
    9473886436,
    427736611,
    2574606630,
    427736613,
    4007657737,
    4007657736,
    4007657735,
    4007657734,
    1653395790,
    1653395775,
    4007657739,
    4007657738,
    427736615,
    4007657742,
    4007657741,
    4007657740,
    427736617,
    486780219,
    427736619,
    4007657743,
    4007657744,
    427736610
  ],
  "tags": {
    "landuse": "cemetery",
    "name": "Friedhof Bönnigheim",
    "wheelchair": "limited"
  }
},
{
  "type": "way",
  "id": 36808592,
  "center": {
    "lat": 49.5961827,
    "lon": 9.6858291
  },
  "nodes": [
    427869565,
    427869566,
    10827118553,
    427869569,
    10827118552,
    10827118554,
    427869564,
    427869570,
    10827118576,
    10827118587,
    10827118583,
    10827118582,
    10827118581,
    10827118580,
    6143366221,
    427869565
  ],
  "tags": {
    "landuse": "cemetery",
    "name": "Friedhof Distelhausen",
    "operator": "Stadt Tauberbischofsheim",
    "religion": "christian",
    "wikidata": "Q102180272"
  }
},
{
  "type": "way",
  "id": 36865725,
  "center": {
    "lat": 49.6859591,
    "lon": 9.0189754
  },
  "nodes": [
    4585627761,
    4585627763,
    428631332,
    3270476804,
    3270476801,
    428631333,
    428631334,
    428631335,
    428631336,
    428631337,
    428631338,
    428631339,
    1951239054,
    428631340,
    1951239053,
    3270471813,
    3270471811,
    3270471812,
    4585627761
  ],
  "tags": {
    "landuse": "cemetery",
    "name": "Jüdischer Friedhof Michelstadt",
    "religion": "jewish",
    "wikidata": "Q17403498"
  }
},
{
  "type": "way",
  "id": 36872509,
  "center": {
    "lat": 49.5662606,
    "lon": 9.6963052
  },
  "nodes": [
    428730106,
    428730107,
    428730108,
    428730109,
    428730110,
    428730111,
    1567972005,
    1567972040,
    428730112,
    428730113,
    428730114,
    428730116,
    428730115,
    428730117,
    428730106
  ],
  "tags": {
    "landuse": "cemetery",
    "name": "Lauda Bergfriedhof",
    "operator": "Stadt Lauda-Königshofen",
    "religion": "christian",
    "wikidata": "Q106742603"
  }
},
{
  "type": "way",
  "id": 36882359,
  "center": {
    "lat": 49.1646985,
    "lon": 9.4090809
  },
  "nodes": [
    428831991,
    429993677,
    428831993,
    428831994,
    3185256782,
    428831995,
    428831991
  ],
  "tags": {
    "landuse": "cemetery",
    "name": "Friedhof Waldbach"
  }
},
{
  "type": "way",
  "id": 36913892,
  "center": {
    "lat": 49.0677723,
    "lon": 9.1360091
  },
  "nodes": [
    429308820,
    429308821,
    428499134,
    2249004733,
    475074339,
    429308823,
    417942230,
    429308824,
    429308825,
    429308826,
    429300198,
    429300194,
    429308828,
    429308829,
    429308830,
    12590100347,
    2485040911,
    12590100346,
    417942231,
    429308820
  ],
  "tags": {
    "addr:city": "Lauffen am Neckar",
    "addr:country": "DE",
    "addr:housenumber": "99",
    "addr:postcode": "74348",
    "addr:street": "Charlottenstraße",
    "landuse": "cemetery",
    "name": "Parkfriedhof"
  }
},
{
  "type": "way",
  "id": 36974794,
  "center": {
    "lat": 49.8021400,
    "lon": 9.1639857
  },
  "nodes": [
    429941905,
    429941907,
    3646104513,
    429941908,
    3646103881,
    3646104512,
    429941909,
    429941910,
    3646103863,
    429941911,
    429941905
  ],
  "tags": {
    "landuse": "cemetery",
    "name": "Altstadt-Friedhof"
  }
},
{
  "type": "way",
  "id": 37125857,
  "center": {
    "lat": 49.1520361,
    "lon": 9.2346047
  },
  "nodes": [
    432323604,
    432323612,
    2924477048,
    2924477054,
    2924477051,
    432323623,
    432323625,
    1687385876,
    432323630,
    736875334,
    736875446,
    432323604
  ],
  "tags": {
    "access": "permissive",
    "description": "Schlüssel bei der Stadtverwaltung erhältlich",
    "landuse": "cemetery",
    "name": "Jüdischer Friedhof",
    "religion": "jewish",
    "wikidata": "Q1614137"
  }
},
{
  "type": "way",
  "id": 37133020,
  "center": {
    "lat": 49.2213846,
    "lon": 9.2142823
  },
  "nodes": [
    432464039,
    432464040,
    1017983027,
    432464041,
    432464042,
    432464043,
    432464039
  ],
  "tags": {
    "landuse": "cemetery",
    "name": "Alter Friedhof",
    "operator": "Stadt Bad Friedrichshall",
    "religion": "christian",
    "wikidata": "Q18810360"
  }
},
{
  "type": "way",
  "id": 37298971,
  "center": {
    "lat": 49.9328244,
    "lon": 9.7093260
  },
  "nodes": [
    434648872,
    434648874,
    434648875,
    434648876,
    434648872
  ],
  "tags": {
    "landuse": "cemetery",
    "name": "Friedhof",
    "religion": "christian",
    "source": "extrapolation"
  }
},
{
  "type": "way",
  "id": 37343941,
  "center": {
    "lat": 49.8727520,
    "lon": 9.7187582
  },
  "nodes": [
    435424778,
    435424779,
    435424780,
    435424781,
    435424782,
    435424784,
    435424778
  ],
  "tags": {
    "landuse": "cemetery",
    "religion": "christian",
    "source": "extrapolation"
  }
},
{
  "type": "way",
  "id": 37343942,
  "center": {
    "lat": 49.8721381,
    "lon": 9.7179025
  },
  "nodes": [
    435424787,
    435424788,
    435424789,
    9352121675,
    9352121676,
    435424790,
    435424791,
    435424787
  ],
  "tags": {
    "landuse": "cemetery",
    "religion": "christian",
    "source": "extrapolation"
  }
},
{
  "type": "way",
  "id": 37346322,
  "center": {
    "lat": 49.0739476,
    "lon": 9.1538048
  },
  "nodes": [
    435495814,
    435495819,
    8202085114,
    8202085111,
    435495815,
    435495821,
    8202120818,
    8202085115,
    435495816,
    435495817,
    435495820,
    435495818,
    435495814
  ],
  "tags": {
    "barrier": "wall",
    "landuse": "cemetery",
    "leisure": "park",
    "name": "Alter Friedhof",
    "note": "Der Alte Friedhof ist jetzt öffentliche Parkanlage, Beerdigungen finden dort nicht mehr statt, es gibt aber noch einige Gräber",
    "religion": "christian"
  }
},
{
  "type": "way",
  "id": 37409896,
  "center": {
    "lat": 49.9370714,
    "lon": 9.1440416
  },
  "nodes": [
    437119275,
    437119276,
    437119277,
    437119278,
    4068865781,
    4068865748,
    437119285,
    4068865784,
    4068865991,
    4068865818,
    437119290,
    4068865797,
    437119275
  ],
  "tags": {
    "denomination": "catholic",
    "landuse": "cemetery",
    "name": "Waldfriedhof Obernau",
    "religion": "christian"
  }
},
{
  "type": "way",
  "id": 37409897,
  "center": {
    "lat": 49.9360233,
    "lon": 9.1312286
  },
  "nodes": [
    437119292,
    437119295,
    437119298,
    437119300,
    437119302,
    437119292
  ],
  "tags": {
    "denomination": "catholic",
    "landuse": "cemetery",
    "name": "Dorfriedhof",
    "religion": "christian"
  }
},
{
  "type": "way",
  "id": 37422075,
  "center": {
    "lat": 49.8164355,
    "lon": 9.7654915
  },
  "nodes": [
    437473948,
    4246770550,
    437473952,
    437473955,
    437473957,
    4246770552,
    4246770553,
    4246770554,
    4246770551,
    437473948
  ],
  "tags": {
    "landuse": "cemetery",
    "religion": "christian"
  }
},
{
  "type": "way",
  "id": 37546357,
  "center": {
    "lat": 49.5136075,
    "lon": 9.3936550
  },
  "nodes": [
    6205550654,
    6205550653,
    6205550652,
    439775247,
    13143505360,
    13143505359,
    13143505358,
    13143505357,
    439775248,
    13143505397,
    13143505396,
    13143505395,
    13143505354,
    13143505355,
    439775246,
    13143505356,
    439775245,
    13143505392,
    6205550651,
    6205550654
  ],
  "tags": {
    "landuse": "cemetery",
    "name": "Friedhof Rinschheim",
    "operator": "Stadt Buchen",
    "website": "https://grabsteine.genealogy.net/namelist.php?cem=4484&lang=de",
    "wikidata": "Q110986892"
  }
},
{
  "type": "way",
  "id": 37682856,
  "center": {
    "lat": 49.1749150,
    "lon": 9.1985231
  },
  "nodes": [
    441875702,
    1033095278,
    441875698,
    441875703,
    441875705,
    441875706,
    441875702
  ],
  "tags": {
    "barrier": "fence",
    "historic": "memorial",
    "landuse": "cemetery",
    "name": "KZ-Friedhof Heilbronn-Neckargartach",
    "wikipedia": "de:Lager Neckargartach"
  }
},
{
  "type": "way",
  "id": 37771748,
  "center": {
    "lat": 49.7291039,
    "lon": 9.6703890
  },
  "nodes": [
    443086492,
    443086493,
    443086494,
    443086495,
    443086492
  ],
  "tags": {
    "landuse": "cemetery",
    "religion": "christian"
  }
},
{
  "type": "way",
  "id": 37837842,
  "center": {
    "lat": 49.0243009,
    "lon": 9.3159538
  },
  "nodes": [
    443722293,
    443722307,
    443722294,
    443722295,
    1424558250,
    1424558093,
    1794466108,
    1794466110,
    443722296,
    12027021006,
    1424558220,
    443722293
  ],
  "tags": {
    "alt_name": "Friedhof Oberstenfeld",
    "landuse": "cemetery",
    "name": "Ortsfriedhof",
    "note": "In den Verlautbarungen der Gemeinde, in Aushängen usw. heißt dieser Friedhof „Ortsfriedhof“, dies daher sollten wir dies auch in name=* verwenden"
  }
},
{
  "type": "way",
  "id": 37933742,
  "center": {
    "lat": 49.1724531,
    "lon": 9.5059956
  },
  "nodes": [
    445380616,
    445380617,
    445380618,
    650719750,
    650719751,
    650719752,
    650719753,
    650719754,
    650719755,
    445380616
  ],
  "tags": {
    "landuse": "cemetery",
    "name": "Friedhof Pfedelbach",
    "religion": "christian"
  }
},
{
  "type": "way",
  "id": 38104848,
  "center": {
    "lat": 49.5987785,
    "lon": 9.7829593
  },
  "nodes": [
    448218654,
    448218656,
    448218657,
    448218658,
    1059008015,
    1059008815,
    448218661,
    448218654
  ],
  "tags": {
    "landuse": "cemetery",
    "religion": "christian",
    "source": "extrapolation",
    "wikidata": "Q106502128"
  }
},
{
  "type": "way",
  "id": 38187954,
  "center": {
    "lat": 49.2842342,
    "lon": 9.2566916
  },
  "nodes": [
    449733364,
    449733365,
    3326244863,
    449733367,
    3736060963,
    449733369,
    3326244869,
    3326244871,
    5084663944,
    5084663941,
    449733364
  ],
  "tags": {
    "landuse": "cemetery",
    "name": "Friedhof Herbolzheim",
    "operator": "Stadt Neudenau"
  }
},
{
  "type": "way",
  "id": 38191555,
  "center": {
    "lat": 49.9165757,
    "lon": 9.0764354
  },
  "nodes": [
    1395881588,
    11073653405,
    1395881589,
    1395881592,
    1395881593,
    12263067965,
    12263067964,
    8557938590,
    11073937809,
    1395881587,
    8557938592,
    449757206,
    1395881584,
    11073937807,
    1395881586,
    1397756903,
    1395881585,
    1395881588
  ],
  "tags": {
    "landuse": "cemetery",
    "name": "Alter Friedhof",
    "religion": "christian"
  }
},
{
  "type": "way",
  "id": 38298063,
  "center": {
    "lat": 49.1657498,
    "lon": 9.4493476
  },
  "nodes": [
    451966369,
    451966371,
    451966373,
    451966375,
    1624463630,
    7352824428,
    7352824427,
    451966377,
    451966369
  ],
  "tags": {
    "landuse": "cemetery",
    "noname": "yes"
  }
},
{
  "type": "way",
  "id": 38344504,
  "center": {
    "lat": 49.1305430,
    "lon": 9.2563531
  },
  "nodes": [
    452910097,
    764639189,
    452910107,
    278159598,
    31306608,
    452910104,
    1285404885,
    491498018,
    452910102,
    1285404888,
    452910101,
    452910100,
    632676290,
    632676287,
    1129792706,
    1285404886,
    452910099,
    452910097
  ],
  "tags": {
    "barrier": "fence",
    "landuse": "cemetery",
    "name": "Ehrenfriedhof",
    "wikidata": "Q1300074",
    "wikipedia": "de:Ehrenfriedhof (Heilbronn)"
  }
},
{
  "type": "way",
  "id": 38451219,
  "center": {
    "lat": 49.4202680,
    "lon": 9.7921384
  },
  "nodes": [
    454591339,
    454591340,
    454591341,
    454591342,
    454591339
  ],
  "tags": {
    "denomination": "catholic",
    "landuse": "cemetery",
    "name": "Friedhof Hachtel",
    "operator": "Stadt Bad Mergentheim",
    "religion": "christian"
  }
},
{
  "type": "way",
  "id": 38613946,
  "center": {
    "lat": 49.8350424,
    "lon": 9.8992971
  },
  "nodes": [
    457366565,
    457366566,
    457366567,
    457366568,
    457366572,
    457366573,
    457366574,
    457366575,
    457366576,
    7626654512,
    457366565
  ],
  "tags": {
    "amenity": "grave_yard",
    "name": "Waldfriedhof",
    "opening_hours": "Apr-Sep 8:00-20:00; Oct-Mar 8:00-17:00",
    "toilets:wheelchair": "yes",
    "wheelchair": "yes"
  }
},
{
  "type": "way",
  "id": 38628176,
  "center": {
    "lat": 49.3983384,
    "lon": 9.8157756
  },
  "nodes": [
    457548456,
    457548457,
    457548459,
    457548460,
    457548456
  ],
  "tags": {
    "landuse": "cemetery",
    "name": "Friedhof Rot",
    "operator": "Stadt Bad Mergentheim",
    "religion": "christian"
  }
},
{
  "type": "way",
  "id": 38685628,
  "center": {
    "lat": 49.2372668,
    "lon": 9.1903441
  },
  "nodes": [
    458300379,
    458300382,
    458300385,
    2331763307,
    458300387,
    458300389,
    3638835465,
    458300392,
    458282131,
    458300395,
    458300398,
    643636338,
    458300379
  ],
  "tags": {
    "landuse": "cemetery",
    "name": "Friedhof Bad Friedrichshall-Jagstfeld"
  }
},
{
  "type": "way",
  "id": 38714244,
  "center": {
    "lat": 49.0427672,
    "lon": 9.3308985
  },
  "nodes": [
    458881711,
    3373663526,
    3373663527,
    3373663528,
    458881712,
    458881713,
    458881714,
    458881715,
    458881716,
    458881717,
    3375089957,
    3375089972,
    1206206980,
    3375089983,
    3375089974,
    458881718,
    3375089978,
    3375090003,
    1206207619,
    3375090006,
    3375090015,
    458881719,
    458881711
  ],
  "tags": {
    "landuse": "cemetery",
    "name": "Friedhof Schmidhausen",
    "religion": "christian"
  }
},
{
  "type": "way",
  "id": 38909126,
  "center": {
    "lat": 49.9492660,
    "lon": 9.8891303
  },
  "nodes": [
    462215981,
    2690804635,
    2690804636,
    2690808551,
    2690805962,
    462215982,
    2690808552,
    2690804634,
    2690804633,
    462215984,
    462215981
  ],
  "tags": {
    "confession": "roman_catholic",
    "landuse": "cemetery",
    "religion": "christian"
  }
},
{
  "type": "way",
  "id": 39032799,
  "center": {
    "lat": 49.4285822,
    "lon": 9.2972973
  },
  "nodes": [
    465491361,
    7462666317,
    465491362,
    465245992,
    465491374,
    465491874,
    465491361
  ],
  "tags": {
    "landuse": "cemetery",
    "name": "Friedhof Kleineicholzheim",
    "operator": "Gemeinde Schefflenz",
    "religion": "christian",
    "website": "https://grabsteine.genealogy.net/namelist.php?cem=4424",
    "wikidata": "Q111016294"
  }
},
{
  "type": "way",
  "id": 39065261,
  "center": {
    "lat": 49.0286896,
    "lon": 9.3224413
  },
  "nodes": [
    466222221,
    1207196924,
    1206672559,
    466222223,
    466222225,
    1245451498,
    466222226,
    466222221
  ],
  "tags": {
    "barrier": "wall",
    "landuse": "cemetery",
    "name": "Petersbergfriedhof"
  }
},
{
  "type": "way",
  "id": 39072713,
  "center": {
    "lat": 49.2446590,
    "lon": 9.3357003
  },
  "nodes": [
    466441100,
    466441106,
    2468186576,
    2468186560,
    4837947687,
    466441111,
    466441116,
    4837947669,
    466441100
  ],
  "tags": {
    "landuse": "cemetery"
  }
},
{
  "type": "way",
  "id": 39120632,
  "center": {
    "lat": 49.0314248,
    "lon": 9.3380337
  },
  "nodes": [
    467823348,
    467823351,
    467823385,
    467823353,
    467823356,
    3299211710,
    3299211709,
    467823358,
    467823361,
    467823348
  ],
  "tags": {
    "denomination": "protestant",
    "landuse": "cemetery",
    "name": "Friedhof Gronau",
    "religion": "christian"
  }
},
{
  "type": "way",
  "id": 39256811,
  "center": {
    "lat": 49.9434806,
    "lon": 9.1459549
  },
  "nodes": [
    470338593,
    268441344,
    470338597,
    470338599,
    470338601,
    470338593
  ],
  "tags": {
    "barrier": "wall",
    "image": "https://commons.wikimedia.org/wiki/File:J%C3%BCdischer_Friedhof_bei_Aschaffenburg_zwischen_Obenau_und_Schweinheim.JPG",
    "landuse": "cemetery",
    "name": "Jüdischer Friedhof",
    "religion": "jewish",
    "wikidata": "Q1716499",
    "wikimedia_commons": "Category:Jüdischer Friedhof (Schweinheim, Aschaffenburg)",
    "wikipedia": "de:Jüdischer Friedhof (Schweinheim, Aschaffenburg)"
  }
},
{
  "type": "way",
  "id": 39273829,
  "center": {
    "lat": 49.0190431,
    "lon": 9.8144304
  },
  "nodes": [
    470650058,
    470650061,
    5980041856,
    470650060,
    470650059,
    470650058
  ],
  "tags": {
    "landuse": "cemetery",
    "name": "Friedhof Gaildorf-Winzenweiler"
  }
},
{
  "type": "way",
  "id": 39346865,
  "center": {
    "lat": 49.3650813,
    "lon": 9.3390353
  },
  "nodes": [
    471413603,
    2384721303,
    2384721304,
    471413611,
    2966470457,
    2966470445,
    2384721300,
    471413615,
    734629013,
    2384721298,
    471413626,
    2384721299,
    1469598861,
    2384721305,
    471413603
  ],
  "tags": {
    "landuse": "cemetery",
    "name": "Friedhof Roigheim",
    "operator": "Stadt Möckmühl"
  }
},
{
  "type": "way",
  "id": 39842675,
  "center": {
    "lat": 49.4359912,
    "lon": 9.9448971
  },
  "nodes": [
    477645701,
    477645738,
    477792976,
    477792197,
    477645701
  ],
  "tags": {
    "landuse": "cemetery"
  }
},
{
  "type": "way",
  "id": 40252340,
  "center": {
    "lat": 49.2892915,
    "lon": 9.2727862
  },
  "nodes": [
    485347458,
    485347459,
    485347460,
    485347461,
    3531315239,
    485347462,
    485347458
  ],
  "tags": {
    "landuse": "cemetery",
    "name": "Friedhof Neudenau",
    "operator": "Stadt Neudenau",
    "wikidata": "Q1457293",
    "wikipedia": "de:Friedhof (Neudenau)"
  }
},
{
  "type": "way",
  "id": 40252359,
  "center": {
    "lat": 49.2938155,
    "lon": 9.2770593
  },
  "nodes": [
    485347498,
    485347499,
    485347500,
    689507151,
    689507170,
    485347501,
    485347498
  ],
  "tags": {
    "landuse": "cemetery",
    "name": "Jüdischer Friedhof Neudenau",
    "religion": "jewish",
    "wikidata": "Q1716733",
    "wikipedia": "de:Jüdischer Friedhof Neudenau"
  }
},
{
  "type": "way",
  "id": 40273643,
  "center": {
    "lat": 49.1776141,
    "lon": 9.5488993
  },
  "nodes": [
    485708139,
    510116778,
    485708142,
    485708145,
    3809454387,
    485708147,
    485723706,
    485712323,
    485708150,
    485708152,
    485708153,
    485708139
  ],
  "tags": {
    "landuse": "cemetery",
    "name": "Friedhof Michelbach"
  }
},
{
  "type": "way",
  "id": 40551984,
  "center": {
    "lat": 49.2071935,
    "lon": 9.5846483
  },
  "nodes": [
    492127931,
    3256115871,
    3256115872,
    3256118090,
    1401590182,
    6375516389,
    492127933,
    3248084642,
    492127934,
    6022846203,
    6022846211,
    6022846201,
    6372268070,
    492127936,
    6372268065,
    3256115888,
    9444724967,
    6022846193,
    492127940,
    3256115886,
    492127931
  ],
  "tags": {
    "landuse": "cemetery",
    "name": "Friedhof Neuenstein",
    "religion": "christian"
  }
},
{
  "type": "way",
  "id": 40678496,
  "center": {
    "lat": 49.1416424,
    "lon": 9.5742158
  },
  "nodes": [
    722112080,
    6723082381,
    722112082,
    3241313778,
    3241313781,
    494074534,
    6723082382,
    494074536,
    722387860,
    494074537,
    722387833,
    722112080
  ],
  "tags": {
    "landuse": "cemetery",
    "name": "Friedhof Untersteinbach",
    "religion": "christian"
  }
},
{
  "type": "way",
  "id": 40820123,
  "center": {
    "lat": 49.1005237,
    "lon": 9.2164825
  },
  "nodes": [
    496344296,
    496344320,
    496344346,
    2728711345,
    496344367,
    2728711342,
    2728711338,
    496344393,
    496344416,
    2728711340,
    2728711341,
    2728711339,
    496344431,
    496344451,
    496344469,
    3269487914,
    3269487919,
    3269487929,
    3269487930,
    3269487921,
    3269487917,
    3269487915,
    2728711343,
    496344499,
    496344516,
    496344296
  ],
  "tags": {
    "landuse": "cemetery",
    "name": "Friedhof Flein",
    "wikidata": "Q1294242"
  }
},
{
  "type": "way",
  "id": 40857539,
  "center": {
    "lat": 49.4192620,
    "lon": 9.9895483
  },
  "nodes": [
    497138326,
    497138338,
    497138358,
    497138380,
    497138388,
    497138391,
    497138397,
    497138407,
    497138326
  ],
  "tags": {
    "landuse": "cemetery"
  }
},
{
  "type": "way",
  "id": 40920499,
  "center": {
    "lat": 49.4160103,
    "lon": 9.9512168
  },
  "nodes": [
    498326538,
    498326545,
    498326551,
    498326557,
    498326538
  ],
  "tags": {
    "landuse": "cemetery"
  }
},
{
  "type": "way",
  "id": 40924313,
  "center": {
    "lat": 49.3558997,
    "lon": 9.8861218
  },
  "nodes": [
    498385196,
    8856807440,
    498385222,
    8856807441,
    8856807442,
    498385232,
    4178905325,
    498385240,
    8856807433,
    498385252,
    8856807431,
    8856807430,
    8856807432,
    8856807437,
    8856807426,
    498385196
  ],
  "tags": {
    "denomination": "roman_catholic",
    "landuse": "cemetery",
    "religion": "christian",
    "source": "estimated"
  }
},
{
  "type": "way",
  "id": 40976209,
  "center": {
    "lat": 49.4967879,
    "lon": 9.7175602
  },
  "nodes": [
    5832099848,
    4841258123,
    499322954,
    499323073,
    499323110,
    4841258148,
    499323113,
    5832099849,
    5832099848
  ],
  "tags": {
    "landuse": "cemetery",
    "name": "Friedhof Dainbach",
    "operator": "Stadt Bad Mergentheim"
  }
},
{
  "type": "way",
  "id": 40976277,
  "center": {
    "lat": 49.5251380,
    "lon": 9.6775838
  },
  "nodes": [
    6030494382,
    6030494384,
    6119997897,
    499331462,
    2417738774,
    2085443064,
    499331188,
    431592157,
    2417738775,
    431592156,
    2085443088,
    2085443121,
    2085443126,
    2085443130,
    2085443135,
    2085443137,
    6030494381,
    6030494382
  ],
  "tags": {
    "landuse": "cemetery",
    "name": "Friedhof Oberschüpf",
    "operator": "Stadt Boxberg",
    "religion": "christian",
    "wikidata": "Q106117530"
  }
},
{
  "type": "way",
  "id": 40989919,
  "center": {
    "lat": 49.0695886,
    "lon": 9.0252182
  },
  "nodes": [
    499566021,
    2211033445,
    2211033437,
    2211033434,
    499566030,
    2211033399,
    499566032,
    2211033389,
    499566035,
    2211033394,
    2211033392,
    499566070,
    499566074,
    2211033400,
    499566080,
    2211033407,
    2211033420,
    499566082,
    2211033428,
    2211033429,
    499566085,
    2211033436,
    499566021
  ],
  "tags": {
    "amenity": "grave_yard",
    "barrier": "wall",
    "name": "Friedhof Frauenzimmern",
    "source": "Bing"
  }
},
{
  "type": "way",
  "id": 41169703,
  "center": {
    "lat": 49.4628955,
    "lon": 9.2155672
  },
  "nodes": [
    12985603201,
    695585711,
    502522730,
    502861972,
    1281943089,
    1281941744,
    12985603211,
    502861973,
    12985603201
  ],
  "tags": {
    "landuse": "cemetery",
    "name": "Friedhof Limbach",
    "operator": "Gemeinde Limbach",
    "website": "https://grabsteine.genealogy.net/namelist.php?cem=3597&lang=de",
    "wikidata": "Q111010597"
  }
},
{
  "type": "way",
  "id": 41265151,
  "center": {
    "lat": 49.5110775,
    "lon": 9.9699292
  },
  "nodes": [
    504456886,
    504456879,
    7328687175,
    7328687176,
    504456911,
    504456897,
    1172186737,
    7328687179,
    7328687180,
    504456925,
    504456918,
    504456886
  ],
  "tags": {
    "landuse": "cemetery"
  }
},
{
  "type": "way",
  "id": 41292236,
  "center": {
    "lat": 49.7127007,
    "lon": 9.5490027
  },