{
  "version": 0.6,
  "generator": "Overpass API 0.7.62.8 e802775f",
  "osm3s": {
    "timestamp_osm_base": "2025-11-02T22:52:14Z",
    "copyright": "The data included in this document is from www.openstreetmap.org. The data is made available under ODbL."
  },
  "elements": [

{
  "type": "way",
  "id": 24489904,
  "center": {
    "lat": 47.9470250,
    "lon": 13.2234429
  },
  "nodes": [
    3721157958,
    3721157960,
    266287491,
    3721157961,
    10197562681,
    266287492,
    3721157962,
    10197562683,
    10197562682,
    266287493,
    266287494,
    3721157959,
    3721157957,
    3721157955,
    266287495,
    3721157956,
    3721157958
  ],
  "tags": {
    "landuse": "cemetery",
    "name": "Friedhof A - Alter Friedhof"
  }
},
{
  "type": "way",
  "id": 24489908,
  "center": {
    "lat": 47.9468112,
    "lon": 13.2228647
  },
  "nodes": [
    266287505,
    3721157943,
    266287506,
    3721157932,
    3721157938,
    3721157952,
    3721157954,
    266287490,
    266287508,
    266287509,
    266287505
  ],
  "tags": {
    "landuse": "cemetery",
    "name": "Friedhof B"
  }
},
{
  "type": "way",
  "id": 24708594,
  "center": {
    "lat": 47.9249375,
    "lon": 13.7946546
  },
  "nodes": [
    268554837,
    2012734195,
    2012754510,
    2012754515,
    268554887,
    268554889,
    268554895,
    1485650729,
    268554897,
    268554906,
    268554907,
    268554912,
    268554919,
    268554920,
    2012754574,
    268554946,
    268554976,
    268554978,
    268555010,
    2012754555,
    268555011,
    268555046,
    268555089,
    268555099,
    268555110,
    268555111,
    2012754512,
    268555124,
    268555134,
    2012734159,
    2012734163,
    2012734176,
    2012734182,
    268554837
  ],
  "tags": {
    "addr:city": "Gmunden",
    "landuse": "cemetery",
    "name": "Stadtfriedhof Gmunden",
    "religion": "christian"
  }
},
{
  "type": "way",
  "id": 24921043,
  "center": {
    "lat": 47.9038008,
    "lon": 13.7696976
  },
  "nodes": [
    2617359982,
    270793282,
    270793283,
    1841319265,
    270793284,
    270793286,
    960582608,
    1841319261,
    270793287,
    270793289,
    270793290,
    270793292,
    2617359983,
    270793294,
    270793295,
    270793296,
    270793298,
    270793299,
    270793301,
    270793302,
    2617359982
  ],
  "tags": {
    "landuse": "cemetery",
    "name": "Friedhof Altmünster",
    "religion": "christian"
  }
},
{
  "type": "way",
  "id": 25660212,
  "center": {
    "lat": 47.8241359,
    "lon": 13.0088541
  },
  "nodes": [
    1835257665,
    279728127,
    1645446254,
    1645446255,
    1324065684,
    1645446256,
    1645446258,
    1645446260,
    1324065602,
    279728128,
    1645446261,
    279728129,
    1673726395,
    2896685413,
    1645446275,
    2896685422,
    279728126,
    1324065660,
    1324065688,
    1645446265,
    1324065712,
    1645446267,
    1324065623,
    1645446273,
    1324065681,
    1645446269,
    1324065599,
    1645446263,
    1324065656,
    1324065607,
    1324065643,
    1324065699,
    1324065673,
    1673726303,
    1835257666,
    1324065703,
    1324065625,
    1835257665
  ],
  "tags": {
    "landuse": "cemetery"
  }
},
{
  "type": "way",
  "id": 26645327,
  "center": {
    "lat": 47.7911630,
    "lon": 13.1759985
  },
  "nodes": [
    292264192,
    9768093895,
    9768093778,
    9768093777,
    9768093776,
    9768093775,
    292264193,
    9768093774,
    292264194,
    9768093896,
    9768093858,
    9768093897,
    2757768585,
    9768093901,
    2757768591,
    2757768592,
    2788522831,
    2788522889,
    2757768612,
    2788522893,
    9768093902,
    9768093876,
    9768093903,
    2757768609,
    2757768604,
    2757768583,
    292264195,
    9768093904,
    9768093862,
    2757768580,
    2757768579,
    9768093779,
    292264192
  ],
  "tags": {
    "landuse": "cemetery"
  }
},
{
  "type": "way",
  "id": 28578415,
  "center": {
    "lat": 47.7334384,
    "lon": 13.0597787
  },
  "nodes": [
    313908519,
    313908520,
    313908521,
    313908522,
    2031469295,
    313908523,
    313908524,
    2031469266,
    313908525,
    2031469288,
    2031469297,
    313908527,
    2031469290,
    313908519
  ],
  "tags": {
    "landuse": "cemetery",
    "name": "Friedhof Niederalm"
  }
},
{
  "type": "way",
  "id": 28877733,
  "center": {
    "lat": 47.6307607,
    "lon": 13.0022127
  },
  "nodes": [
    317438519,
    817278167,
    317438520,
    817278171,
    4529280370,
    4529280369,
    4529280371,
    317438522,
    2123638951,
    2123638948,
    2123638954,
    2123638960,
    2123638957,
    2123638958,
    317438523,
    817278139,
    317438524,
    317438519
  ],
  "tags": {
    "landuse": "cemetery",
    "name": "Alter Friedhof",
    "source": "extrapolation",
    "wikidata": "Q41274082"
  }
},
{
  "type": "way",
  "id": 29193064,
  "center": {
    "lat": 47.7352730,
    "lon": 13.4560012
  },
  "nodes": [
    13076007614,
    1499975104,
    321034927,
    321034928,
    321034929,
    321034932,
    321034933,
    321034915,
    13076007612,
    13076007611,
    13071283080,
    13071283081,
    13071283082,
    13076007615,
    13076007614
  ],
  "tags": {
    "landuse": "cemetery",
    "name": "Friedhof St. Wolfgang",
    "source": "plan.at 2008,geoimage.at",
    "wikidata": "Q37772626"
  }
},
{
  "type": "way",
  "id": 29193388,
  "center": {
    "lat": 47.7074915,
    "lon": 13.6231459
  },
  "nodes": [
    321039730,
    321039733,
    9070594637,
    3894935003,
    2271541837,
    321039737,
    7547613688,
    3774579152,
    3774579169,
    321039739,
    321039740,
    321039744,
    13264921134,
    321039746,
    321039747,
    321039730
  ],
  "tags": {
    "landuse": "cemetery",
    "religion": "christian",
    "wikidata": "Q37774484"
  }
},
{
  "type": "way",
  "id": 29193811,
  "center": {
    "lat": 47.9148047,
    "lon": 13.9614759
  },
  "nodes": [
    321045984,
    321045985,
    12215804814,
    12215804815,
    321045986,
    321045987,
    12215804816,
    12215804817,
    12215804813,
    12215804812,
    321045984
  ],
  "tags": {
    "landuse": "cemetery",
    "source": "plan.at 2008,geoimage.at"
  }
},
{
  "type": "way",
  "id": 29193814,
  "center": {
    "lat": 47.8759580,
    "lon": 13.7087731
  },
  "nodes": [
    321045999,
    321046000,
    321046001,
    321046002,
    321046003,
    321045999
  ],
  "tags": {
    "landuse": "cemetery",
    "source": "plan.at 2008"
  }
},
{
  "type": "way",
  "id": 29193819,
  "center": {
    "lat": 47.9580747,
    "lon": 13.7890872
  },
  "nodes": [
    321046035,
    1754673118,
    321046036,
    1754673120,
    321046037,
    1754673116,
    321046038,
    321046035
  ],
  "tags": {
    "barrier": "fence",
    "denomination": "roman_catholic",
    "landuse": "cemetery",
    "name": "Friedhof Ohlsdorf",
    "religion": "christian",
    "source": "plan.at 2008"
  }
},
{
  "type": "way",
  "id": 29479040,
  "center": {
    "lat": 47.8535241,
    "lon": 13.3469358
  },
  "nodes": [
    324944411,
    1632841070,
    1632841058,
    324944412,
    1612164870,
    1612643107,
    1612643105,
    1612643101,
    324944413,
    1612164809,
    324944415,
    1612643089,
    693043596,
    1308392307,
    324944416,
    324944417,
    324944418,
    324944419,
    1612098819,
    1308392318,
    1612643099,
    1612643100,
    1308392315,
    1308392311,
    324944411
  ],
  "tags": {
    "landuse": "cemetery",
    "religion": "christian",
    "source": "bing",
    "wikidata": "Q37767799",
    "wikimedia_commons": "File:Friedhof Mondsee.JPG"
  }
},
{
  "type": "way",
  "id": 29479042,
  "center": {
    "lat": 47.9674036,
    "lon": 13.6046939
  },
  "nodes": [
    4825525217,
    4825525218,
    324944436,
    456683866,
    4825525217
  ],
  "tags": {
    "landuse": "cemetery",
    "name": "Urnenhain",
    "source": "plan.at 2009"
  }
},
{
  "type": "way",
  "id": 30477123,
  "center": {
    "lat": 47.6772459,
    "lon": 13.1026158
  },
  "nodes": [
    336266282,
    1799602448,
    1799602346,
    1799602367,
    1799602364,
    1799602555,
    1799602721,
    336266285,
    1799602717,
    1799602414,
    1799602366,
    1799602515,
    1799602394,
    1799602566,
    336266291,
    1799602542,
    336266296,
    336266282
  ],
  "tags": {
    "landuse": "cemetery",
    "name": "Städtischer Friedhof"
  }
},
{
  "type": "way",
  "id": 30481510,
  "center": {
    "lat": 47.6660963,
    "lon": 13.0881068
  },
  "nodes": [
    336340379,
    1848308681,
    336340386,
    8563472402,
    8563472401,
    336340388,
    1848308682,
    1848308709,
    1848308721,
    1848308723,
    1848308812,
    2049413940,
    2049413866,
    2049413841,
    2049413762,
    2049413844,
    336340390,
    336340379
  ],
  "tags": {
    "landuse": "cemetery",
    "source": "plan.at 2009,bing"
  }
},
{
  "type": "way",
  "id": 30481513,
  "center": {
    "lat": 47.7177434,
    "lon": 13.0905843
  },
  "nodes": [
    336340421,
    336340423,
    1798052315,
    1798052396,
    1798052433,
    1798052497,
    1798052496,
    1798052598,
    1798052479,
    1798052429,
    1798052434,
    9126849784,
    1798052513,
    1469266933,
    1798052403,
    1469266940,
    336340425,
    1798052478,
    336340429,
    1798052297,
    1798052424,
    1798052445,
    336340421
  ],
  "tags": {
    "landuse": "cemetery",
    "source": "plan.at 2009",
    "wikidata": "Q38025650"
  }
},
{
  "type": "way",
  "id": 30512097,
  "center": {
    "lat": 47.7792855,
    "lon": 13.0015523
  },
  "nodes": [
    336796409,
    336796412,
    1775081627,
    336796414,
    2499128833,
    1775081630,
    1775081631,
    2499128834,
    336796416,
    336807702,
    1775081629,
    336796421,
    1775081623,
    1775081622,
    1775081621,
    2499128740,
    2499128735,
    336796424,
    2499128715,
    2499128708,
    336796409
  ],
  "tags": {
    "landuse": "cemetery",
    "name": "Friedhof St. Vitalis"
  }
},
{
  "type": "way",
  "id": 30513168,
  "center": {
    "lat": 47.4144558,
    "lon": 13.2150804
  },
  "nodes": [
    336812177,
    2619805506,
    2619805607,
    336812181,
    8169121492,
    2619805390,
    336812184,
    2619807022,
    2619807018,
    2619805456,
    2619805371,
    336812188,
    2276988110,
    2619805480,
    2276988072,
    2276988057,
    2619805466,
    2619805380,
    2619805621,
    336812191,
    2619805477,
    2619805393,
    2619807047,
    336812193,
    336812195,
    2619805370,
    336812196,
    2619805464,
    2619805368,
    336812198,
    2619805454,
    2619805609,
    336812201,
    336812203,
    2619807042,
    5304966190,
    336812208,
    336812210,
    2619805558,
    336812212,
    336812214,
    2620396677,
    2619805629,
    2619805435,
    2619805587,
    2619805365,
    2619805569,
    2619805534,
    336812218,
    2619777682,
    336812177
  ],
  "tags": {
    "landuse": "cemetery",
    "name": "Friedhof Bischofshofen",
    "religion": "christian",
    "source": "plan.at 2009"
  }
},
{
  "type": "way",
  "id": 30514247,
  "center": {
    "lat": 47.7665827,
    "lon": 13.3660719
  },
  "nodes": [
    663656904,
    663656918,
    663656917,
    3047429656,
    3047429655,
    3047429652,
    3047429650,
    3047429649,
    7366961282,
    3047429648,
    3047429635,
    7366961283,
    7366961284,
    7366961295,
    7366961296,
    7366961330,
    7366961299,
    7366961298,
    7366961325,
    7366961326,
    7366961329,
    7366961324,
    7366961301,
    336829803,
    7366961323,
    7366961303,
    336829806,
    7366961320,
    7366961319,
    7366961316,
    7366961304,
    7366961305,
    7366961315,
    7366961317,
    7366961318,
    336829812,
    7366961314,
    3047398727,
    7366961333,
    7366961332,
    7366961281,
    7366961280,
    3047398728,
    7366961338,
    7366961339,
    7366961337,
    663656908,
    663656907,
    663656906,
    663656905,
    663656904
  ],
  "tags": {
    "denomination": "catholic",
    "landuse": "cemetery",
    "religion": "christian",
    "source": "plan.at 2009",
    "wikidata": "Q29731017"
  }
},
{
  "type": "way",
  "id": 30514248,
  "center": {
    "lat": 47.7777717,
    "lon": 13.2332661
  },
  "nodes": [
    336829819,
    9176539661,
    4643884109,
    736748335,
    4643884111,
    9176539660,
    9176539659,
    336829821,
    9176539704,
    9176539666,
    1720144825,
    3620156897,
    1720144808,
    736748433,
    736748437,
    336829824,
    736748378,
    736748469,
    1720144811,
    1720144816,
    336829827,
    336829819
  ],
  "tags": {
    "landuse": "cemetery",
    "source": "plan.at 2009",
    "wikidata": "Q37771876"
  }
},
{
  "type": "way",
  "id": 30514255,
  "center": {
    "lat": 47.8671418,
    "lon": 13.1227840
  },
  "nodes": [
    336829966,
    336829969,
    5113335528,
    2118571121,
    2118571165,
    336829975,
    336829982,
    2118571173,
    10786781988,
    5113336153,
    5107638564,
    5113336155,
    5107638563,
    336829985,
    10786781991,
    5107638565,
    1024678465,
    10786781990,
    336829988,
    10786781989,
    5113335530,
    5113335529,
    336829966
  ],
  "tags": {
    "landuse": "cemetery",
    "source": "plan.at 2009"
  }
},
{
  "type": "way",
  "id": 30514256,
  "center": {
    "lat": 47.8716479,
    "lon": 13.1233548
  },
  "nodes": [
    4264526875,
    10770918711,
    4264526876,
    4264526879,
    10770918712,
    4264526881,
    4264526865,
    2411716449,
    5092191828,
    2411716390,
    5092191829,
    336830010,
    4264526866,
    4264526875
  ],
  "tags": {
    "landuse": "cemetery",
    "name": "Gemeindefriedhof Eugendorf",
    "operator": "Marktgemeinde Eugendorf"
  }
},
{
  "type": "way",
  "id": 30514257,
  "center": {
    "lat": 47.8410504,
    "lon": 13.2536555
  },
  "nodes": [
    336830030,
    3961466395,
    3961466420,
    878448096,
    4972658970,
    4972658968,
    4972658969,
    4972658965,
    4972658967,
    4972658966,
    878448164,
    4972658963,
    4972658964,
    4972658962,
    4972658961,
    878448181,
    3294156049,
    3961463593,
    4972654153,
    4972654152,
    3961463571,
    4972654157,
    4972654158,
    3961463721,
    3961463669,
    3961463685,
    3961466405,
    6911876690,
    336830030
  ],
  "tags": {
    "amenity": "grave_yard"
  }
},
{
  "type": "way",
  "id": 30514258,
  "center": {
    "lat": 47.7824735,
    "lon": 13.0838178
  },
  "nodes": [
    336830049,
    1249887986,
    623938811,
    1249888165,
    1249888215,
    1249888145,
    1249887866,
    1249888252,
    1249888185,
    1249887893,
    1249887939,
    1249887863,
    1249887994,
    1249888118,
    1249887931,
    1249888204,
    1249888067,
    1249887985,
    1249887934,
    1249888231,
    1249888251,
    1249888109,
    1249888178,
    1249887961,
    1249888189,
    1249888040,
    1249888228,
    1249887871,
    297531799,
    297531797,
    297531796,
    1250970210,
    1250970293,
    626147103,
    1250969551,
    336830067,
    1250970107,
    1250969624,
    1250969888,
    336830070,
    1250970004,
    1250969688,
    336830073,
    3853139347,
    336830046,
    336830049
  ],
  "tags": {
    "addr:postcode": "5026",
    "landuse": "cemetery",
    "name": "Aigner Friedhof",
    "website": "https://www.stadt-salzburg.at/orte/friedhoefe/friedhof-aigen/"
  }
},
{
  "type": "way",
  "id": 30514262,
  "center": {
    "lat": 47.7760088,
    "lon": 13.0796023
  },
  "nodes": [
    336830202,
    1446145560,
    336830204,
    1446145549,
    1446145550,
    1495555163,
    1446145559,
    336830206,
    336830209,
    1446145580,
    1447198131,
    1447198130,
    336830202
  ],
  "tags": {
    "addr:postcode": "5026",
    "heritage": "2",
    "heritage:operator": "bda",
    "landuse": "cemetery",
    "name": "Jüdischer Friedhof",
    "ref:at:bda": "115089",
    "religion": "jewish",
    "wikidata": "Q1716754"
  }
},
{
  "type": "way",
  "id": 30514263,
  "center": {
    "lat": 47.8050461,
    "lon": 13.0149575
  },
  "nodes": [
    336830218,
    5333416407,
    1109514976,
    1109515514,
    1446563363,
    2061979661,
    1446563347,
    1446563348,
    5333416402,
    336830221,
    1109514596,
    1109515270,
    1109515758,
    336830224,
    1446563302,
    1109514420,
    1109514502,
    1109514760,
    1109515799,
    1109514931,
    1109514833,
    1109514564,
    1109515244,
    1268698762,
    1109515751,
    1109514413,
    5333416399,
    5333416398,
    1109515641,
    5333416397,
    5333416396,
    1109515730,
    1109514398,
    1440162484,
    1109515073,
    1440162475,
    1440162498,
    1440162500,
    1631288884,
    1440162488,
    1631288882,
    1631288886,
    1268698764,
    1631288887,
    1631288883,
    1109514900,
    1109514263,
    2646075248,
    1109514690,
    1268698765,
    1109515058,
    336830227,
    5333416540,
    1109515467,
    1446563327,
    1268698763,
    1219353331,
    1219353300,
    1446575494,
    2646075271,
    336830230,
    1447225841,
    5333416554,
    1219353241,
    3050918336,
    1219353294,
    1219353230,
    3050917636,
    1219353268,
    1219353317,
    5333416552,
    336830233,
    1268698766,
    3050918133,
    3050917334,
    1109515528,
    1109514149,
    1268698767,
    5333416416,
    1109514775,
    5333416412,
    336830218
  ],
  "tags": {
    "barrier": "wall",
    "landuse": "cemetery",
    "name": "Friedhof Maxglan",
    "wikidata": "Q97231518"
  }
},
{
  "type": "way",
  "id": 30514265,
  "center": {
    "lat": 47.9795860,
    "lon": 13.2591233
  },
  "nodes": [
    336830267,
    676777291,
    10924054122,
    676777292,
    10924054123,
    10924054124,
    10924054126,
    10924054125,
    676777290,
    336830269,
    336830273,
    336830275,
    10924054120,
    336830277,
    10923982801,
    336830279,
    10923982802,
    336830267
  ],
  "tags": {
    "denomination": "catholic",
    "landuse": "cemetery",
    "religion": "christian",
    "wikidata": "Q128503809"
  }
},
{
  "type": "way",
  "id": 30514267,
  "center": {
    "lat": 47.9669449,
    "lon": 13.2821138
  },
  "nodes": [
    4214969310,
    4214969333,
    10866834407,
    336830285,
    336830289,
    1307497840,
    4214969311,
    4214970473,
    10866834406,
    10866830604,
    10866834405,
    4214969310
  ],
  "tags": {
    "landuse": "cemetery",
    "religion": "christian",
    "source": "plan.at 2009"
  }
},
{
  "type": "way",
  "id": 30514357,
  "center": {
    "lat": 47.1719913,
    "lon": 13.1091852
  },
  "nodes": [
    5572917786,
    5572917784,
    1854706077,
    336835086,
    2419120329,
    336835092,
    336835095,
    2419120333,
    1854706106,
    1854706114,
    5574343798,
    336835110,
    967096962,
    336835123,
    5572920838,
    5572920837,
    5572920836,
    5572940730,
    5572920835,
    2419120332,
    5572917793,
    2419120319,
    5572917787,
    5572917788,
    2419120314,
    5572917785,
    5572917786
  ],
  "tags": {
    "landuse": "cemetery",
    "religion": "christian",
    "source": "plan.at 2009",
    "wikidata": "Q37903262"
  }
},
{
  "type": "way",
  "id": 30520753,
  "center": {
    "lat": 47.4497861,
    "lon": 13.9027775
  },
  "nodes": [
    337022073,
    4823951276,
    4823951277,
    337022076,
    337022079,
    337022082,
    337022073
  ],
  "tags": {
    "landuse": "cemetery",
    "name": "Katholischer Friedhof Gröbming",
    "religion": "christian",
    "source": "plan.at 2009"
  }
},
{
  "type": "way",
  "id": 30520755,
  "center": {
    "lat": 47.4259517,
    "lon": 13.8340019
  },
  "nodes": [
    337022090,
    337022092,
    8313555192,
    8313555193,
    337022100,
    337022103,
    3734361515,
    8313555209,
    8313555208,
    8313555207,
    337022090
  ],
  "tags": {
    "landuse": "cemetery",
    "religion": "christian"
  }
},
{
  "type": "way",
  "id": 30520756,
  "center": {
    "lat": 47.3906078,
    "lon": 13.6829786
  },
  "nodes": [
    337022110,
    9733116889,
    9733116870,
    9733116871,
    9733116872,
    9733116873,
    1610634053,
    9733116861,
    1610633995,
    337022113,
    1610633962,
    1610633949,
    9733116869,
    1610633903,
    1610633887,
    1610633862,
    1610633816,
    9733116874,
    337022115,
    1610633810,
    9733116875,
    9733116876,
    337022118,
    9733116877,
    9733116878,
    9733116879,
    9733116880,
    337022121,
    337022124,
    1610633880,
    337022127,
    1610633958,
    337022129,
    9733116888,
    337022110
  ],
  "tags": {
    "landuse": "cemetery",
    "religion": "christian",
    "source": "geoimage.at"
  }
},
{
  "type": "way",
  "id": 30520764,
  "center": {
    "lat": 47.6137560,
    "lon": 13.7913704
  },
  "nodes": [
    2647253393,
    337022217,
    10711799268,
    10711799272,
    10711799247,
    10711799248,
    10711799249,
    10711799250,
    10711799255,
    10711799256,
    11333255219,
    10711799257,
    10711799261,
    10711799262,
    11333255220,
    10711799263,
    10711799264,
    10711799265,
    10711799266,
    10711799267,
    337022219,
    2647253394,
    2647253393
  ],
  "tags": {
    "heritage": "2",
    "heritage:operator": "bda",
    "landuse": "cemetery",
    "name:signed": "no",
    "ref:at:bda": "102748",
    "religion": "christian",
    "source": "plan.at 2009",
    "wikidata": "Q37724139"
  }
},
{
  "type": "way",
  "id": 33535389,
  "center": {
    "lat": 47.0898569,
    "lon": 13.1162646
  },
  "nodes": [
    382626880,
    2460901339,
    2460901330,
    2460901328,
    6179046806,
    6179046801,
    6179046800,
    382626883,
    382626885,
    382626887,
    382626892,
    2468006439,
    382626894,
    382626896,
    2460901341,
    382626880
  ],
  "tags": {
    "landuse": "cemetery"
  }
},
{
  "type": "way",
  "id": 33835268,
  "center": {
    "lat": 47.9502414,
    "lon": 13.6104453
  },
  "nodes": [
    387595645,
    387595647,
    387595649,
    387595651,
    5188138302,
    387595652,
    387595653,
    387595645
  ],
  "tags": {
    "landuse": "cemetery"
  }
},
{
  "type": "way",
  "id": 34720548,
  "center": {
    "lat": 47.1249806,
    "lon": 13.1411405
  },
  "nodes": [
    2458151938,
    2458151932,
    404516039,
    2458151885,
    2261097563,
    2458151853,
    2458151849,
    2458151840,
    2458151834,
    2261126624,
    2261127045,
    2458151786,
    404516048,
    2261097674,
    2458151824,
    6142272491,
    404516052,
    2458151884,
    1170301418,
    1170296540,
    1170313020,
    2458151912,
    2458151938
  ],
  "tags": {
    "amenity": "grave_yard",
    "wikidata": "Q128654522"
  }
},
{
  "type": "way",
  "id": 35539986,
  "center": {
    "lat": 47.9507374,
    "lon": 13.3044378
  },
  "nodes": [
    416382563,
    416382564,
    416382565,
    1159445181,
    1159445200,
    416382566,
    416382567,
    416382563
  ],
  "tags": {
    "amenity": "grave_yard",
    "leisure": "common",
    "name": "Friedhof Oberhofen",
    "wikidata": "Q37765997"
  }
},
{
  "type": "way",
  "id": 37800533,
  "center": {
    "lat": 47.5833876,
    "lon": 13.5258627
  },
  "nodes": [
    443382285,
    443382286,
    1165485854,
    443382288,
    1165486438,
    1610754079,
    1365625450,
    1610754147,
    443382290,
    443382291,
    443382285
  ],
  "tags": {
    "denomination": "protestant",
    "historic": "memorial",
    "landuse": "cemetery",
    "name": "Friedhof Gosau",
    "religion": "christian",
    "wheelchair": "limited"
  }
},
{
  "type": "way",
  "id": 39090665,
  "center": {
    "lat": 47.8670199,
    "lon": 13.0679750
  },
  "nodes": [
    467113446,
    4403940521,
    467113447,
    467113448,
    467113449,
    280946712,
    467113446
  ],
  "tags": {
    "landuse": "cemetery"
  }
},
{
  "type": "way",
  "id": 49178623,
  "center": {
    "lat": 47.7759566,
    "lon": 13.0234528
  },
  "nodes": [
    623861254,
    623861255,
    623861256,
    623861257,
    623861258,
    10016917850,
    623861254
  ],
  "tags": {
    "landuse": "cemetery",
    "name": "Friedhof Leopoldskron-Moos",
    "religion": "christian"
  }
},
{
  "type": "way",
  "id": 49323027,
  "center": {
    "lat": 47.3425185,
    "lon": 13.3942429
  },
  "nodes": [
    626331653,
    626331654,
    626331644,
    626331645,
    2142979102,
    626331653
  ],
  "tags": {
    "amenity": "grave_yard",
    "religion": "christian"
  }
},
{
  "type": "way",
  "id": 57834565,
  "center": {
    "lat": 47.5559532,
    "lon": 13.9348486
  },
  "nodes": [
    717539154,
    6449695750,
    3661642995,
    3661642994,
    6449695752,
    7855115505,
    3661642989,
    3661642987,
    2343511913,
    2343511823,
    6449695742,
    717538528,
    717538578,
    3661643006,
    717539041,
    717539117,
    717538538,
    2343512024,
    2343512022,
    717539016,
    2343512021,
    6449695701,
    2343512020,
    2343512019,
    2343512018,
    2343512005,
    717539091,
    717539068,
    2343511959,
    717539154
  ],
  "tags": {
    "landuse": "cemetery",
    "name": "Friedhof Bad Mitterndorf",
    "religion": "christian"
  }
},
{
  "type": "way",
  "id": 62163888,
  "center": {
    "lat": 47.8321053,
    "lon": 13.1833764
  },
  "nodes": [
    5057930062,
    775727080,
    775527822,
    775527823,
    775718039,
    1433725522,
    1433725523,
    775717894,
    5075869096,
    775527825,
    775727054,
    5057930067,
    5057930065,
    5057930064,
    5057930066,
    775727082,
    5057930063,
    5057930062
  ],
  "tags": {
    "landuse": "cemetery"
  }
},
{
  "type": "way",
  "id": 76576597,
  "center": {
    "lat": 47.8082947,
    "lon": 13.1571349
  },
  "nodes": [
    902582701,
    1760992491,
    1760992499,
    1760992501,
    1760992495,
    3740609337,
    3740609336,
    3740609333,
    3740609326,
    1760992480,
    902582643,
    1760992475,
    1760992472,
    1760992469,
    902582581,
    1760992446,
    902582728,
    1760992445,
    902582625,
    902582563,
    1761020872,
    1760992482,
    902582701
  ],
  "tags": {
    "landuse": "cemetery"
  }
},
{
  "type": "way",
  "id": 78144663,
  "center": {
    "lat": 47.5642611,
    "lon": 13.3467630
  },
  "nodes": [
    917981427,
    958316648,
    4565154539,
    3016823746,
    958316654,
    918080482,
    917981474,
    918079925,
    918080216,
    918080066,
    3016823758,
    3016823745,
    3016823751,
    3016823757,
    917981357,
    3016823755,
    3016823744,
    917981356,
    4984998921,
    3016823762,
    3016823763,
    3016823749,
    3065560211,
    958316738,
    958316791,
    917981427
  ],
  "tags": {
    "denomination": "catholic",
    "landuse": "cemetery",
    "religion": "christian"
  }
},
{
  "type": "way",
  "id": 78144680,
  "center": {
    "lat": 47.5640568,
    "lon": 13.3480632
  },
  "nodes": [
    918079784,
    917981368,
    918080164,
    917981386,
    917981447,
    918080600,
    917981464,
    918079784
  ],
  "tags": {
    "denomination": "catholic",
    "landuse": "cemetery",
    "religion": "christian"
  }
},
{
  "type": "way",
  "id": 81177877,
  "center": {
    "lat": 47.5921510,
    "lon": 13.4661977
  },
  "nodes": [
    945928350,
    945928746,
    945929327,
    945928441,
    945928350
  ],
  "tags": {
    "landuse": "cemetery",
    "name": "Friedhof Rußbach am Pass Gschütt"
  }
},
{
  "type": "way",
  "id": 82143431,
  "center": {
    "lat": 47.8146222,
    "lon": 13.7671727
  },
  "nodes": [
    956500715,
    956500739,
    956500741,
    956500746,
    956500709,
    956500708,
    956500707,
    956500699,
    956500710,
    956500711,
    1503371424,
    956500712,
    956500713,
    956500714,
    1503371477,
    956500715
  ],
  "tags": {
    "denomination": "roman_catholic",
    "landuse": "cemetery",
    "name": "Bergfriedhof Ebensee",
    "religion": "christian",
    "wheelchair": "limited"
  }
},
{
  "type": "way",
  "id": 82202393,
  "center": {
    "lat": 47.8458206,
    "lon": 13.7917610
  },
  "nodes": [
    2085822992,
    2085822995,
    2085822978,
    2085822960,
    957057297,
    2085822967,
    2085822989,
    957057298,
    2085823001,
    2085823002,
    2085822999,
    2085850435,
    2085850406,
    2085850412,
    2085850379,
    2085850356,
    2085822983,
    2085822958,
    957057304,
    11153621612,
    1963228971,
    12730405564,
    1963228938,
    1963228937,
    2085811872,
    2085811880,
    2085811874,
    2085811878,
    2085811870,
    2085822992
  ],
  "tags": {
    "landuse": "cemetery"
  }
},
{
  "type": "way",
  "id": 82672655,
  "center": {
    "lat": 47.4226362,
    "lon": 13.6530648
  },
  "nodes": [
    962195220,
    2391770322,
    2391770321,
    962194965,
    2391770319,
    11029346490,
    962195118,
    2391770307,
    2391770303,
    2391770301,
    2391770298,
    2391770312,
    2391770314,
    2391770313,
    962195275,
    2391770317,
    2101224411,
    2101224417,
    2391770318,
    2391770320,
    962195220
  ],
  "tags": {
    "barrier": "wall",
    "denomination": "lutheran",
    "landuse": "cemetery",
    "name": "Evang. Friedhof",
    "religion": "christian"
  }
},
{
  "type": "way",
  "id": 93204215,
  "center": {
    "lat": 47.6422482,
    "lon": 13.7729621
  },
  "nodes": [
    1080473625,
    12793456706,
    12793456709,
    12793456705,
    12793456708,
    2138810709,
    1080472473,
    1478281977,
    1478281979,
    1080474685,
    1080475431,
    1080470836,
    1478281963,
    1080470768,
    1478281961,
    1080472281,
    1478281960,
    1080473037,
    1080475305,
    3725325222,
    1478281976,
    2138810683,
    1080473625
  ],
  "tags": {
    "landuse": "cemetery",
    "name": "Friedhof Altaussee",
    "source": "geoimage.at"
  }
},
{
  "type": "way",
  "id": 95448374,
  "center": {
    "lat": 47.7704164,
    "lon": 13.0556432
  },
  "nodes": [
    1106757628,
    1108241239,
    1108241028,
    1108241311,
    1813458791,
    1108240984,
    1106757522,
    1106757403,
    1106757362,
    1106757311,
    1106757265,
    1108241062,
    1106757473,
    1106757732,
    1106757628
  ],
  "tags": {
    "landuse": "cemetery"
  }
},
{
  "type": "way",
  "id": 100188596,
  "center": {
    "lat": 47.9017950,
    "lon": 13.3198138
  },
  "nodes": [
    1158051491,
    1158049110,
    3030421141,
    3030421137,
    4134985118,
    1158050423,
    4134985110,
    10961196576,
    11851352337,
    1158049430,
    1158050716,
    11851352342,
    1158051491
  ],
  "tags": {
    "landuse": "cemetery"
  }
},
{
  "type": "way",
  "id": 100290241,
  "center": {
    "lat": 47.8822849,
    "lon": 13.5237040
  },
  "nodes": [
    1159207570,
    1159207572,
    1159207573,
    1159213044,
    1159207577,
    1159207580,
    1159207583,
    1159207602,
    1159207604,
    1159207606,
    1159207610,
    1159207611,
    1159207546,
    1159207616,
    1159207621,
    1159207630,
    1159207525,
    1159207633,
    1159207520,
    1159207638,
    1159207641,
    1159207570
  ],
  "tags": {
    "amenity": "grave_yard",
    "source": "Bing"
  }
},
{
  "type": "way",
  "id": 102401567,
  "center": {
    "lat": 47.8124171,
    "lon": 13.0732545
  },
  "nodes": [
    1182539573,
    1182539592,
    1182539563,
    1182539536,
    1182539582,
    1182539550,
    2908091602,
    2908091903,
    1207400039,
    1182539541,
    1182539586,
    1182539553,
    1182539533,
    1207400101,
    1182539575,
    1207399793,
    1182539543,
    1475989102,
    1487223123,
    1182539589,
    2908091904,
    2908091805,
    1487222986,
    2908092502,
    2908092901,
    1182539558,
    1182539535,
    1475989162,
    1475989054,
    1182539578,
    1182539547,
    1182539596,
    1182539566,
    1182539537,
    1182539584,
    1182539551,
    1182539573
  ],
  "tags": {
    "landuse": "cemetery",
    "name": "Friedhof Gnigl"
  }
},
{
  "type": "way",
  "id": 108725267,
  "center": {
    "lat": 47.3229302,
    "lon": 13.1526474
  },
  "nodes": [
    1246628106,
    2083125892,
    2083125880,
    2083125866,
    2083125844,
    2083125827,
    1246628163,
    1246628087,
    2083125802,
    1246628201,
    2083125801,
    1246628132,
    2083125803,
    1246628077,
    1735728182,
    2083125835,
    1246628189,
    1246628118,
    2083125883,
    1246628237,
    2083125903,
    1246628145,
    2083125910,
    1246628263,
    1246628106
  ],
  "tags": {
    "denomination": "catholic",
    "heritage": "2",
    "heritage:operator": "bda",
    "landuse": "cemetery",
    "note": "Denkmalgeschützt ist Friedhofskapelle und -mauer",
    "ref:at:bda": "24514",
    "religion": "christian",
    "wikidata": "Q37916865"
  }
},
{
  "type": "way",
  "id": 110312866,
  "center": {
    "lat": 47.3192066,
    "lon": 13.0999498
  },
  "nodes": [
    1260087930,
    1260089387,
    1260090357,
    1260089026,
    1260090003,
    1260088452,
    1260089626,
    1260090705,
    1260089930,
    1260090392,
    1260090223,
    1260088890,
    1260089922,
    1260088235,
    1514491467,
    1260089511,
    1514491461,
    1260090594,
    1260089190,
    1514491491,
    1514491475,
    1514491480,
    2083832008,
    1260088526,
    2083832010,
    2083832012,
    2083832013,
    1514491506,
    2083832015,
    2083832017,
    2083832019,
    1514491511,
    1260090605,
    1514491520,
    1514491516,
    1260089889,
    1260087930
  ],
  "tags": {
    "landuse": "cemetery",
    "name": "Friedhof Goldegg",
    "religion": "christian"
  }
},
{
  "type": "way",
  "id": 111165599,
  "center": {
    "lat": 47.4745456,
    "lon": 13.1903258
  },
  "nodes": [
    1267205881,
    1685849924,
    1685849926,
    1685849931,
    1685850015,
    1685850017,
    1685850008,
    1685849930,
    1685850011,
    1267205782,
    1267205757,
    1267205810,
    1267205868,
    1267205881
  ],
  "tags": {
    "amenity": "grave_yard",
    "landuse": "cemetery",
    "name": "Friedhof Werfen",
    "wikidata": "Q122591869",
    "wikimedia_commons": "Category:Friedhof Werfen"
  }
},
{
  "type": "way",
  "id": 113139611,
  "center": {
    "lat": 47.9681282,
    "lon": 13.0796124
  },
  "nodes": [
    1283922816,
    1283922813,
    1283922818,
    1283922820,
    1283922822,
    1252221933,
    1252221894,
    1252221944,
    1252221926,
    1252221915,
    1252221898,
    1251651328,
    1283922816
  ],
  "tags": {
    "amenity": "grave_yard"
  }
},
{
  "type": "way",
  "id": 114916930,
  "center": {
    "lat": 47.8392307,
    "lon": 13.0258546
  },
  "nodes": [
    1300403721,
    1300403672,
    1300403772,
    1300403543,
    1300403643,
    922442365,
    3021155033,
    1300403515,
    1300403612,
    2589555084,
    1300403721
  ],
  "tags": {
    "landuse": "cemetery",
    "name": "Friedhof Bergheim"
  }
},
{
  "type": "way",
  "id": 114916934,
  "center": {
    "lat": 47.8398492,
    "lon": 13.0243165
  },
  "nodes": [
    1300403569,
    1300403520,
    1300403758,
    1300403526,
    1300403624,
    1300403728,
    1280784278,
    1280784146,
    1300403829,
    1300403597,
    1300403737,
    1300403507,
    2021658156,
    1300403603,
    1564388367,
    1300403707,
    1300403809,
    1300403580,
    1300403684,
    1300403784,
    1300403585,
    336745517,
    1300403569
  ],
  "tags": {
    "landuse": "cemetery",
    "name": "Friedhof Bergheim"
  }
},
{
  "type": "way",
  "id": 117970512,
  "center": {
    "lat": 47.7957033,
    "lon": 13.3032789
  },
  "nodes": [
    1327884277,
    8913943949,
    1327884285,
    1327884296,
    5993440617,
    1327884303,
    5993440615,
    5993440616,
    8913943948,
    1327884277
  ],
  "tags": {
    "landuse": "cemetery"
  }
},
{
  "type": "way",
  "id": 119140707,
  "center": {
    "lat": 47.9317081,
    "lon": 13.7716695
  },
  "nodes": [
    1339468647,
    8332225575,
    1339468640,
    1339468619,
    1339468659,
    1339468647
  ],
  "tags": {
    "landuse": "cemetery",
    "source": "plan.at 2008"
  }
},
{
  "type": "way",
  "id": 122356895,
  "center": {
    "lat": 47.8057671,
    "lon": 13.4892855
  },
  "nodes": [
    1367548242,
    1367548239,
    2648662245,
    1367548235,
    2648666116,
    1367548261,
    2648674824,
    1367548233,
    1367548241,
    1367548242
  ],
  "tags": {
    "landuse": "cemetery",
    "name": "Friedhof Unterach"
  }
},
{
  "type": "way",
  "id": 122638167,
  "center": {
    "lat": 47.5920484,
    "lon": 13.4664899
  },
  "nodes": [
    1369823527,
    1369823487,
    1369823440,
    1369823471,
    1369823527
  ],
  "tags": {
    "landuse": "cemetery",
    "source": "geoimage.at HighQuality"
  }
},
{
  "type": "way",
  "id": 123769161,
  "center": {
    "lat": 47.5582732,
    "lon": 13.6850763
  },
  "nodes": [
    1379155871,
    1379155881,
    1379155925,
    1379155942,
    1379155937,
    1379155890,
    1379155932,
    1379156076,
    1379155959,
    1379155734,
    1379155801,
    1379155871
  ],
  "tags": {
    "landuse": "cemetery"
  }
},
{
  "type": "way",
  "id": 125132963,
  "center": {
    "lat": 47.3900127,
    "lon": 13.6120185
  },
  "nodes": [
    1390573820,
    1394264323,
    1390573819,
    1390573817,
    1394264322,
    1394264321,
    1390564317,
    1390573816,
    1019425322,
    1390573818,
    1390573821,
    1394264324,
    1019425270,
    1019425309,
    1019425159,
    1019425445,
    1390570714,
    1390570712,
    1390570715,
    1390573820
  ],
  "tags": {
    "amenity": "grave_yard",
    "denomination": "catholic",
    "religion": "christian"
  }
},
{
  "type": "way",
  "id": 125198912,
  "center": {
    "lat": 47.5128063,
    "lon": 13.4321776
  },
  "nodes": [
    1391163314,
    9803246745,
    1391163286,
    1391163300,
    1391163344,
    1391163314
  ],
  "tags": {
    "landuse": "cemetery",
    "name": "Friedhof Annaberg",
    "source": "geoimage.at",
    "wikidata": "Q128523877"
  }
},
{
  "type": "way",
  "id": 128217229,
  "center": {
    "lat": 47.4576848,
    "lon": 13.2057920
  },
  "nodes": [
    1417423701,
    3988558081,
    3988558082,
    1417423726,
    4373528060,
    3016759747,
    1417423721,
    1417423746,
    3019184358,
    3019184356,
    3019184355,
    3019184352,
    3019184351,
    3019184348,
    3019184347,
    1417423701
  ],
  "tags": {
    "amenity": "grave_yard",
    "religion": "christian",
    "surface": "gravel",
    "wheelchair": "limited"
  }
},
{
  "type": "way",
  "id": 128883271,
  "center": {
    "lat": 47.4930284,
    "lon": 13.4036471
  },
  "nodes": [
    1423038232,
    1423038237,
    11140005568,
    11140005578,
    11140005579,
    11140005580,
    1423038246,
    11140005569,
    1423038224,
    11140005570,
    11140005571,
    11140005572,
    11140005573,
    11140005574,
    11140005600,
    11140005601,
    1423038212,
    11140005575,
    11140005576,
    11140005577,
    1423038232
  ],
  "tags": {
    "landuse": "cemetery",
    "religion": "christian",
    "source": "geoimage.at"
  }
},
{
  "type": "way",
  "id": 131438331,
  "center": {
    "lat": 47.8936808,
    "lon": 13.1271104
  },
  "nodes": [
    1446527277,
    1446527279,
    2035541395,
    1446527293,
    1446527302,
    1446527301,
    2035522319,
    1446527290,
    1446527295,
    2035521281,
    1446527298,
    5125830426,
    5125830425,
    7772521519,
    2035590943,
    2035590941,
    2035543639,
    2035543631,
    5125830427,
    1446527234,
    1446527256,
    1446527231,
    1446527267,
    5125830460,
    1446527265,
    1446527277
  ],
  "tags": {
    "landuse": "cemetery",
    "religion": "christian"
  }
},
{
  "type": "way",
  "id": 131508005,
  "center": {
    "lat": 47.9127317,
    "lon": 13.8878172
  },
  "nodes": [
    1447210702,
    1447210704,
    1447210706,
    1447210707,
    1447210710,
    1447210712,
    1447210702
  ],
  "tags": {
    "landuse": "cemetery",
    "source": "geoimage.at"
  }
},
{
  "type": "way",
  "id": 131553735,
  "center": {
    "lat": 47.0693105,
    "lon": 13.9130559
  },
  "nodes": [
    1447527834,
    1447527828,
    1447527823,
    1447527816,
    1447527827,
    1447527829,
    1447527832,
    1447527835,
    1447527834
  ],
  "tags": {
    "denomination": "catholic",
    "landuse": "cemetery",
    "name": "Friedhof Predlitz-Turrach",
    "religion": "christian",
    "source": "geoimage.at",
    "wikidata": "Q128716729"
  }
},
{
  "type": "way",
  "id": 131988052,
  "center": {
    "lat": 47.9499046,
    "lon": 13.4174505
  },
  "nodes": [
    1452233604,
    1452233617,
    1452233629,
    1452233626,
    1452233590,
    1452233586,
    1452233595,
    1452233603,
    1452233614,
    1452233611,
    1452233600,
    1452233589,
    1452233604
  ],
  "tags": {
    "denomination": "catholic",
    "landuse": "cemetery",
    "religion": "christian"
  }
},
{
  "type": "way",
  "id": 133354608,
  "center": {
    "lat": 47.3778790,
    "lon": 13.4239546
  },
  "nodes": [
    1467997216,
    7367649074,
    1467997220,
    7367649065,
    7367649067,
    1467997222,
    1467997221,
    7367649068,
    7367649069,
    1467997217,
    1467997215,
    7367649070,
    7367649071,
    1467997212,
    7367649066,
    1467997213,
    1467997216
  ],
  "tags": {
    "amenity": "grave_yard",
    "denomination": "catholic",
    "religion": "christian"
  }
},
{
  "type": "way",
  "id": 135898716,
  "center": {
    "lat": 47.3841482,
    "lon": 13.4643174
  },
  "nodes": [
    1491721139,
    1491721137,
    1491721132,
    853134252,
    1491721130,
    1491721128,
    8291650950,
    1491721123,
    1491721120,
    8291651027,
    1491721114,
    1491721111,
    1491721109,
    1491721113,
    1491721116,
    1491721118,
    1491721125,
    1491721126,
    8291650911,
    8291638980,
    8291651137,
    8291650861,
    1491721135,
    8291639007,
    1491721139
  ],
  "tags": {
    "landuse": "cemetery"
  }
},
{
  "type": "way",
  "id": 135898717,
  "center": {
    "lat": 47.3854771,
    "lon": 13.4640680
  },
  "nodes": [
    853134127,
    1491721141,
    9085895473,
    1491708152,
    1191909007,
    1191908641,
    1491708148,
    1191908924,
    1491708147,
    1491708070,
    1491708068,
    9085895476,
    1491708065,
    1491708093,
    1491708091,
    1491708066,
    1491708060,
    9085895474,
    1491708055,
    1491708050,
    1491708047,
    1491708044,
    1491708051,
    1491708054,
    1491708052,
    853134127
  ],
  "tags": {
    "amenity": "grave_yard"
  }
},
{
  "type": "way",
  "id": 136128467,
  "center": {
    "lat": 47.0982941,
    "lon": 13.6333911
  },
  "nodes": [
    1493722774,
    1493722775,
    1493722772,
    1493722770,
    1493722774
  ],
  "tags": {
    "landuse": "cemetery",
    "name": "Friedhof der Marktgemeinde St. Michael",
    "source": "geoimage.at",
    "wikidata": "Q128915785"
  }
},
{
  "type": "way",
  "id": 143475676,
  "center": {
    "lat": 47.1384963,
    "lon": 13.6854623
  },
  "nodes": [
    1569956916,
    4387475463,
    1569956914,
    1569956921,
    1569956971,
    4387475481,
    4387475480,
    1569957015,
    4387475489,
    4387475486,
    4387475490,
    1569957017,
    1569957001,
    1569957011,
    1569956975,
    1569956930,
    1569956913,
    1569956916
  ],
  "tags": {
    "alt_name": "Kirchhof St. Gertraud",
    "heritage": "2",
    "historic": "heritage",
    "landuse": "cemetery",
    "name": "Friedhof St. Gertraud",
    "wikidata": "Q37913273"
  }
},
{
  "type": "way",
  "id": 143967731,
  "center": {
    "lat": 47.9848544,
    "lon": 13.8197928
  },
  "nodes": [
    1575446202,
    12787925635,
    1575446182,
    12338952558,
    1472091316,
    1472091299,
    1472091315,
    371680913,
    371680908,
    371680922,
    1575446133,
    1575446142,
    1575446144,
    1575430812,
    1575430825,
    1575430853,
    1575430879,
    1575430877,
    1575446212,
    1575446202
  ],
  "tags": {
    "barrier": "wall",
    "landuse": "cemetery",
    "religion": "christian"
  }
},
{
  "type": "way",
  "id": 144112797,
  "center": {
    "lat": 47.8530440,
    "lon": 13.9569364
  },
  "nodes": [
    1576914078,
    1576914122,
    1576914159,
    1576914115,
    1576914078
  ],
  "tags": {
    "landuse": "cemetery",
    "source": "geoimage.at"
  }
},
{
  "type": "way",
  "id": 144112799,
  "center": {
    "lat": 47.8534616,
    "lon": 13.9567168
  },
  "nodes": [
    1576914160,
    1576914231,
    1576914264,
    1576914336,
    1576914353,
    1576914368,
    1576914366,
    1576914306,
    1576914260,
    1576914160
  ],
  "tags": {
    "landuse": "cemetery",
    "source": "geoimage.at"
  }
},
{
  "type": "way",
  "id": 144532052,
  "center": {
    "lat": 47.9024941,
    "lon": 13.5722159
  },
  "nodes": [
    1580824114,
    1580824178,
    1580824186,
    1580824172,
    1580824169,
    1580824157,
    1580824114
  ],
  "tags": {
    "landuse": "cemetery",
    "source": "geoimage.at"
  }
},
{
  "type": "way",
  "id": 144782086,
  "center": {
    "lat": 47.9847546,
    "lon": 13.4125486
  },
  "nodes": [
    1582819598,
    5272593092,
    1582819597,
    1582819595,
    1582819596,
    1582819598
  ],
  "tags": {
    "landuse": "cemetery"
  }
},
{
  "type": "way",
  "id": 145558176,
  "center": {
    "lat": 47.6368466,
    "lon": 13.6180230
  },
  "nodes": [
    1589527542,
    1589527544,
    1589527540,
    1589527537,
    1589527538,
    1589527539,
    1589527541,
    1589527542
  ],
  "tags": {
    "denomination": "roman_catholic",
    "landuse": "cemetery",
    "name": "Friedhof Bad Goisern",
    "religion": "christian"
  }
},
{
  "type": "way",
  "id": 146602966,
  "center": {
    "lat": 47.9723115,
    "lon": 13.7091304
  },
  "nodes": [
    1598673918,
    1598673925,
    3359712004,
    3665915524,
    1598673926,
    3359711718,
    1598673918
  ],
  "tags": {
    "landuse": "cemetery",
    "name": "Friedhof Rutzenmoos",
    "source": "geoimage.at"
  }
},
{
  "type": "way",
  "id": 148117457,
  "center": {
    "lat": 47.9800099,
    "lon": 13.2561150
  },
  "nodes": [
    1612188204,
    1612188253,
    1314765612,
    1612188242,
    1344325349,
    1314765611,
    1612188212,
    1612188211,
    1612188210,
    1612188255,
    1612188236,
    1612188207,
    1612188240,
    1612188251,
    1612188204
  ],
  "tags": {
    "denomination": "catholic",
    "landuse": "cemetery",
    "religion": "christian",
    "wikidata": "Q128503807"
  }
},
{
  "type": "way",
  "id": 150606384,
  "center": {
    "lat": 47.8045171,
    "lon": 13.0472171
  },
  "nodes": [
    1635081609,
    1635081587,
    1635081564,
    1635081439,
    1635081441,
    1635081452,
    1635081481,
    1635081609
  ],
  "tags": {
    "denomination": "catholic",
    "landuse": "cemetery",
    "name": "Friedhof St. Sebastian",
    "name:ko": "성 세바스찬 묘지",
    "religion": "christian",
    "tourism": "attraction",
    "wheelchair": "no",
    "wikidata": "Q1635749"
  }
},
{
  "type": "way",
  "id": 150841731,
  "center": {
    "lat": 47.8515145,
    "lon": 13.0826997
  },
  "nodes": [
    1637108783,
    1637108781,
    1637108534,
    1637108522,
    1637108509,
    1637108494,
    1637108502,
    1637108506,
    1637108512,
    1637108526,
    1637108541,
    1637108573,
    1637108783
  ],
  "tags": {
    "landuse": "cemetery"
  }
},
{
  "type": "way",
  "id": 151857270,
  "center": {
    "lat": 47.9592972,
    "lon": 13.0087536
  },
  "nodes": [
    1646991273,
    1646991275,
    1646991280,
    1646991170,
    1646991205,
    1646991235,
    1646991208,
    1646991240,
    1646991221,
    1646991283,
    1646991269,
    1646991290,
    1646991149,
    1646991266,
    1646991226,
    1646991213,
    1646991159,
    1646991152,
    1646991199,
    1646991154,
    1646991231,
    1646991262,
    1646991245,
    4154849897,
    1646991165,
    1646991201,
    1646991285,
    1646991217,
    1646991273
  ],
  "tags": {
    "landuse": "cemetery",
    "wikidata": "Q128503798"
  }
},
{
  "type": "way",
  "id": 152036449,
  "center": {
    "lat": 47.3770801,
    "lon": 13.1260755
  },
  "nodes": [
    1648692597,
    1648692787,
    1648692833,
    1648692790,
    1648692770,
    1648692819,
    1648692810,
    1648692752,
    1648692701,
    1648692715,
    1648692658,
    1648692597
  ],
  "tags": {
    "landuse": "cemetery"
  }
},
{
  "type": "way",
  "id": 153047364,
  "center": {
    "lat": 47.9509439,
    "lon": 13.6751091
  },
  "nodes": [
    1657980519,
    1657980514,
    3784995063,
    1657980515,
    1657980521,
    1657980519
  ],
  "tags": {
    "landuse": "cemetery"
  }
},
{
  "type": "way",
  "id": 154714673,
  "center": {
    "lat": 47.8055658,
    "lon": 13.0352634
  },
  "nodes": [
    825681549,
    1672093079,
    9965576024,
    825678203,
    825678043,
    9965576022,
    825679177,
    5205385619,
    5205393921,
    5205385620,
    5205385618,
    825681785,
    5205393742,
    5205393741,
    825678577,
    825681398,
    5205393740,
    5205393739,
    825677822,
    825680696,
    5205393738,
    5205393737,
    825677130,
    5205393734,
    2140770641,
    5205393733,
    5205393504,
    2140770637,
    5205393499,
    5205393497,
    825680164,
    5205393498,
    5205385615,
    5205385616,
    825676276,
    2140770639,
    825678421,
    825682239,
    825678824,
    9274522198,
    825681941,
    825678020,
    1175181176,
    825680480,
    825677581,
    845858355,
    1175181204,
    1046293848,
    9274522216,
    1046293815,
    1046293801,
    9274522215,
    1046293822,
    9274522214,
    9274522213,
    9274522212,
    2140770648,
    825678165,
    825680589,
    825676192,
    1672093082,
    825682188,
    825681065,
    825678324,
    825677742,
    825681549
  ],
  "tags": {
    "denomination": "catholic",
    "landuse": "cemetery",
    "name": "Friedhof Mülln",
    "religion": "christian"
  }
},
{
  "type": "way",
  "id": 160070402,
  "center": {
    "lat": 47.8199056,
    "lon": 13.2163896
  },
  "nodes": [
    1721466400,
    3074881177,
    827408158,
    3074881207,
    3074881190,
    3074881205,
    3074881174,
    3074881192,
    3074881191,
    3074881198,
    3074881195,
    3074881201,
    3074881196,
    3074881193,
    1721466412,
    1721466420,
    1721466440,
    1721466460,
    1721466465,
    1721466503,
    1721466537,
    1721466533,
    1721466541,
    5242386296,
    1721466556,
    1721466565,
    1721466558,
    1721466552,
    3074881181,
    3074881188,
    3074881186,
    1721466413,
    1721466416,
    1721466425,
    1721466427,
    1721466429,
    1721466399,
    1721466400
  ],
  "tags": {
    "denomination": "catholic",
    "landuse": "cemetery",
    "name": "Friedhof Hof",
    "religion": "christian"
  }
},
{
  "type": "way",
  "id": 160337866,
  "center": {
    "lat": 47.8676976,
    "lon": 13.0672498
  },
  "nodes": [
    1723849434,
    4401300499,
    1723849420,
    2061277748,
    1723849417,
    2061277746,
    1723849414,
    1723849396,
    1723849400,
    1723849398,
    1617126406,
    1617126358,
    1617126509,
    1617126420,
    4401300505,
    1723849434
  ],
  "tags": {
    "amenity": "grave_yard",
    "religion": "christian"
  }
},
{
  "type": "way",
  "id": 160523409,
  "center": {
    "lat": 47.6962476,
    "lon": 13.1326753
  },
  "nodes": [
    1725768321,
    7956014647,
    1725768272,
    1725768196,
    1725768254,
    7956014705,
    1725768226,
    7961016389,
    1725768288,
    7961016388,
    1725768204,
    7961016387,
    7961016386,
    1725768200,
    7961016385,
    6358557456,
    7961010783,
    7961010782,
    1725768359,
    7961010781,
    7961010780,
    7961010779,
    1725768373,
    7961016642,
    7961016641,
    1725768185,
    1725768276,
    7961010778,
    7961010777,
    1725768199,
    7961010773,
    4887920953,
    4887920955,
    7961010776,
    7961010775,
    7961010774,
    1725768208,
    1725768242,
    1725768201,
    1725768295,
    1725768181,
    7961016390,
    1725768321
  ],
  "tags": {
    "landuse": "cemetery",
    "wikidata": "Q38027310"
  }
},
{
  "type": "way",
  "id": 161201271,
  "center": {
    "lat": 47.8390880,
    "lon": 13.0374961
  },
  "nodes": [
    1731941267,
    1731941494,
    2973143435,
    1731941344,
    1731941348,
    3020993237,
    4242006312,
    1731941492,
    3020993037,
    1731941281,
    1731941411,
    4242006334,
    4242006338,
    3020985343,
    1731941267
  ],
  "tags": {
    "amenity": "grave_yard",
    "barrier": "fence",
    "fence_type": "wood",
    "name": "Paxnatura Naturbestattung",
    "religion": "all",
    "website": "https://www.paxnatura.at/"
  }
},
{
  "type": "way",
  "id": 161600222,
  "center": {
    "lat": 47.3289061,
    "lon": 13.1515736
  },
  "nodes": [
    1310050379,
    1735728415,
    1310050785,
    1310050036,
    7324108968,
    1310050573,
    1310050604,
    1310050345,
    7324108969,
    1310050857,
    11690271713,
    1310049628,
    1310050267,
    1310050033,
    11824583375,
    11824583372,
    1310049783,
    1310050379
  ],
  "tags": {
    "amenity": "grave_yard",
    "denomination": "roman_catholic",
    "religion": "christian"
  }
},
{
  "type": "way",
  "id": 161906287,
  "center": {
    "lat": 47.6922167,
    "lon": 13.0475881
  },
  "nodes": [
    1738565419,
    2742010659,
    2742010657,
    1738565428,
    1738565427,
    2742010688,
    2742010661,
    2742010665,
    2742010664,
    2742010654,
    2742010702,
    2742010676,
    2742010645,
    2742010705,
    2742010689,
    2742010651,
    2742015814,
    2742010662,
    2742015841,
    1738565419
  ],
  "tags": {
    "amenity": "grave_yard",
    "denomination": "catholic",
    "name": "Friedhof Marktschellenberg",
    "religion": "christian",
    "wikidata": "Q107488565"
  }
},
{
  "type": "way",
  "id": 162371311,
  "center": {
    "lat": 47.7399128,
    "lon": 13.0943366
  },
  "nodes": [
    1742796224,
    1742796020,
    1742796191,
    1742796022,
    1742796272,
    8383527225,
    1742796250,
    1742796030,
    1742796224
  ],
  "tags": {
    "amenity": "grave_yard",
    "name": "Friedhof St. Jakob"
  }
},
{
  "type": "way",
  "id": 162875434,
  "center": {
    "lat": 47.9343593,
    "lon": 13.4916319
  },
  "nodes": [
    1746798450,
    1746798599,
    1751642035,
    1746798567,
    1746798672,
    1746798783,
    1746798777,
    1746798790,
    1746798780,
    1746798786,
    1746798788,
    1746798768,
    1746798795,
    1746798717,
    1746798667,
    1746798629,
    1746798569,
    1746798582,
    1746798502,
    1746798536,
    5597963052,
    1746798478,
    1746798456,
    1746798479,
    1746798480,
    1746798476,
    1746798437,
    1746798450
  ],
  "tags": {
    "denomination": "catholic",
    "landuse": "cemetery",
    "name": "Pfarrfriedhof St. Georgen",
    "religion": "christian"
  }
},
{
  "type": "way",
  "id": 162896710,
  "center": {
    "lat": 47.7871180,
    "lon": 13.0446227
  },
  "nodes": [
    1746960474,
    1746960473,
    1746960478,
    1746960481,
    1746960487,
    1746960490,
    1746960494,
    1746960499,
    1746960500,
    1746960496,
    1746960492,
    1746960488,
    1746960485,
    1746960483,
    1746960479,
    1746960474
  ],
  "tags": {
    "barrier": "hedge",
    "historic": "memorial",
    "landuse": "cemetery",
    "name": "Soldatenfriedhof"
  }
},
{
  "type": "way",
  "id": 164075665,
  "center": {
    "lat": 47.9707094,
    "lon": 13.1057908
  },
  "nodes": [
    1757350320,
    1757350321,
    1757350325,
    1757350326,
    1757350327,
    1757350330,
    1754980777,
    1754980783,
    1754980781,
    1754980835,
    1754980865,
    1754980874,
    1754980876,
    1757350335,
    3446639633,
    3426974325,
    3426974323,
    1754980929,
    1754980924,
    1754990244,
    3429945536,
    11353748376,
    3426974322,
    3429945535,
    3429945527,
    1754990232,
    1754990228,
    1754990225,
    1754990224,
    3429945521,
    1754990223,
    1754990222,
    3429945517,
    1754990218,
    1754990216,
    1754990219,
    1754990215,
    3429945514,
    2474931780,
    3429945512,
    1757350329,
    2474955057,
    1757350320
  ],
  "tags": {
    "landuse": "cemetery",
    "wikidata": "Q128693599"
  }
},
{
  "type": "way",
  "id": 164165302,
  "center": {
    "lat": 47.5695954,
    "lon": 13.8845656
  },
  "nodes": [
    1758227564,
    1758227566,
    6443199387,
    6443199386,
    6443199362,
    6443199385,
    6443199765,
    6443199766,
    6443199767,
    6443199384,
    6443199383,
    6443199382,
    6443199381,
    6443199365,
    1758227564
  ],
  "tags": {
    "landuse": "cemetery"
  }
},
{
  "type": "way",
  "id": 168511242,
  "center": {
    "lat": 47.7189075,
    "lon": 13.4829411
  },
  "nodes": [
    1797639060,
    1797639069,
    1803581507,
    10574825727,
    10574825726,
    10574825728,
    1803581496,
    1797639057,
    1797639051,
    1797639049,
    10573003273,
    1811338278,
    10573003272,
    1811338276,
    1811338279,
    1797639055,
    1797639060
  ],
  "tags": {
    "denomination": "catholic",
    "landuse": "cemetery",
    "name": "Friedhof Strobl",
    "religion": "christian",
    "source": "geoimage.at",
    "wikidata": "Q128755341"
  }
},
{
  "type": "way",
  "id": 168967921,
  "center": {
    "lat": 47.1520060,
    "lon": 13.5077193
  },
  "nodes": [
    1614257726,
    1614257716,
    1614257720,
    1614257712,
    1614257710,
    1614257715,
    1801497568,
    1801497581,
    1801497584,
    1801497588,
    1801497587,
    1801497589,
    1614257722,
    1614257727,
    1614257729,
    1614257733,
    1614257740,
    1614257747,
    1614257741,
    1614257748,
    1614257743,
    1614257742,
    1614257738,
    1614257730,
    1614257726
  ],
  "tags": {
    "amenity": "grave_yard"
  }
},
{
  "type": "way",
  "id": 169025064,
  "center": {
    "lat": 47.3762259,
    "lon": 13.5513459
  },
  "nodes": [
    1802002993,
    1802002965,
    1802002967,
    1802002886,
    1802002884,
    1802002882,
    1802002918,
    1802002928,
    1802002931,
    1802002937,
    1802002943,
    1802002952,
    1802002989,
    1802002993
  ],
  "tags": {
    "denomination": "catholic",
    "landuse": "cemetery",
    "religion": "christian",
    "source": "geoimage.at"
  }
},
{
  "type": "way",
  "id": 169266097,
  "center": {
    "lat": 47.8317830,
    "lon": 13.5487054
  },
  "nodes": [
    1804320227,
    1804320233,
    1804320253,
    1804320271,
    1804320282,
    1804320248,
    1804320266,
    1804320128,
    1804320108,
    1804320089,
    1804320086,
    1804320090,
    1804320084,
    1804320130,
    1804320112,
    1804320227
  ],
  "tags": {
    "denomination": "catholic",
    "landuse": "cemetery",
    "religion": "christian",
    "source": "geoimage.at"
  }
},
{
  "type": "way",
  "id": 169796810,
  "center": {
    "lat": 47.9375875,
    "lon": 13.0774584
  },
  "nodes": [
    1809574481,
    1809574492,
    1809574496,
    1809574498,
    1809574494,
    1809574483,
    1809574474,
    1809574471,
    3385587008,
    1809574446,
    1809574419,
    1809574421,
    1809574395,
    1809574375,
    1809574367,
    1809574349,
    1809574337,
    1809574324,
    1809574322,
    1809574321,
    1809574318,
    1809574317,
    1809574319,
    1809574378,
    1809574385,
    1809574388,
    1809574456,
    1809574460,
    1809574461,
    1809574479,
    1809574478,
    1809574482,
    1809574481
  ],
  "tags": {
    "amenity": "grave_yard",
    "wikidata": "Q128693437"
  }
},
{
  "type": "way",
  "id": 170648649,
  "center": {
    "lat": 47.9529742,
    "lon": 13.1525059
  },
  "nodes": [
    1818076067,
    1818076066,
    3901005862,
    1818076068,
    1818076073,
    1818076079,
    1818076087,
    3905175994,
    1818076090,
    1818076091,
    1818076089,
    1818076088,
    1818076082,
    1818076075,
    1818076069,
    3901005861,
    1818076067
  ],
  "tags": {
    "landuse": "cemetery"
  }
},
{
  "type": "way",
  "id": 171009379,
  "center": {
    "lat": 47.5800097,
    "lon": 13.5250604
  },
  "nodes": [
    443382250,
    1821133515,
    1821133522,
    1821133530,
    1925549474,
    1821133539,
    1821133540,
    1821133543,
    1821133542,
    1821133547,
    1821133548,
    1821133545,
    1821133541,
    1925549476,
    1821133534,
    1821133524,
    1821133518,
    1821133513,
    1821133512,
    1821133510,
    443382248,
    443382250
  ],
  "tags": {
    "landuse": "cemetery"
  }
},
{
  "type": "way",
  "id": 171630054,
  "center": {
    "lat": 47.7486357,
    "lon": 13.0652576
  },
  "nodes": [
    1826294395,
    1826294491,
    1826294634,
    1826294666,
    1826294636,
    1826294638,
    1826294641,
    1826294565,
    1826294502,
    1826294399,
    1826294371,
    1826294290,
    1826294288,
    1826294279,
    1826294276,
    1826294286,
    1826294297,
    1826294308,
    1826294331,
    1826294370,
    1826294395
  ],
  "tags": {
    "amenity": "grave_yard"
  }
},
{
  "type": "way",
  "id": 175605421,
  "center": {
    "lat": 47.4160757,
    "lon": 13.3062546
  },
  "nodes": [
    1861704948,
    1861704959,
    1782400823,
    1861704901,
    1782400777,
    1782400835,
    1861704804,
    1861704891,
    1861704948
  ],
  "tags": {
    "landuse": "cemetery"
  }
},
{
  "type": "way",
  "id": 175653262,
  "center": {
    "lat": 47.3920749,
    "lon": 13.6868903
  },
  "nodes": [
    1862175030,
    5206954229,
    1044801857,
    1044801502,
    1862175036,
    1862175049,
    1862175068,
    1862175087,
    1862175074,
    1862175072,
    1862175058,
    1862175053,
    1862175051,
    5206954232,
    5206954233,
    5206954231,
    5206954230,
    1862175030
  ],
  "tags": {
    "amenity": "grave_yard",
    "religion": "christian"
  }
},
{
  "type": "way",
  "id": 188712151,
  "center": {
    "lat": 47.7448455,
    "lon": 13.0089984
  },
  "nodes": [
    4077630535,
    1993339364,
    9273116275,
    1993339313,
    1995585477,
    9273116261,
    9273116263,
    9273116262,
    9273116264,
    9273116265,
    1993339341,
    1993339346,
    4229660194,
    12194256640,
    4077630535
  ],
  "tags": {
    "landuse": "cemetery",
    "name": "Naturfriedhof Kastanienwiese",
    "website": "https://www.paxnatura.at/standort/naturfriedhof-kastanienwiese/"
  }
},
{
  "type": "way",
  "id": 189842276,
  "center": {
    "lat": 47.6386994,
    "lon": 13.6162778
  },
  "nodes": [
    2004573167,
    2004573173,
    2004573197,
    7962353677,
    7962353665,
    2004573194,
    7962353633,
    2004573188,
    2004573217,
    7962353674,
    2004573167
  ],
  "tags": {
    "landuse": "cemetery",
    "name": "Friedhof Bad Goisern",
    "religion": "christian",
    "wheelchair": "yes"
  }
},
{
  "type": "way",
  "id": 191194215,
  "center": {
    "lat": 47.6638183,
    "lon": 13.1320052
  },
  "nodes": [
    2017932729,
    3656765136,
    3656764929,
    2017932759,
    3656765135,
    2017932754,
    2017932745,
    2017932758,
    2017932743,
    2017932752,
    3656783627,
    2017932746,
    2017932757,
    2017932747,
    2017932742,
    2017932756,
    2017932729
  ],
  "tags": {
    "landuse": "cemetery"
  }
},
{
  "type": "way",
  "id": 191703814,
  "center": {
    "lat": 47.9940120,
    "lon": 13.6871418
  },
  "nodes": [
    2022893391,
    2022893386,
    2022893385,
    2022893384,
    2022893383,
    3450964223,
    3125505089,
    3450964222,
    3125505084,
    3125505087,
    2022893381,
    2022893382,
    2022893389,
    2022893387,
    2022893393,
    2022893391
  ],
  "tags": {
    "landuse": "cemetery",
    "name": "Friedhof Regau"
  }
},
{
  "type": "way",
  "id": 193672460,
  "center": {
    "lat": 47.7313417,
    "lon": 13.0604903
  },
  "nodes": [
    2041914732,
    2041914865,
    2041914756,
    2041914762,
    2041914753,
    2041914831,
    2041914760,
    2041914772,
    2041914827,
    2041914833,
    2041914819,
    2041914732
  ],
  "tags": {
    "amenity": "grave_yard"
  }
},
{
  "type": "way",
  "id": 193852712,
  "center": {
    "lat": 47.7451066,
    "lon": 13.0736152
  },
  "nodes": [
    2043603067,
    2043603058,
    2043603073,
    336991797,
    2043603091,
    2034600460,
    2034600442,
    2043603042,
    336991799,
    2043603056,
    2043603067
  ],
  "tags": {
    "amenity": "grave_yard",
    "name": "Hundefriedhof"
  }
},
{
  "type": "way",
  "id": 196721814,
  "center": {
    "lat": 47.8516360,
    "lon": 13.0521139
  },
  "nodes": [
    2070180002,
    2070179948,
    2070179930,
    2070179954,
    2070179963,
    2070180002
  ],
  "tags": {
    "landuse": "cemetery",
    "name": "Schwesternfriedhof"
  }
},
{
  "type": "way",
  "id": 199428981,
  "center": {
    "lat": 47.7137004,
    "lon": 13.2869956
  },
  "nodes": [
    2094316781,
    8940093405,
    2094316825,
    8940093406,
    8940093407,
    2094316807,
    2094316846,
    2094316791,
    2094316795,
    2094316818,
    2094316840,
    8940093408,
    8940093409,
    8940093410,
    8940093411,
    1578274933,
    8940093412,
    8940093413,
    2094316797,
    2094316826,
    2094316841,
    2094316814,
    2094316833,
    2094316815,
    2094316819,
    2094316821,
    2094316844,
    2094316809,
    2094316793,
    2094316803,
    2094316806,
    2094316781
  ],
  "tags": {
    "denomination": "catholic",
    "landuse": "cemetery",
    "religion": "christian",
    "source": "geoimage.at"
  }
},
{
  "type": "way",
  "id": 201086101,
  "center": {
    "lat": 47.9687670,
    "lon": 13.8973018
  },
  "nodes": [
    2110433009,
    3112596256,
    2110433014,
    2110433007,
    2110433010,
    2110433012,
    2110433009
  ],
  "tags": {
    "barrier": "wall",
    "denomination": "catholic",
    "landuse": "cemetery",
    "name": "Friedhof Kirchham",
    "religion": "christian",
    "source": "geoimage.at",
    "wheelchair": "yes"
  }
},
{
  "type": "way",
  "id": 202589236,
  "center": {
    "lat": 47.7237399,
    "lon": 13.5828529
  },
  "nodes": [
    2125554359,
    2125554284,
    2125554295,
    2125554288,
    2125554359
  ],
  "tags": {
    "amenity": "grave_yard",
    "religion": "christian",
    "wikidata": "Q129195741"
  }
},
{
  "type": "way",
  "id": 206555694,
  "center": {
    "lat": 47.4365407,
    "lon": 13.9439731
  },
  "nodes": [
    2165700643,
    2165700614,
    2165700618,
    2165700604,
    2165700607,
    2165700589,
    2165700600,
    2165700643
  ],
  "tags": {
    "amenity": "grave_yard",
    "religion": "christian"
  }
},
{
  "type": "way",
  "id": 207710739,
  "center": {
    "lat": 47.6428070,
    "lon": 13.2041889
  },
  "nodes": [
    2179643536,
    2181026872,
    2179643614,
    2179643526,
    2179643587,
    2179643512,
    2179643625,
    2179643608,
    2179643517,
    2179643578,
    2179643498,
    2179643491,
    2179643524,
    2181468347,
    2179643521,
    2179643618,
    2179643507,
    2185834130,
    2179638515,
    2179638582,
    2179638730,
    2179638655,
    2179643568,
    2179643555,
    2179643536
  ],
  "tags": {
    "amenity": "grave_yard"
  }
},
{
  "type": "way",
  "id": 221356738,
  "center": {
    "lat": 47.4616853,
    "lon": 13.2579486
  },
  "nodes": [
    2303851107,
    2303851015,
    2303851112,
    2303851085,
    2303851107
  ],
  "tags": {
    "amenity": "grave_yard"
  }
},
{
  "type": "way",
  "id": 222013869,
  "center": {
    "lat": 47.0768752,
    "lon": 13.8426507
  },
  "nodes": [
    2309868724,
    3195385691,
    2309868685,
    2309868625,
    3195385688,
    3195385399,
    3195385204,
    2309868616,
    8385890722,
    8385890723,
    2309868680,
    2309868728,
    2309868724
  ],
  "tags": {
    "landuse": "cemetery",
    "wikidata": "Q128716783"
  }
},
{
  "type": "way",
  "id": 223555736,
  "center": {
    "lat": 47.1285810,
    "lon": 13.8125355
  },
  "nodes": [
    2324406169,
    2324406170,
    9641806059,
    2324406171,
    2324406172,
    2324406173,
    2324406174,
    2324406169
  ],
  "tags": {
    "landuse": "cemetery"
  }
},
{
  "type": "way",
  "id": 223555737,
  "center": {
    "lat": 47.1290412,
    "lon": 13.8135585
  },
  "nodes": [
    2324406175,
    2324406176,
    3017301942,
    2324406177,
    2324406178,
    2324406179,
    2324406180,
    3017301945,
    2324406181,
    3017301935,
    3017301932,
    2324406182,
    2324406183,
    2324406184,
    2324406175
  ],
  "tags": {
    "landuse": "cemetery"
  }
},
{
  "type": "way",
  "id": 224785150,
  "center": {
    "lat": 47.7875982,
    "lon": 13.7580316
  },
  "nodes": [
    2336091949,
    2336091923,
    2336091905,
    2336091916,
    2336091949
  ],
  "tags": {
    "landuse": "cemetery"
  }
},
{
  "type": "way",
  "id": 224785151,
  "center": {
    "lat": 47.7878510,
    "lon": 13.7582338
  },
  "nodes": [
    2336092058,
    2336092023,
    2336091960,
    2336092040,
    2336092058
  ],
  "tags": {
    "landuse": "cemetery"
  }
},
{
  "type": "way",
  "id": 224785152,
  "center": {
    "lat": 47.7875854,
    "lon": 13.7576171
  },
  "nodes": [
    2336091971,
    2336091911,
    2336091898,
    2336091932,
    2336091971
  ],
  "tags": {
    "landuse": "cemetery"
  }
},
{
  "type": "way",
  "id": 224785155,
  "center": {
    "lat": 47.7877350,
    "lon": 13.7583383
  },
  "nodes": [
    2336092035,
    2336091953,
    2336091919,
    2336091999,
    2336092010,
    2336092035
  ],
  "tags": {
    "landuse": "cemetery"
  }
},
{
  "type": "way",
  "id": 224785156,
  "center": {
    "lat": 47.7874745,
    "lon": 13.7577290
  },
  "nodes": [
    2336091921,
    2336091893,
    2336091890,
    2336091888,
    2336091903,
    2336091921
  ],
  "tags": {
    "landuse": "cemetery"
  }
},
{
  "type": "way",
  "id": 224983737,
  "center": {
    "lat": 47.8991070,
    "lon": 13.1866446
  },
  "nodes": [
    2338157709,
    2338157710,
    2338157711,
    2338157712,
    2338157713,
    5571715275,
    2338157715,
    2338157716,
    2338157717,
    2338157718,
    2338157719,
    5571709536,
    2338157720,
    2338205492,
    2338157721,
    2338157727,
    2338157722,
    2338157723,
    2338157724,
    2338157726,
    3979330334,
    2338205493,
    2338157709
  ],
  "tags": {
    "amenity": "grave_yard",
    "religion": "christian"
  }
},
{
  "type": "way",
  "id": 224983738,
  "center": {
    "lat": 47.8997229,
    "lon": 13.1872764
  },
  "nodes": [
    2338157728,
    2406874783,
    2406874784,
    2406874785,
    2338157729,
    2338157730,
    2338157731,
    2338157728
  ],
  "tags": {
    "amenity": "grave_yard",
    "religion": "christian"
  }
},
{
  "type": "way",
  "id": 225292958,
  "center": {
    "lat": 47.0826010,
    "lon": 13.9800659
  },
  "nodes": [
    2340899721,
    2340899683,
    2340899668,
    2340899708,
    2340899721
  ],
  "tags": {
    "landuse": "cemetery",
    "name": "Friedhof Stadl an der Mur",
    "religion": "christian"
  }
},
{
  "type": "way",
  "id": 225767946,
  "center": {
    "lat": 47.5965056,
    "lon": 13.1683705
  },
  "nodes": [
    2345205900,
    2345205898,
    2345205914,
    2345205918,
    2345205907,
    2345205925,
    2345205908,
    2345205909,
    2345205892,
    1275855026,
    336410096,
    336340367,
    4356548882,
    1275855097,
    2345205889,
    2345205888,
    336340365,
    2345205899,
    2345205891,
    2345205921,
    2345205897,
    2137381647,
    2137381532,
    2137381571,
    2137381660,
    2345205933,
    2345205911,
    2137381677,
    2137381580,
    2345207914,
    2137381630,
    2345207915,
    2345207925,
    2345207916,
    2345207917,
    2345207922,
    2345207920,
    2345207921,
    2345207924,
    2345207923,
    2345207919,
    2345207918,
    2345205900
  ],
  "tags": {
    "landuse": "cemetery",
    "name": "Friedhof Golling",
    "source": "geoimage.at",
    "wikidata": "Q128503772"
  }
},
{
  "type": "way",
  "id": 226083553,
  "center": {
    "lat": 47.4597500,
    "lon": 13.9903003
  },
  "nodes": [
    2349412170,
    2349412174,
    2349412186,
    2682010773,
    2349412182,
    2349412184,
    2349412168,
    2349412178,
    2349412172,
    2349412167,
    2349412180,
    2735105060,
    2735105050,
    2349412176,
    2735105033,
    2349412170
  ],
  "tags": {
    "denomination": "catholic",
    "landuse": "cemetery",
    "name": "Öblarner Friedhof",
    "religion": "christian"
  }
},
{
  "type": "way",
  "id": 228095981,
  "center": {
    "lat": 47.7721155,
    "lon": 13.0883865
  },
  "nodes": [
    2367366725,
    2367366574,
    2367366747,
    1469352439,
    2367366631,
    2367366725
  ],
  "tags": {
    "amenity": "grave_yard"
  }
},
{
  "type": "way",
  "id": 231906483,
  "center": {
    "lat": 47.4170606,
    "lon": 13.6753512
  },
  "nodes": [
    2402315875,
    2402315856,
    2402315861,
    1795933362,
    1795933363,
    2402315879,
    2402315845,
    2402315881,
    2402315889,
    2402315844,
    2402315904,
    2402315880,
    2402315840,
    2402315887,
    2402315865,
    2402315888,
    2402315875
  ],
  "tags": {
    "denomination": "catholic",
    "landuse": "cemetery",
    "name": "Kulmfriedhof",
    "religion": "christian"
  }
},
{
  "type": "way",
  "id": 232213317,
  "center": {
    "lat": 47.2769185,
    "lon": 13.3205276
  },
  "nodes": [
    2356429170,
    2405861873,
    2405861875,
    2405861877,
    2405861878,
    2405861879,
    2405861884,
    2405861885,
    2356429167,
    2356429109,
    2356429094,
    2356429122,
    2356429137,
    2356429098,
    2356429156,
    2356429171,
    2356429170
  ],
  "tags": {
    "landuse": "cemetery",
    "name": "Friedhof Kleinarl"
  }
},
{
  "type": "way",
  "id": 233391669,
  "center": {
    "lat": 47.9093852,
    "lon": 13.5131132
  },
  "nodes": [
    2417857336,
    2417857255,
    2417857143,
    2417857116,
    2417857125,
    2417857142,
    2417857144,
    2417857134,
    2417857139,
    2417857206,
    2417857437,
    2417857560,
    2417857653,
    2417857698,
    2417857733,
    2417857724,
    2417857671,
    2417857638,
    2417857492,
    2417857336
  ],
  "tags": {
    "amenity": "grave_yard",
    "denomination": "catholic",
    "name": "Abtsdorf",
    "religion": "christian",
    "source": "geoimage.at"
  }
},
{
  "type": "way",
  "id": 234503937,
  "center": {
    "lat": 47.7316009,
    "lon": 13.4296825
  },
  "nodes": [
    2427472611,
    2427472610,
    2427472608,
    2427472605,
    2427472606,
    2427472611
  ],
  "tags": {
    "landuse": "cemetery",
    "religion": "christian"
  }
},
{
  "type": "way",
  "id": 235196929,
  "center": {
    "lat": 47.2418413,
    "lon": 13.1060853
  },
  "nodes": [
    2432715068,
    2432715070,
    2432715079,
    2432715087,
    2432715115,
    2432715112,
    2432715104,
    2432715106,
    2432715102,
    6055347711,
    2432715099,
    6055347712,
    2432715094,
    2432715062,
    2432715045,
    2432715039,
    6056841603,
    6056841602,
    2432715007,
    2432715015,
    2432715031,
    2432715035,
    2432715059,
    2432715068
  ],
  "tags": {
    "denomination": "roman_catholic",
    "landuse": "cemetery",
    "name": "Friedhof Dorfgastein",
    "religion": "christian",
    "wikidata": "Q37910377"
  }
},
{
  "type": "way",
  "id": 238247828,
  "center": {
    "lat": 47.0895383,
    "lon": 13.1150826
  },
  "nodes": [
    2460901317,
    2460901310,
    6179046660,
    2460901316,
    2460901311,
    2460901318,
    6179046661,
    6179046662,
    2460901319,
    2460901317
  ],
  "tags": {
    "amenity": "grave_yard",
    "wikidata": "Q131749654"
  }
},
{
  "type": "way",
  "id": 243084621,
  "center": {
    "lat": 47.8678757,
    "lon": 13.4325068
  },
  "nodes": [
    2505214335,
    2505214338,
    2505214337,
    2505214339,
    2505214336,
    2505214334,
    2505214331,
    2505214330,
    2505214335
  ],
  "tags": {
    "landuse": "cemetery",
    "religion": "christian"
  }
},
{
  "type": "way",
  "id": 243261388,
  "center": {
    "lat": 47.9635471,
    "lon": 13.0099708
  },
  "nodes": [
    2506814108,
    2506814106,
    2506814105,
    2506814103,
    2506814104,
    2506814110,
    2506814112,
    2506814111,
    2506814108
  ],
  "tags": {
    "landuse": "cemetery",
    "wikidata": "Q128503800"
  }
},
{
  "type": "way",
  "id": 243314611,
  "center": {
    "lat": 47.9154335,
    "lon": 13.5389844
  },
  "nodes": [
    2507404710,
    2507404714,
    2507404706,
    2507404702,
    2507404711,
    2507404708,
    886574977,
    2507404707,
    2507404709,
    2507404704,
    2507404700,
    886574777,
    886575346,
    2507404691,
    2507404692,
    2507404710
  ],
  "tags": {
    "amenity": "grave_yard",
    "denomination": "lutheran",
    "religion": "christian",
    "source": "geoimage.at"
  }
},
{
  "type": "way",
  "id": 243314634,
  "center": {
    "lat": 47.9165316,
    "lon": 13.5393850
  },
  "nodes": [
    2507404750,
    2507404752,
    2507404749,
    2565345358,
    2507404751,
    2507404741,
    2507404734,
    2507404750
  ],
  "tags": {
    "amenity": "grave_yard",
    "denomination": "catholic",
    "religion": "christian",
    "source": "geoimage.at"
  }
},
{
  "type": "way",
  "id": 244945273,
  "center": {
    "lat": 47.6250415,
    "lon": 13.1436391
  },
  "nodes": [
    336340439,
    336340441,
    336340443,
    2522147395,
    2522147268,
    2522147379,
    2522147276,
    2522147292,
    2522147335,
    2522147388,
    336340451,
    1825274219,
    1825274162,
    1825274225,
    1825274252,
    1825274175,
    3533149243,
    336340453,
    336340455,
    1825274163,
    1825274197,
    1825282007,
    1825281895,
    1825282017,
    336340457,
    336340458,
    336340439
  ],
  "tags": {
    "amenity": "grave_yard",
    "source": "Geoimage.at"
  }
},
{
  "type": "way",
  "id": 245037218,
  "center": {
    "lat": 47.6627192,
    "lon": 13.1306303
  },
  "nodes": [
    2017906462,
    2522987089,
    2522987410,
    2017906537,
    2017906509,
    2017906525,
    2017906463,
    2017906462
  ],
  "tags": {
    "landuse": "cemetery",
    "wikidata": "Q128597046"
  }
},
{
  "type": "way",
  "id": 245865949,
  "center": {
    "lat": 47.7748194,
    "lon": 13.0455858
  },
  "nodes": [
    2006461335,
    2006461340,
    2006461339,
    2006461403,
    2006461388,
    708206198,
    2006461460,
    1813610786,
    1813610784,
    2006461328,
    2006461335
  ],
  "tags": {
    "landuse": "cemetery",
    "name": "Gruppe 101"
  }
},
{
  "type": "way",
  "id": 245865950,
  "center": {
    "lat": 47.7749259,
    "lon": 13.0452038
  },
  "nodes": [
    2006461418,
    1813610788,
    4693875600,
    4693875601,
    4693875602,
    708206179,
    708206198,
    2006461388,
    2006461373,
    2006461343,
    2006461361,
    2006461337,
    2006461418
  ],
  "tags": {
    "landuse": "cemetery",
    "name": "Gruppe 102"
  }
},
{
  "type": "way",
  "id": 245866005,
  "center": {
    "lat": 47.7756127,
    "lon": 13.0449388
  },
  "nodes": [
    708206793,
    708206392,
    2529702516,
    708206814,
    708206809,
    708206831,
    708206698,
    708206793
  ],
  "tags": {
    "landuse": "cemetery",
    "name": "Gruppe 92"
  }
},
{
  "type": "way",
  "id": 247328670,
  "center": {
    "lat": 47.9572405,
    "lon": 13.1984073
  },
  "nodes": [
    2542320757,
    2542320760,
    2542320763,
    2542320764,
    2542320725,
    2542320722,
    2542320699,
    2542320690,
    2542320683,
    2542320671,
    2542320697,
    2542320693,
    2542320688,
    2542320680,
    2542320676,
    2542320674,
    2542320715,
    2542320709,
    2542320706,
    2542320733,
    2542320739,
    2542320757
  ],
  "tags": {
    "amenity": "grave_yard",
    "wikidata": "Q128693603"
  }
},
{
  "type": "way",
  "id": 248252431,
  "center": {
    "lat": 47.8807220,
    "lon": 13.0132123
  },
  "nodes": [
    2550685582,
    2550685579,
    2550685574,
    2550685562,
    2550685569,
    2550685567,
    2550685572,
    2550685584,
    2550685587,
    2550685591,
    2550685582
  ],
  "tags": {
    "denomination": "roman_catholic",
    "landuse": "cemetery",
    "name": "Friedhof Anthering",
    "religion": "christian",
    "wikidata": "Q127691817"
  }
},
{
  "type": "way",
  "id": 250804986,
  "center": {
    "lat": 47.7344943,
    "lon": 13.0514161
  },
  "nodes": [
    2571702158,
    297501340,
    2571704794,
    2571704792,
    2571702134,
    2571702138,
    2571702142,
    3674041826,
    2571702155,
    3674042425,
    2571702146,
    2571702148,
    2571702158
  ],
  "tags": {
    "amenity": "grave_yard",
    "historic": "memorial",
    "name": "Lagerfriedhof Grödig"
  }
},
{
  "type": "way",
  "id": 250804987,
  "center": {
    "lat": 47.7342357,
    "lon": 13.0509120
  },
  "nodes": [
    2571702134,
    2571704792,
    2571704794,
    297501340,
    2571702102,
    2571702131,
    2571702112,
    2571702134
  ],
  "tags": {
    "amenity": "grave_yard",
    "historic": "memorial",
    "name": "Lagerfriedhof Grödig"
  }
},
{
  "type": "way",
  "id": 252005941,
  "center": {
    "lat": 47.5895893,
    "lon": 13.2134154
  },
  "nodes": [
    2581321385,
    2581321498,
    2581321536,
    2581321446,
    2581321525,
    2581321402,
    2581321329,
    1061545695,
    2581321385
  ],
  "tags": {
    "amenity": "grave_yard",
    "denomination": "catholic",
    "name": "Friedhof Scheffau",
    "religion": "christian"
  }
},
{
  "type": "way",
  "id": 252522955,
  "center": {
    "lat": 47.2486681,
    "lon": 13.5565442
  },
  "nodes": [
    2585525064,
    5187054346,
    2585525065,
    2585525066,
    2585525067,
    2585525064
  ],
  "tags": {
    "alt_name": "Friedhof der Namenlosen",
    "area": "yes",
    "barrier": "wall",
    "landuse": "cemetery",
    "name": "Tauernfriedhof",
    "wikidata": "Q22694285"
  }
},
{
  "type": "way",
  "id": 253632157,
  "center": {
    "lat": 47.1747135,
    "lon": 13.2333229
  },
  "nodes": [
    2595328700,
    2595328716,
    2595328763,
    2595328926,
    2595328942,
    2595329173,
    2595329684,
    2595329825,
    2595330135,
    2595330232,
    2595330399,
    2595330806,
    2595330979,
    2595331014,
    2595330773,
    2595330341,
    2595329994,
    2595329868,
    2595329858,
    2595329631,
    2595329135,
    2595328948,
    2595328934,
    2595328717,
    2595328700
  ],
  "tags": {
    "amenity": "grave_yard",
    "denomination": "catholic",
    "name": "Friedhof Hüttschlag",
    "religion": "christian",
    "source": "geoimage.at",
    "wikidata": "Q127690081"
  }
},
{
  "type": "way",
  "id": 254923268,
  "center": {
    "lat": 47.8945542,
    "lon": 13.7166010
  },
  "nodes": [
    2607064110,
    2607064111,
    2607064112,
    2607064120,
    2607064113,
    2607064114,
    2607064115,
    2607064116,
    2607064117,
    2607064118,
    2607064119,
    2607064110
  ],
  "tags": {
    "amenity": "grave_yard",
    "name": "Urnenfriedhof"
  }
},
{
  "type": "way",
  "id": 255423761,
  "center": {
    "lat": 47.2364302,
    "lon": 13.2018169
  },
  "nodes": [
    2611118365,
    2611118380,
    2611118415,
    2611118422,
    2611118424,
    2611118520,
    2611118525,
    2611118599,
    2611118609,
    2611118618,
    2611118624,
    2611118623,
    2611118606,
    3643099130,
    2611118597,
    2611118585,
    2611118561,
    2611118551,
    2611118548,
    2611118545,
    12701687836,
    2611118535,
    2611118533,
    2611118524,
    2611118516,
    2611118511,
    2611118429,
    2611118425,
    2611118426,
    2611118430,
    2611118495,
    2611118509,
    2611118521,
    2611118523,
    2611118370,
    2611118356,
    2611118365
  ],
  "tags": {
    "amenity": "grave_yard",
    "denomination": "catholic",
    "religion": "christian",
    "source": "geoimag.at"
  }
},
{
  "type": "way",
  "id": 256353700,
  "center": {
    "lat": 47.9361425,
    "lon": 13.8452364
  },
  "nodes": [
    2620151394,
    2734335926,
    2620151404,
    2734335989,
    2620151398,
    2620151368,
    2620151365,
    2620151394
  ],
  "tags": {
    "landuse": "cemetery",
    "source": "geoimage.at"
  }
},
{
  "type": "way",
  "id": 260507118,
  "center": {
    "lat": 47.1137621,
    "lon": 13.7405961
  },
  "nodes": [
    2660057958,
    2660057941,
    2660057921,
    2660057944,
    2660057958
  ],
  "tags": {
    "denomination": "catholic",
    "landuse": "cemetery",
    "name": "Friedhof",
    "religion": "christian"
  }
},
{
  "type": "way",
  "id": 261221301,
  "center": {
    "lat": 47.8542965,
    "lon": 13.3601620
  },
  "nodes": [
    2668453915,
    2668453918,
    2668453920,
    2668453909,
    2668453912,
    2668453923,
    2668453915
  ],
  "tags": {
    "landuse": "cemetery",
    "name": "Urnenfriedhof"
  }
},
{
  "type": "way",
  "id": 263543528,
  "center": {
    "lat": 47.6135402,
    "lon": 13.7912841
  },
  "nodes": [
    10711815623,
    4597004370,
    10711815622,
    10711815621,
    10711815623
  ],
  "tags": {
    "heritage": "2",
    "heritage:operator": "bda",
    "historic": "cemetery",
    "landuse": "cemetery",
    "name": "Friedhof israelitisch",
    "ref:at:bda": "102748",
    "religion": "jewish",
    "wikidata": "Q110394454",
    "wikipedia": "de:Jüdischer Friedhof Bad Aussee"
  }
},
{
  "type": "way",
  "id": 290284850,
  "center": {
    "lat": 47.1892661,
    "lon": 13.9642384
  },
  "nodes": [
    2938423484,
    4912923020,
    4912923018,
    4912923016,
    2938423442,
    2454988866,
    2939238509,
    2939238501,
    2939238503,
    2938423499,
    4912923015,
    4912923019,
    4912923017,
    2938423484
  ],
  "tags": {
    "denomination": "catholic",
    "landuse": "cemetery",
    "name": "Friedhof Krakauhintermühlen",
    "religion": "christian"
  }
},
{
  "type": "way",
  "id": 293210921,
  "center": {
    "lat": 47.4648014,
    "lon": 13.3807113
  },
  "nodes": [
    2967848099,
    2967848100,
    2967848101,
    2967848102,
    2967848103,
    2967848104,
    2967848099
  ],
  "tags": {
    "amenity": "grave_yard"
  }
},
{
  "type": "way",
  "id": 299102940,
  "center": {
    "lat": 47.9016996,
    "lon": 13.3191552
  },
  "nodes": [
    3030421146,
    3030421148,
    4755276401,
    3030421150,
    3030421149,
    3030421147,
    3030421144,
    3030421139,
    3030421135,
    3030421133,
    3030421026,
    3030421023,
    3030421021,
    3030421020,
    3030421022,
    11851352317,
    3030421024,
    3030421029,
    1158050423,
    4134985118,
    3030421137,
    3030421141,
    1158049110,
    3030421146
  ],
  "tags": {
    "denomination": "catholic",
    "landuse": "cemetery",
    "religion": "christian"
  }
},
{
  "type": "way",
  "id": 309960623,
  "center": {
    "lat": 47.4112817,
    "lon": 13.9655051
  },
  "nodes": [
    3153053444,
    8504559582,
    8504559583,
    8504559584,
    3153053444
  ],
  "tags": {
    "landuse": "cemetery"
  }
},
{
  "type": "way",
  "id": 313071880,
  "center": {
    "lat": 47.0977172,
    "lon": 13.4983423
  },
  "nodes": [
    3189946836,
    5743750548,
    3189946588,
    3189947097,
    3189946843,
    3189946562,
    5743750546,
    5743750547,
    3189946889,
    4118166353,
    3189945717,
    3189945690,
    3189947168,
    3189946646,
    3189946803,
    3189946643,
    3189947121,
    5743750577,
    5743750578,
    3189946899,
    3189946810,
    3189947165,
    5743750575,
    3189946836
  ],
  "tags": {
    "amenity": "grave_yard"
  }
},
{
  "type": "way",
  "id": 317180380,
  "center": {
    "lat": 47.4339250,
    "lon": 13.5201588
  },
  "nodes": [
    3234207742,
    3234207743,
    3234207744,
    3234207745,
    3234207746,
    3234207747,
    3234207748,
    3234207749,
    3234207750,
    3234207751,
    3234207752,
    6044465936,
    3234207753,
    3234207754,
    3234207755,
    3234207756,
    3234207757,
    3234207758,
    3234207759,
    3234207760,
    3234209361,
    3234209362,
    3234209363,
    3233905679,
    3233905680,
    3233905681,
    3234209364,
    3234209365,
    3234209366,
    3234207742
  ],
  "tags": {
    "amenity": "grave_yard",
    "barrier": "wall",
    "religion": "christian"
  }
},
{
  "type": "way",
  "id": 326421719,
  "center": {
    "lat": 47.9958607,
    "lon": 13.0612344
  },
  "nodes": [
    3330611568,
    3330676197,
    3330611557,
    3332747325,
    3330611551,
    3330611528,
    3330611519,
    3330611520,
    3330611522,
    3330611527,
    3330611533,
    3330611538,
    3330611544,
    3338577403,
    1336883998,
    3332747327,
    7641880220,
    3330611569,
    1336883996,
    3330611577,
    3332747332,
    3330611576,
    3330611566,
    3330611568
  ],
  "tags": {
    "landuse": "cemetery"
  }
},
{
  "type": "way",
  "id": 332731715,
  "center": {
    "lat": 47.4092755,
    "lon": 13.7675954
  },
  "nodes": [
    3398675324,
    9153261553,
    3398675331,
    3398675330,
    2164188449,
    5229127889,
    5229127890,
    5229127887,
    5229127888,
    5229127884,
    5229127883,
    5229127882,
    5229128892,
    2164188447,
    2164188446,
    5229128891,
    5229128890,
    5229127885,
    5229127886,
    2164188448,
    9153261582,
    9153261580,
    9153261581,
    9153261583,
    3398675329,
    9153261647,
    9153261646,
    9153261645,
    9153261648,
    3398675320,
    3398675318,
    1044675932,
    1044675616,
    9153261561,
    9153261560,
    3398675322,
    3398675324
  ],
  "tags": {
    "landuse": "cemetery",
    "religion": "christian"
  }
},
{
  "type": "way",
  "id": 337043515,
  "center": {
    "lat": 47.0231000,
    "lon": 13.6146167
  },
  "nodes": [
    3441407387,
    3441408095,
    3441407388,
    3441407391,
    3441407390,
    3441408107,
    472642372,
    3441408096,
    3441408100,
    3441408104,
    3441408102,
    3441407383,
    3441407386,
    3441408099,
    3441408101,
    3441407385,
    3441408094,
    3523714980,
    3441408097,
    3441407387
  ],
  "tags": {
    "amenity": "grave_yard",
    "barrier": "wall",
    "historic": "heritage"
  }
},
{
  "type": "way",
  "id": 345726313,
  "center": {
    "lat": 47.0278476,
    "lon": 13.5955953
  },
  "nodes": [
    3523716031,
    3523716035,
    3523716037,
    3523716036,
    3523716032,
    3523716033,
    3523716030,
    3523716029,
    3523716027,
    472640030,
    472638852,
    3523716010,
    3523716009,
    3523716008,
    3523716007,
    3523716013,
    3523716018,
    3523716011,
    3523716022,
    3523716025,
    3826633955,
    3826634093,
    3523716031
  ],
  "tags": {
    "amenity": "grave_yard",
    "barrier": "wall",
    "historic": "heritage"
  }
},
{
  "type": "way",
  "id": 367417277,
  "center": {
    "lat": 47.4877161,
    "lon": 13.9812368
  },
  "nodes": [
    3713421011,
    3713420997,
    3713421014,
    3713421137,
    3713420963,
    8117089824,
    3713421011
  ],
  "tags": {
    "landuse": "cemetery",
    "religion": "christian"
  }
},
{
  "type": "way",
  "id": 369838088,
  "center": {
    "lat": 47.4398488,
    "lon": 13.9019229
  },
  "nodes": [
    3735853497,
    3735853498,
    3735853491,
    3735853479,
    3735853451,
    3735853207,
    3735853221,
    3735853427,
    3735853434,
    3735853452,
    3735853460,
    3735853481,
    3735853490,
    3735853497
  ],
  "tags": {
    "landuse": "cemetery",
    "name": "Evang. Friedhof",
    "religion": "christian",
    "source": "basemap.at Ortho, survey"
  }
},
{
  "type": "way",
  "id": 380251370,
  "center": {
    "lat": 47.4339522,
    "lon": 13.2241320
  },
  "nodes": [
    3835950570,
    3835950563,
    3835950349,
    10873208600,
    10873208601,
    10873208603,
    10873208602,
    3835950557,
    3835950562,
    3835950570
  ],
  "tags": {
    "amenity": "grave_yard",
    "heritage": "2",
    "historic": "heritage",
    "religion": "christian",
    "wikidata": "Q64692187"
  }
},
{
  "type": "way",
  "id": 380609254,
  "center": {
    "lat": 47.8806055,
    "lon": 13.0121102
  },
  "nodes": [
    3839282659,
    3839282660,
    3839282661,
    3839282662,
    3839282663,
    2771189712,
    2771189702,
    3839282664,
    3839282665,
    11052340604,
    3839282666,
    1744590637,
    1744588911,
    3839282667,
    3839282668,
    3839282669,
    3839282670,
    3839282671,
    3839282672,
    3839282673,
    3839282674,
    3839282675,
    3839282676,
    3839282659
  ],
  "tags": {
    "amenity": "grave_yard",
    "denomination": "roman_catholic",
    "religion": "christian"
  }
},
{
  "type": "way",
  "id": 384657265,
  "center": {
    "lat": 47.3114091,
    "lon": 13.0200066
  },
  "nodes": [
    3186431523,
    3186431520,
    3880021666,
    3880021679,
    3880021667,
    3880021661,
    3880021643,
    3880021635,
    3880021627,
    3880021624,
    3880021626,
    3880021634,
    3880021639,
    3880021650,
    3186431523
  ],
  "tags": {
    "amenity": "grave_yard",
    "barrier": "wall",
    "height": "1.5"
  }
},
{
  "type": "way",
  "id": 386751143,
  "center": {
    "lat": 47.9529953,
    "lon": 13.1520906
  },
  "nodes": [
    3901005868,
    3901005870,
    3901005866,
    3901005865,
    3901005868
  ],
  "tags": {
    "landuse": "cemetery"
  }
},
{
  "type": "way",
  "id": 390915647,
  "center": {
    "lat": 47.4073676,
    "lon": 13.3947338
  },
  "nodes": [
    3940707864,
    3940707865,
    3940707866,
    3940707867,
    3940707868,
    5592548495,
    3940707869,
    3940707870,
    3940707871,
    3940707872,
    3940707873,
    5592548506,
    3940707864
  ],
  "tags": {
    "amenity": "grave_yard",
    "denomination": "catholic",
    "religion": "christian"
  }
},
{
  "type": "way",
  "id": 392959654,
  "center": {
    "lat": 47.8404298,
    "lon": 13.2536925
  },
  "nodes": [
    3961466443,
    3961466444,
    3961466440,
    3961466400,
    3961466376,
    3961466384,
    6911876689,
    4972670021,
    3961466438,
    3961466429,
    3961466424,
    3961466411,
    3961466404,
    3961466374,
    4972668619,
    3961466413,
    3961466443
  ],
  "tags": {
    "amenity": "grave_yard"
  }
},
{
  "type": "way",
  "id": 423856427,
  "center": {
    "lat": 47.1888061,
    "lon": 13.8061810
  },
  "nodes": [
    3009337026,
    4233764188,
    4233764189,
    4233764192,
    4233764193,
    4233764194,
    4233764190,
    4233764191,
    4233764187,
    4233764186,
    4233764185,
    3671850997,
    3671851279,
    3671851361,
    3671850985,
    3675425811,
    3675425689,
    3675425703,
    3675425756,
    3675425747,
    3675425795,
    3671850990,
    3671851343,
    4233764177,
    4233764178,
    3009337006,
    3009337026
  ],
  "tags": {
    "heritage": "2",
    "historic": "heritage",
    "landuse": "cemetery",
    "wikidata": "Q37911382"
  }
},
{
  "type": "way",
  "id": 450259507,
  "center": {
    "lat": 47.9248334,
    "lon": 13.7936016
  },
  "nodes": [
    4471817713,
    4471817712,
    4471817710,
    4471817707,
    4471817708,
    4471817709,
    4471817711,
    4471817713
  ],
  "tags": {
    "addr:postcode": "2410",
    "heritage": "2",
    "heritage:operator": "bda",
    "landuse": "cemetery",
    "name": "Jüdischer Friedhof",
    "ref:at:bda": "115079",
    "religion": "jewish",
    "start_date": "1923",
    "wikidata": "Q1716678",
    "wikipedia": "de:Jüdischer Friedhof Gmunden"
  }
},
{
  "type": "way",
  "id": 450852546,
  "center": {
    "lat": 47.1892811,
    "lon": 13.9648577
  },
  "nodes": [
    4477584491,
    4477584495,
    4477584375,
    4477584366,
    4477584491
  ],
  "tags": {
    "landuse": "cemetery",
    "religion": "christian"
  }
},
{
  "type": "way",
  "id": 477715390,
  "center": {
    "lat": 47.8388168,
    "lon": 13.0361329
  },
  "nodes": [
    3020993242,
    4710200356,
    4710200355,
    4710200354,
    4710200353,
    4710200352,
    247320431,
    6654777796,
    247320429,
    1731941381,
    7088420614,
    7088439084,
    7088420613,
    7088420612,
    1731941497,
    3020993336,
    1731941248,
    4710200357,
    1731941292,
    3020962439,
    3020993243,
    3020993242
  ],
  "tags": {
    "amenity": "grave_yard",
    "barrier": "fence",
    "fence_type": "wood",
    "name": "Paxnatura Naturbestattung",
    "note": "new 2016",
    "religion": "all",
    "website": "https://www.paxnatura.at/"
  }
},
{
  "type": "way",
  "id": 490367426,
  "center": {
    "lat": 47.9676463,
    "lon": 13.6053451
  },
  "nodes": [
    4825525217,
    324944438,
    324944439,
    324944440,
    4825525422,
    4825525421,
    4825525220,
    4825525216,
    324944441,
    324944433,
    5181882129,
    324944434,
    4825525215,
    4825525219,
    4825525218,
    4825525217
  ],
  "tags": {
    "landuse": "cemetery",
    "name": "Friedhof Lenzing",
    "source": "geoimage.at maxres"
  }
},
{
  "type": "way",
  "id": 525384014,
  "center": {
    "lat": 47.8157641,
    "lon": 13.1014419
  },
  "nodes": [
    1958095354,
    2404831188,
    2404831186,
    1499860296,
    336964405,
    1958095331,
    1958095334,
    1958095354
  ],
  "tags": {
    "denomination": "catholic",
    "landuse": "cemetery",
    "name": "Friedhof Guggenthal",
    "religion": "christian"
  }
},
{
  "type": "way",
  "id": 525384017,
  "center": {
    "lat": 47.8159086,
    "lon": 13.1016057
  },
  "nodes": [
    5111125096,
    5111125095,
    5111125094,
    5111125093,
    5111125096
  ],
  "tags": {
    "amenity": "grave_yard",
    "religion": "christian"
  }
},
{
  "type": "way",
  "id": 527199411,
  "center": {
    "lat": 47.8936351,
    "lon": 13.1276526
  },
  "nodes": [
    5125830427,
    5125830424,
    1446527261,
    7769463087,
    5125830426,
    5125830425,
    7772521519,
    7772521520,
    7772521522,
    2035590943,
    7772521517,
    2035590941,
    2035543639,
    2035543631,
    5125830427
  ],
  "tags": {
    "building": "yes",
    "cemetery": "grave"
  }
},
{
  "type": "way",
  "id": 533045688,
  "center": {
    "lat": 47.1749256,
    "lon": 13.7640926
  },
  "nodes": [
    3069383363,
    5171963497,
    5171963496,
    5171963495,
    5171963494,
    5171963493,
    3069383363
  ],
  "tags": {
    "amenity": "grave_yard"
  }
},
{
  "type": "way",
  "id": 535355658,
  "center": {
    "lat": 47.1464167,
    "lon": 13.7374678
  },
  "nodes": [
    1485046122,
    5189421408,
    1485046127,
    1485046060,
    5189421409,
    1485046140,
    5189421403,
    1485046080,
    5189421404,
    1485046138,
    1485046073,
    5189421405,
    1412483560,
    2420733331,
    1485046078,
    1485558972,
    1485558978,
    1485558993,
    1485046122
  ],
  "tags": {
    "landuse": "cemetery"
  }
},
{
  "type": "way",
  "id": 552404100,
  "center": {
    "lat": 47.8041494,
    "lon": 13.0159578
  },
  "nodes": [
    5333416395,
    1440162490,
    5333416397,
    5333416396,
    5333416395
  ],
  "tags": {
    "landuse": "cemetery",
    "name": "324"
  }
},
{
  "type": "way",
  "id": 552404101,
  "center": {
    "lat": 47.8041507,
    "lon": 13.0161355
  },
  "nodes": [
    1440162490,
    1440162492,
    5333416398,
    5333416397,
    1440162490
  ],
  "tags": {
    "landuse": "cemetery",
    "name": "305"
  }
},
{
  "type": "way",
  "id": 552404102,
  "center": {
    "lat": 47.8041545,
    "lon": 13.0164000
  },
  "nodes": [
    1440162492,
    5333416398,
    5333416399,
    5333416400,
    5333416401,
    1440162494,
    1440162496,
    1440162492
  ],
  "tags": {
    "landuse": "cemetery",
    "name": "304"
  }
},
{
  "type": "way",
  "id": 552404103,
  "center": {
    "lat": 47.8041429,
    "lon": 13.0166786
  },
  "nodes": [
    5333416401,
    1446563301,
    1440162468,
    1268698762,
    1109515751,
    1109514413,
    5333416399,
    5333416400,
    5333416401
  ],
  "tags": {
    "landuse": "cemetery",
    "name": "302"
  }
},
{
  "type": "way",
  "id": 552404104,
  "center": {
    "lat": 47.8042143,
    "lon": 13.0167545
  },
  "nodes": [
    1446563301,
    1446563302,
    1109514420,
    1109514502,
    1109514760,
    1109515799,
    1109514931,
    1109514833,
    1109514564,
    1109515244,
    1268698762,
    1440162468,
    1446563301
  ],
  "tags": {
    "landuse": "cemetery",
    "name": "301"
  }
},
{
  "type": "way",
  "id": 552404105,
  "center": {
    "lat": 47.8043580,
    "lon": 13.0161310
  },
  "nodes": [
    1440162490,
    5333416404,
    1446563329,
    1440162492,
    1440162490
  ],
  "tags": {
    "landuse": "cemetery",
    "name": "306"
  }
},