{
  "version": 0.6,
  "generator": "Overpass API 0.7.62.8 e802775f",
  "osm3s": {
    "timestamp_osm_base": "2025-11-02T22:54:20Z",
    "copyright": "The data included in this document is from www.openstreetmap.org. The data is made available under ODbL."
  },
  "elements": [

{
  "type": "way",
  "id": 13781404,
  "center": {
    "lat": 50.8553557,
    "lon": 12.4730288
  },
  "nodes": [
    2838280411,
    2838280410,
    2838280409,
    128147279,
    132078570,
    132078558,
    128147280,
    128147282,
    132078580,
    2838280421,
    132097247,
    128147284,
    2833195306,
    132078590,
    2254759118,
    2833195311,
    132094627,
    298791037,
    128147276,
    2838226199,
    2838280417,
    2838226197,
    2838226195,
    2838280411
  ],
  "tags": {
    "landuse": "cemetery",
    "name": "Friedhof Meerane"
  }
},
{
  "type": "way",
  "id": 14482293,
  "center": {
    "lat": 50.7284816,
    "lon": 12.4815731
  },
  "nodes": [
    142221637,
    142221670,
    9411981722,
    10316212697,
    2282364842,
    2282364841,
    142221701,
    9412829878,
    9412829882,
    2151947093,
    9427592488,
    2151932918,
    2151947090,
    142221716,
    142221724,
    142221637
  ],
  "tags": {
    "check_date:opening_hours": "2021-03-30",
    "landuse": "cemetery",
    "name": "Hauptfriedhof",
    "opening_hours": "May-Sep 06:00-21:00, Oct-Apr 07:00-18:00"
  }
},
{
  "type": "way",
  "id": 18631370,
  "center": {
    "lat": 50.8615640,
    "lon": 12.0748968
  },
  "nodes": [
    192215099,
    507103081,
    192215108,
    1113464710,
    1113464922,
    192215113,
    192215115,
    1113465119,
    192215119,
    8841354523,
    192215099
  ],
  "tags": {
    "barrier": "wall",
    "landuse": "cemetery",
    "name": "Südfriedhof",
    "source": "landsat,knowledge",
    "wikidata": "Q105026524"
  }
},
{
  "type": "way",
  "id": 19368946,
  "center": {
    "lat": 50.8731322,
    "lon": 12.5990397
  },
  "nodes": [
    201373736,
    2005117677,
    2005117675,
    1694399856,
    2005117667,
    10936380566,
    10936380565,
    10936380564,
    201373750,
    683377911,
    201373760,
    201373766,
    201373772,
    10936380567,
    1694399858,
    201373736
  ],
  "tags": {
    "landuse": "cemetery",
    "name": "St.Bartholomäus",
    "note": "FIXME: grenzen ungenau"
  }
},
{
  "type": "way",
  "id": 21383761,
  "center": {
    "lat": 50.8004311,
    "lon": 12.9162199
  },
  "nodes": [
    229982712,
    229982713,
    229982715,
    229982716,
    229982717,
    229982719,
    6724922135,
    6724922134,
    3057533415,
    6724922132,
    600341324,
    600341323,
    229982712
  ],
  "tags": {
    "landuse": "cemetery"
  }
},
{
  "type": "way",
  "id": 23116961,
  "center": {
    "lat": 50.8840093,
    "lon": 12.8036682
  },
  "nodes": [
    249570509,
    5511785142,
    249570513,
    1444782282,
    1444782274,
    7467423589,
    249570512,
    249570511,
    249570510,
    249570509
  ],
  "tags": {
    "landuse": "cemetery"
  }
},
{
  "type": "way",
  "id": 23859530,
  "center": {
    "lat": 50.5361861,
    "lon": 12.7803301
  },
  "nodes": [
    6948471321,
    6948471322,
    6948471323,
    6948471324,
    6948471325,
    6948471326,
    6948471327,
    6948471328,
    6948471329,
    6948471330,
    2414368348,
    2414368349,
    6948471321
  ],
  "tags": {
    "landuse": "cemetery",
    "name": "Georgenfriedhof"
  }
},
{
  "type": "way",
  "id": 23942009,
  "center": {
    "lat": 50.9629109,
    "lon": 12.7704756
  },
  "nodes": [
    259514036,
    7549956123,
    259514043,
    259514040,
    259514038,
    259514036
  ],
  "tags": {
    "amenity": "grave_yard"
  }
},
{
  "type": "way",
  "id": 24063832,
  "center": {
    "lat": 50.5059322,
    "lon": 12.1452286
  },
  "nodes": [
    261052287,
    1201896656,
    2068163110,
    261052288,
    2068163108,
    261052289,
    8406810656,
    8406810657,
    8406810661,
    8406810658,
    8406810659,
    8406810660,
    6489212571,
    8406810662,
    261052290,
    1894390376,
    261052291,
    261052292,
    2441245694,
    261052293,
    1201896659,
    261052294,
    261052287
  ],
  "tags": {
    "landuse": "cemetery",
    "name": "Friedhof I",
    "wikidata": "Q15110978",
    "wikipedia": "de:Friedhof I Plauen"
  }
},
{
  "type": "way",
  "id": 24066316,
  "center": {
    "lat": 50.2029901,
    "lon": 12.3050894
  },
  "nodes": [
    261084226,
    261084227,
    261084228,
    261084230,
    261084226
  ],
  "tags": {
    "amenity": "grave_yard",
    "name": "Hohendorfer Friedhof"
  }
},
{
  "type": "way",
  "id": 24073496,
  "center": {
    "lat": 50.4884198,
    "lon": 12.1713769
  },
  "nodes": [
    261130157,
    261130158,
    1238560249,
    2312873649,
    1139594048,
    1280450474,
    2320540069,
    307106295,
    2320540059,
    261130160,
    2320552446,
    2320529946,
    2320529021,
    1280450316,
    261130161,
    919526322,
    307106202,
    919526321,
    5462601986,
    261130162,
    2109034314,
    919524731,
    261130163,
    2313298831,
    919524744,
    919524739,
    1238569389,
    919524701,
    919524734,
    919524733,
    2312968538,
    2312887987,
    261130157
  ],
  "tags": {
    "landuse": "cemetery",
    "name": "Hauptfriedhof"
  }
},
{
  "type": "way",
  "id": 24381652,
  "center": {
    "lat": 50.1345649,
    "lon": 12.3443371
  },
  "nodes": [
    264553226,
    264553229,
    264553228,
    264553227,
    13071229772,
    264553226
  ],
  "tags": {
    "barrier": "wall",
    "landuse": "cemetery",
    "name": "Hřbitov Františkovy Lázně"
  }
},
{
  "type": "way",
  "id": 24381653,
  "center": {
    "lat": 50.1341634,
    "lon": 12.3427099
  },
  "nodes": [
    264553230,
    13071229771,
    13071229767,
    264553231,
    264553232,
    264553233,
    264553230
  ],
  "tags": {
    "barrier": "wall",
    "landuse": "cemetery",
    "name": "Hřbitov Františkovy Lázně"
  }
},
{
  "type": "way",
  "id": 24499959,
  "center": {
    "lat": 50.7533845,
    "lon": 12.6281162
  },
  "nodes": [
    3585748767,
    5876708598,
    258987096,
    3598915698,
    262107790,
    262107789,
    3196721325,
    266405022,
    266405023,
    266405024,
    266405025,
    7620520858,
    7620520859,
    3196721326,
    3585748767
  ],
  "tags": {
    "landuse": "cemetery"
  }
},
{
  "type": "way",
  "id": 24739117,
  "center": {
    "lat": 50.5414421,
    "lon": 12.7991190
  },
  "nodes": [
    268867267,
    268867281,
    268867268,
    268867269,
    268867270,
    268867271,
    5123199014,
    258801703,
    268865627,
    268867272,
    268865628,
    268865629,
    268867267
  ],
  "tags": {
    "landuse": "cemetery"
  }
},
{
  "type": "way",
  "id": 24846050,
  "center": {
    "lat": 50.5530770,
    "lon": 12.7552437
  },
  "nodes": [
    270056437,
    270056438,
    1037961080,
    269949109,
    2446445205,
    2446445198,
    270056436,
    269949110,
    270056437
  ],
  "tags": {
    "landuse": "cemetery"
  }
},
{
  "type": "way",
  "id": 24926584,
  "center": {
    "lat": 50.9448715,
    "lon": 12.6538426
  },
  "nodes": [
    270877015,
    270877020,
    270877127,
    5370347268,
    5370347267,
    270877019,
    270877018,
    5370347269,
    270877017,
    270877031,
    270877016,
    270877015
  ],
  "tags": {
    "landuse": "cemetery"
  }
},
{
  "type": "way",
  "id": 25193277,
  "center": {
    "lat": 50.8832952,
    "lon": 12.1049119
  },
  "nodes": [
    274641726,
    5575502214,
    367759767,
    1111803413,
    274641728,
    5575502215,
    1111803397,
    3359230414,
    12090614802,
    12090614803,
    5575502216,
    1259509741,
    9020324699,
    9020324700,
    1111803427,
    1129883431,
    3360105241,
    1111803424,
    3360105239,
    7124915414,
    7125001021,
    274641730,
    7124915412,
    7124915411,
    1111803414,
    1111803410,
    367759754,
    367759760,
    1938758025,
    274641732,
    10266075636,
    274641726
  ],
  "tags": {
    "landuse": "cemetery",
    "name": "Ostfriedhof",
    "wikidata": "Q106189182"
  }
},
{
  "type": "way",
  "id": 25256918,
  "center": {
    "lat": 50.6785359,
    "lon": 12.5232845
  },
  "nodes": [
    5224391007,
    2439121492,
    3002368451,
    3002368450,
    1006192690,
    1006191143,
    2439121498,
    3286755462,
    3286755561,
    3286755463,
    3286755461,
    3286755661,
    5224391007
  ],
  "tags": {
    "landuse": "cemetery",
    "name": "Lutherfriedhof"
  }
},
{
  "type": "way",
  "id": 25317249,
  "center": {
    "lat": 50.6658597,
    "lon": 12.2024314
  },
  "nodes": [
    275812370,
    12248121564,
    12248121565,
    12248121566,
    12248121553,
    275812371,
    12248121551,
    12248121552,
    12248121550,
    275812373,
    275812374,
    12248088513,
    12248150845,
    12248086376,
    12248121567,
    1200516247,
    12248121549,
    2553236591,
    12248086407,
    12248086406,
    2553236593,
    275812376,
    6003562090,
    12248121554,
    12248121555,
    6003562089,
    12248121556,
    6003562088,
    12248121573,
    12248121560,
    12248121558,
    12248121557,
    12248121559,
    6003562086,
    6003562102,
    6003562085,
    12248121561,
    6003561784,
    12248121548,
    6003561783,
    12248121562,
    6003561782,
    12248121563,
    275812370
  ],
  "tags": {
    "landuse": "cemetery",
    "name": "Neuer Friedhof"
  }
},
{
  "type": "way",
  "id": 25427585,
  "center": {
    "lat": 50.6623857,
    "lon": 12.1963478
  },
  "nodes": [
    277117154,
    277117155,
    5747721969,
    277117157,
    5747721979,
    5747721978,
    5747721982,
    5747721983,
    5747721984,
    5747721985,
    5747721987,
    5747721988,
    5747721998,
    277117163,
    277117165,
    5747721992,
    277117166,
    5747721994,
    277117167,
    5747721993,
    277117168,
    277117169,
    277117170,
    277117171,
    277117172,
    277117154
  ],
  "tags": {
    "landuse": "cemetery",
    "name": "Alter Friedhof",
    "wikidata": "Q113045381"
  }
},
{
  "type": "way",
  "id": 25522289,
  "center": {
    "lat": 50.7747859,
    "lon": 12.6617968
  },
  "nodes": [
    278131595,
    278131596,
    278131597,
    278131598,
    278131599,
    278131600,
    1720208220,
    1720208216,
    8084964482,
    1720208218,
    278131601,
    1720208245,
    1720208249,
    1720208253,
    1720208255,
    278131595
  ],
  "tags": {
    "denomination": "protestant",
    "landuse": "cemetery",
    "name": "Friedhof Bernsdorf",
    "religion": "christian"
  }
},
{
  "type": "way",
  "id": 25531609,
  "center": {
    "lat": 50.7531527,
    "lon": 12.6378250
  },
  "nodes": [
    278255360,
    5891504650,
    278255362,
    460875892,
    460875406,
    460875400,
    278255364,
    278255366,
    278255367,
    460875392,
    5891504625,
    460875371,
    460875365,
    460875361,
    460875436,
    278255319,
    278255360
  ],
  "tags": {
    "denomination": "protestant",
    "landuse": "cemetery",
    "name": "Friedhof St.Laurentius",
    "religion": "christian"
  }
},
{
  "type": "way",
  "id": 25704830,
  "center": {
    "lat": 50.0086199,
    "lon": 12.1005441
  },
  "nodes": [
    280252563,
    2418727166,
    280252566,
    280252570,
    2418955723,
    280252573,
    280252576,
    280252579,
    280252582,
    280252586,
    280252589,
    280252592,
    280252595,
    280252598,
    280252602,
    280252608,
    280252611,
    280252615,
    280252618,
    280252623,
    280252626,
    280252629,
    2418727395,
    280252563
  ],
  "tags": {
    "landuse": "cemetery"
  }
},
{
  "type": "way",
  "id": 25721135,
  "center": {
    "lat": 50.6713370,
    "lon": 12.1667116
  },
  "nodes": [
    280465116,
    280465117,
    11668663314,
    280465119,
    1342967572,
    123669260,
    11668663313,
    280465116
  ],
  "tags": {
    "barrier": "wall",
    "landuse": "cemetery",
    "name": "Friedhof Gommla"
  }
},
{
  "type": "way",
  "id": 25817492,
  "center": {
    "lat": 50.7886679,
    "lon": 12.6120595
  },
  "nodes": [
    281596834,
    281596835,
    281596837,
    281596839,
    1710290614,
    281596841,
    281596843,
    3636938970,
    3636938971,
    3636938974,
    281596844,
    281596846,
    281596848,
    281596850,
    281596851,
    12463703672,
    12463703673,
    12463703674,
    281596853,
    281596856,
    281596858,
    3636938959,
    3636938950,
    281596859,
    3636938944,
    3636938943,
    1710290592,
    1710290595,
    1710290594,
    1710290575,
    1710290572,
    281596834
  ],
  "tags": {
    "denomination": "protestant",
    "landuse": "cemetery",
    "name": "Friedhof St. Egidien",
    "religion": "christian"
  }
},
{
  "type": "way",
  "id": 25932189,
  "center": {
    "lat": 50.8084131,
    "lon": 12.6400208
  },
  "nodes": [
    282872080,
    282872082,
    3498051999,
    282872084,
    3498052000,
    282872085,
    3498051998,
    282872087,
    282872089,
    282872080
  ],
  "tags": {
    "denomination": "protestant",
    "landuse": "cemetery",
    "name": "Friedhof kuhschnappel",
    "religion": "christian"
  }
},
{
  "type": "way",
  "id": 25968985,
  "center": {
    "lat": 50.8364293,
    "lon": 12.7645725
  },
  "nodes": [
    283303826,
    4681413549,
    283303827,
    283303828,
    283303829,
    283303830,
    283303831,
    283303826
  ],
  "tags": {
    "denomination": "protestant",
    "landuse": "cemetery",
    "name": "Friedhof Pleißa",
    "religion": "christian"
  }
},
{
  "type": "way",
  "id": 26144150,
  "center": {
    "lat": 50.7288056,
    "lon": 12.5813894
  },
  "nodes": [
    286308472,
    7620585713,
    7620585716,
    286308532,
    599693081,
    7620573658,
    7620573659,
    286308474,
    2889227074,
    274615879,
    7620585722,
    5335607945,
    599693084,
    286308533,
    286308476,
    7620585719,
    599693094,
    286308534,
    2889226556,
    2889227069,
    286308472
  ],
  "tags": {
    "landuse": "cemetery",
    "name": "Friedhof"
  }
},
{
  "type": "way",
  "id": 26522038,
  "center": {
    "lat": 50.8613694,
    "lon": 12.6609277
  },
  "nodes": [
    290695128,
    290695131,
    290695132,
    290695133,
    290695134,
    290695128
  ],
  "tags": {
    "denomination": "protestant",
    "landuse": "cemetery",
    "name": "Friedhof Langenchursdorf",
    "religion": "christian"
  }
},
{
  "type": "way",
  "id": 26570938,
  "center": {
    "lat": 50.8456848,
    "lon": 12.6387493
  },
  "nodes": [
    291341496,
    291341501,
    10808738854,
    3740251773,
    5282165004,
    1681435365,
    10808738850,
    10808738851,
    10808738849,
    10808738848,
    10808738855,
    3740251775,
    10808738847,
    10808738846,
    291341522,
    10808738853,
    10808738852,
    1681435310,
    291341496
  ],
  "tags": {
    "denomination": "protestant",
    "landuse": "cemetery",
    "name": "Friedhof Callenberg",
    "religion": "christian"
  }
},
{
  "type": "way",
  "id": 26712743,
  "center": {
    "lat": 50.8720058,
    "lon": 12.6926099
  },
  "nodes": [
    292968882,
    292968888,
    292968894,
    292968902,
    292968911,
    292968920,
    1416197007,
    1416196984,
    292968882
  ],
  "tags": {
    "denomination": "protestant",
    "landuse": "cemetery",
    "name": "Friedhof Bräunsdorf",
    "religion": "christian"
  }
},
{
  "type": "way",
  "id": 26838115,
  "center": {
    "lat": 50.7262618,
    "lon": 12.3911873
  },
  "nodes": [
    294729832,
    1049982987,
    1020435422,
    294729837,
    294729840,
    1020430451,
    1020432134,
    294729842,
    8659063349,
    294729845,
    294729832
  ],
  "tags": {
    "landuse": "cemetery"
  }
},
{
  "type": "way",
  "id": 26843452,
  "center": {
    "lat": 50.9865094,
    "lon": 12.4214744
  },
  "nodes": [
    2237158268,
    2024470423,
    2024470422,
    2024470421,
    294840230,
    2024470420,
    294840233,
    294840237,
    8867393598,
    294840239,
    8867393597,
    294840241,
    294840243,
    2622073694,
    2622073697,
    294840244,
    294840246,
    294840248,
    294840250,
    2237157151,
    2024470287,
    2024470289,
    294840252,
    2024470291,
    2024470293,
    294840253,
    365361274,
    2024470294,
    294840256,
    2024470310,
    2024470338,
    294840258,
    8867409736,
    3276312675,
    2024470384,
    294840260,
    294840223,
    294840227,
    2237158268
  ],
  "tags": {
    "landuse": "cemetery",
    "source": "Bing"
  }
},
{
  "type": "way",
  "id": 26937688,
  "center": {
    "lat": 50.5861427,
    "lon": 12.4489507
  },
  "nodes": [
    295177703,
    295177727,
    295177737,
    295177708,
    295177752,
    11875006078,
    295177703
  ],
  "tags": {
    "denomination": "protestant",
    "landuse": "cemetery",
    "religion": "christian"
  }
},
{
  "type": "way",
  "id": 27011762,
  "center": {
    "lat": 50.7363491,
    "lon": 12.9201897
  },
  "nodes": [
    296079078,
    5240191626,
    1661056146,
    1661056147,
    296079079,
    1661056071,
    1661056062,
    1661056069,
    1661056085,
    296079080,
    3581310567,
    6345865173,
    3581310568,
    3581310570,
    296079081,
    296079078
  ],
  "tags": {
    "landuse": "cemetery",
    "name": "Friedhof Burkhardtsdorf"
  }
},
{
  "type": "way",
  "id": 27017437,
  "center": {
    "lat": 50.8153016,
    "lon": 12.6142125
  },
  "nodes": [
    296146832,
    1697277723,
    296146838,
    296146839,
    296146841,
    1697277724,
    296146840,
    296146844,
    296146843,
    296146837,
    296146832
  ],
  "tags": {
    "denomination": "protestant",
    "landuse": "cemetery",
    "name": "Friedhof Lobsdorf",
    "religion": "christian"
  }
},
{
  "type": "way",
  "id": 27111515,
  "center": {
    "lat": 50.7793926,
    "lon": 12.8762114
  },
  "nodes": [
    1248492663,
    297468795,
    297230560,
    298108789,
    297230561,
    297468666,
    323357193,
    324137349,
    297462997,
    297675743,
    1248492663
  ],
  "tags": {
    "barrier": "fence",
    "landuse": "cemetery"
  }
},
{
  "type": "way",
  "id": 27141832,
  "center": {
    "lat": 50.8595708,
    "lon": 12.4274747
  },
  "nodes": [
    297787947,
    2510929037,
    2510929041,
    297787948,
    9395507228,
    11820335418,
    297787949,
    2687391669,
    9395507241,
    9404960465,
    2687391666,
    297787944,
    9404960474,
    9404960473,
    2510929021,
    9404960481,
    9404960482,
    9395507231,
    297787947
  ],
  "tags": {
    "barrier": "wall",
    "landuse": "cemetery",
    "name": "Friedhof Ponitz"
  }
},
{
  "type": "way",
  "id": 27240048,
  "center": {
    "lat": 50.8063642,
    "lon": 12.1907156
  },
  "nodes": [
    298950168,
    298950169,
    298950170,
    298950171,
    2966407512,
    298950172,
    298950173,
    298950174,
    2966407525,
    2966407527,
    7725316935,
    298950168
  ],
  "tags": {
    "landuse": "cemetery",
    "name": "Friedhof Linda",
    "wikimedia_commons": "File:KircheLinda.jpg"
  }
},
{
  "type": "way",
  "id": 27257004,
  "center": {
    "lat": 50.2749844,
    "lon": 12.7930926
  },
  "nodes": [
    299160911,
    299164154,
    299160913,
    299164165,
    299164163,
    299160915,
    299164160,
    8685565394,
    299164158,
    299160917,
    299160911
  ],
  "tags": {
    "landuse": "cemetery"
  }
},
{
  "type": "way",
  "id": 27272658,
  "center": {
    "lat": 50.7803203,
    "lon": 12.9281716
  },
  "nodes": [
    299364816,
    6385527574,
    299364820,
    299364824,
    299364828,
    299364816
  ],
  "tags": {
    "denomination": "lutheran",
    "landuse": "cemetery",
    "name": "Friedhof Harthau",
    "religion": "christian"
  }
},
{
  "type": "way",
  "id": 27357278,
  "center": {
    "lat": 50.6969832,
    "lon": 12.1490938
  },
  "nodes": [
    300339313,
    5732016450,
    300339316,
    5732016449,
    5732016453,
    300339319,
    4335000916,
    5732016452,
    300339320,
    5732016451,
    300339313
  ],
  "tags": {
    "landuse": "cemetery",
    "name": "Nitschareuth"
  }
},
{
  "type": "way",
  "id": 27357283,
  "center": {
    "lat": 50.6601633,
    "lon": 12.1562541
  },
  "nodes": [
    300339406,
    300339409,
    300339411,
    300339415,
    300339406
  ],
  "tags": {
    "landuse": "cemetery",
    "name": "Friedhof Kurtschau"
  }
},
{
  "type": "way",
  "id": 27607295,
  "center": {
    "lat": 50.8358327,
    "lon": 12.4766956
  },
  "nodes": [
    303144188,
    2038188070,
    303144193,
    303144198,
    303144202,
    303144188
  ],
  "tags": {
    "landuse": "cemetery"
  }
},
{
  "type": "way",
  "id": 27607443,
  "center": {
    "lat": 50.6565313,
    "lon": 12.0989280
  },
  "nodes": [
    303147676,
    4482626583,
    4493500041,
    4493500040,
    4482626589,
    4493498487,
    303147687,
    4482626587,
    4482626582,
    4482626584,
    5423354034,
    303147692,
    4173284702,
    303147676
  ],
  "tags": {
    "landuse": "cemetery",
    "name": "Friedhof Naitschau"
  }
},
{
  "type": "way",
  "id": 27661765,
  "center": {
    "lat": 50.6108038,
    "lon": 12.1787881
  },
  "nodes": [
    303802159,
    11693979968,
    11693992982,
    303802160,
    5503186891,
    5503186890,
    303802163,
    11693979967,
    303802162,
    7201585258,
    303802159
  ],
  "tags": {
    "barrier": "wall",
    "landuse": "cemetery",
    "name": "Friedhof Elsterberg"
  }
},
{
  "type": "way",
  "id": 27742375,
  "center": {
    "lat": 50.9225260,
    "lon": 12.7977207
  },
  "nodes": [
    304635040,
    304635041,
    304635043,
    304635044,
    304635045,
    304635046,
    529316372,
    304635048,
    304635050,
    304635052,
    304635053,
    304635038,
    304635040
  ],
  "tags": {
    "landuse": "cemetery",
    "name": "Waldfriedhof"
  }
},
{
  "type": "way",
  "id": 28001691,
  "center": {
    "lat": 50.8566146,
    "lon": 12.3825210
  },
  "nodes": [
    307469853,
    8783134836,
    307469854,
    8783134850,
    8783134851,
    2063232226,
    8783134835,
    307469853
  ],
  "tags": {
    "amenity": "grave_yard",
    "denomination": "protestant",
    "name": "Friedhof Grünberg",
    "religion": "christian"
  }
},
{
  "type": "way",
  "id": 28121606,
  "center": {
    "lat": 50.9052093,
    "lon": 12.7629065
  },
  "nodes": [
    308893638,
    308893640,
    308893642,
    308893644,
    6083113594,
    308893645,
    308893647,
    308893648,
    6083113597,
    308893638
  ],
  "tags": {
    "denomination": "lutheran",
    "landuse": "cemetery",
    "religion": "christian"
  }
},
{
  "type": "way",
  "id": 28164755,
  "center": {
    "lat": 50.8808417,
    "lon": 12.7422347
  },
  "nodes": [
    309353532,
    309353533,
    309353534,
    309353535,
    10238814775,
    7603577481,
    10238814777,
    309353537,
    7603577479,
    309353538,
    309353540,
    10238814778,
    7603577480,
    309353532
  ],
  "tags": {
    "denomination": "protestant",
    "landuse": "cemetery",
    "religion": "christian"
  }
},
{
  "type": "way",
  "id": 28579388,
  "center": {
    "lat": 50.9273177,
    "lon": 12.0122895
  },
  "nodes": [
    313917982,
    6465432025,
    313917988,
    6465543685,
    6465541678,
    313917992,
    313917996,
    313918002,
    6465431754,
    313917982
  ],
  "tags": {
    "landuse": "cemetery",
    "name": "Friedhof",
    "source": "landsat"
  }
},
{
  "type": "way",
  "id": 29211016,
  "center": {
    "lat": 50.8306127,
    "lon": 12.6310180
  },
  "nodes": [
    321307242,
    321307243,
    5276096321,
    321307244,
    1697759802,
    1697759781,
    321307245,
    321307246,
    1697759763,
    1697759741,
    321307247,
    321307249,
    321307250,
    321307251,
    321307242
  ],
  "tags": {
    "barrier": "wall",
    "denomination": "protestant",
    "landuse": "cemetery",
    "name": "Friedhof Grumbach",
    "religion": "christian"
  }
},
{
  "type": "way",
  "id": 29211017,
  "center": {
    "lat": 50.8088310,
    "lon": 12.5585850
  },
  "nodes": [
    321307271,
    321307272,
    321307273,
    321307274,
    321307275,
    1257071147,
    7638772570,
    7638772569,
    7638772568,
    7638772574,
    7638772575,
    7638772576,
    7638778216,
    7638778217,
    7638778222,
    321307268,
    321307269,
    6337683467,
    6337683468,
    6337683470,
    6337683469,
    321307271
  ],
  "tags": {
    "denomination": "protestant",
    "landuse": "cemetery",
    "name": "Friedhof Glauchau",
    "religion": "christian"
  }
},
{
  "type": "way",
  "id": 29281586,
  "center": {
    "lat": 50.7495576,
    "lon": 12.1673964
  },
  "nodes": [
    322008685,
    322008686,
    322008687,
    322008688,
    322008689,
    322008691,
    322008693,
    322008696,
    322008685
  ],
  "tags": {
    "landuse": "cemetery"
  }
},
{
  "type": "way",
  "id": 29399138,
  "center": {
    "lat": 50.7246148,
    "lon": 12.7553655
  },
  "nodes": [
    656127681,
    323742416,
    323742419,
    323742413,
    1955411987,
    8120323929,
    1955411990,
    8120323930,
    8120323931,
    10636714284,
    656127681
  ],
  "tags": {
    "denomination": "protestant",
    "landuse": "cemetery",
    "name": "Friedhof Niederwürschnitz",
    "religion": "christian"
  }
},
{
  "type": "way",
  "id": 29753044,
  "center": {
    "lat": 50.7276020,
    "lon": 12.6407374
  },
  "nodes": [
    327763638,
    327763649,
    329392559,
    327763662,
    327763678,
    327763638
  ],
  "tags": {
    "created_by": "Potlatch 0.10f",
    "denomination": "lutheran",
    "landuse": "cemetery",
    "name": "Friedhof Heinrichsort",
    "religion": "christian"
  }
},
{
  "type": "way",
  "id": 30157594,
  "center": {
    "lat": 50.0076340,
    "lon": 12.3074647
  },
  "nodes": [
    2392678886,
    2392678883,
    11552982821,
    11552923280,
    11552923281,
    11552923282,
    11552982820,
    11552923283,
    8068211162,
    11552982809,
    11552982808,
    332326092,
    11552923286,
    11552923287,
    11552923288,
    11552982807,
    11552982806,
    8068211145,
    332326096,
    11552982803,
    11552982804,
    11552982805,
    11552923275,
    11552923276,
    11552923277,
    11552923278,
    11552923279,
    2392678886
  ],
  "tags": {
    "landuse": "cemetery",
    "source": "DOP_LVA_BY_01"
  }
},
{
  "type": "way",
  "id": 30808903,
  "center": {
    "lat": 50.8687140,
    "lon": 12.9157748
  },
  "nodes": [
    341439066,
    341439068,
    5749909768,
    341439070,
    5749909766,
    5749909771,
    5749909765,
    341439072,
    341439074,
    341439076,
    341439078,
    9921649185,
    9921649186,
    341439081,
    2108732696,
    341439066
  ],
  "tags": {
    "denomination": "lutheran",
    "landuse": "cemetery",
    "name": "Friedhof Glösa",
    "operator": "Ev.-Luth. Segenskirchgemeinde Chemnitz Nord",
    "religion": "christian",
    "website": "https://segenskirchgemeinde-chemnitz.de/friedhof-gloesa",
    "wikidata": "Q107122785"
  }
},
{
  "type": "way",
  "id": 30912815,
  "center": {
    "lat": 50.8739006,
    "lon": 12.2996594
  },
  "nodes": [
    343646264,
    2255927463,
    343646265,
    343646266,
    343646267,
    343646264
  ],
  "tags": {
    "amenity": "grave_yard",
    "barrier": "wall",
    "denomination": "protestant",
    "layer": "-5",
    "name": "Friedhof Selka",
    "religion": "christian"
  }
},
{
  "type": "way",
  "id": 31052968,
  "center": {
    "lat": 50.8282436,
    "lon": 12.8891985
  },
  "nodes": [
    345195849,
    9501933650,
    9501933649,
    345195851,
    345195853,
    1111949223,
    9501933622,
    345195852,
    1067582396,
    1597401155,
    1597401157,
    345577153,
    1597401159,
    345195850,
    347843540,
    345577151,
    1459931818,
    345195849
  ],
  "tags": {
    "landuse": "cemetery",
    "name": "Jüdischer Friedhof",
    "religion": "jewish",
    "wikidata": "Q21191619",
    "wikipedia": "de:Jüdischer Friedhof (Chemnitz)"
  }
},
{
  "type": "way",
  "id": 31097512,
  "center": {
    "lat": 50.8289333,
    "lon": 12.8875209
  },
  "nodes": [
    345577150,
    345195849,
    1459931818,
    345577151,
    347843540,
    9509533493,
    5106418654,
    9509533494,
    9509533529,
    5106418659,
    345577152,
    345577150
  ],
  "tags": {
    "landuse": "cemetery",
    "name": "Matthäusfriedhof",
    "religion": "christian",
    "wikidata": "Q28122983",
    "wikipedia": "de:Matthäusfriedhof (Chemnitz)"
  }
},
{
  "type": "way",
  "id": 31650014,
  "center": {
    "lat": 50.8568142,
    "lon": 12.9529281
  },
  "nodes": [
    354014786,
    354014791,
    354014793,
    354014799,
    354014801,
    354014805,
    354014810,
    354014813,
    354014817,
    354014820,
    354014823,
    354014828,
    354014831,
    354014833,
    354014835,
    354014786
  ],
  "tags": {
    "denomination": "lutheran",
    "landuse": "cemetery",
    "name": "Trinitatisfriedhof",
    "religion": "christian"
  }
},
{
  "type": "way",
  "id": 31714974,
  "center": {
    "lat": 50.7987475,
    "lon": 12.7234450
  },
  "nodes": [
    354844349,
    354844350,
    354844351,
    9225855269,
    354844352,
    354844353,
    354844349
  ],
  "tags": {
    "denomination": "protestant",
    "landuse": "cemetery",
    "name": "Friedhof Ernstthal",
    "religion": "christian"
  }
},
{
  "type": "way",
  "id": 32003260,
  "center": {
    "lat": 50.3048932,
    "lon": 12.1779825
  },
  "nodes": [
    358854395,
    358854397,
    358854398,
    358854401,
    358854402,
    10598836643,
    10598836644,
    10598836645,
    358854404,
    358854405,
    358854407,
    358854409,
    358854395
  ],
  "tags": {
    "denomination": "protestant",
    "landuse": "cemetery",
    "religion": "christian"
  }
},
{
  "type": "way",
  "id": 32061660,
  "center": {
    "lat": 50.3129656,
    "lon": 12.3207000
  },
  "nodes": [
    359942067,
    359942073,
    361496181,
    359942081,
    359942083,
    359942087,
    359942089,
    359942091,
    359942093,
    359942067
  ],
  "tags": {
    "landuse": "cemetery",
    "name": "Friedhof Markneukirchen"
  }
},
{
  "type": "way",
  "id": 32453328,
  "center": {
    "lat": 50.9018154,
    "lon": 12.9138677
  },
  "nodes": [
    8415338574,
    8415338573,
    12288288581,
    12288288582,
    8415338572,
    8415338571,
    8415338570,
    364848822,
    8415338569,
    12288288583,
    364848823,
    12288288586,
    8415338568,
    12288288585,
    12288288584,
    8415338567,
    364848824,
    8415338566,
    8415338564,
    364848826,
    2051235639,
    8414503433,
    2051235679,
    2051235660,
    8415338574
  ],
  "tags": {
    "landuse": "cemetery",
    "name": "Friedhof Auerswalde",
    "religion": "christian"
  }
},
{
  "type": "way",
  "id": 32639974,
  "center": {
    "lat": 50.8831954,
    "lon": 12.7407675
  },
  "nodes": [
    366962609,
    366962551,
    366962556,
    366963007,
    366962563,
    366962582,
    366962602,
    366962678,
    366962609
  ],
  "tags": {
    "denomination": "protestant",
    "landuse": "cemetery",
    "religion": "christian"
  }
},
{
  "type": "way",
  "id": 32851533,
  "center": {
    "lat": 50.9745037,
    "lon": 12.9843591
  },
  "nodes": [
    370070239,
    3626486772,
    3626486771,
    3626486770,
    3626486769,
    3626486768,
    370070241,
    3626486765,
    3737565490,
    3737565491,
    3737565493,
    3737565494,
    897614371,
    3737565489,
    897614593,
    897614350,
    370070239
  ],
  "tags": {
    "addr:city": "Mittweida",
    "addr:housenumber": "47",
    "addr:postcode": "09648",
    "addr:street": "Chemnitzer Straße",
    "denomination": "lutheran",
    "landuse": "cemetery",
    "name": "Neuer Friedhof Mittweida",
    "religion": "christian"
  }
},
{
  "type": "way",
  "id": 32881052,
  "center": {
    "lat": 50.5608302,
    "lon": 12.7857848
  },
  "nodes": [
    370358242,
    370358243,
    2815051590,
    370358244,
    2494935301,
    618249980,
    2494935311,
    370358245,
    2494935326,
    2494935322,
    370358242
  ],
  "tags": {
    "landuse": "cemetery"
  }
},
{
  "type": "way",
  "id": 32975929,
  "center": {
    "lat": 50.8336319,
    "lon": 12.7062088
  },
  "nodes": [
    371406599,
    371406615,
    371406601,
    371406603,
    371406604,
    371406606,
    371406608,
    1694767254,
    371406610,
    371406612,
    371406613,
    371406599
  ],
  "tags": {
    "denomination": "protestant",
    "landuse": "cemetery",
    "name": "Friedhof Langenberg",
    "religion": "christian"
  }
},
{
  "type": "way",
  "id": 33056250,
  "center": {
    "lat": 50.7744902,
    "lon": 12.3131479
  },
  "nodes": [
    372824418,
    372824426,
    372824433,
    372824441,
    372824418
  ],
  "tags": {
    "denomination": "protestant",
    "landuse": "cemetery",
    "name": "Friedhof St.Oswald",
    "religion": "christian"
  }
},
{
  "type": "way",
  "id": 33582271,
  "center": {
    "lat": 50.7478711,
    "lon": 12.5698378
  },
  "nodes": [
    383742343,
    383742344,
    4038396154,
    383744439,
    383742345,
    383744443,
    1034404554,
    383744446,
    383742346,
    1034404552,
    383744450,
    383744345,
    1034404537,
    383742343
  ],
  "tags": {
    "landuse": "cemetery",
    "name": "Friedhof"
  }
},
{
  "type": "way",
  "id": 33752321,
  "center": {
    "lat": 50.7640533,
    "lon": 12.7393356
  },
  "nodes": [
    386147871,
    386147872,
    1441070203,
    386147873,
    386147874,
    386147871
  ],
  "tags": {
    "landuse": "cemetery",
    "name": "Friedhof Erlbach",
    "religion": "christian"
  }
},
{
  "type": "way",
  "id": 33853691,
  "center": {
    "lat": 50.8794051,
    "lon": 12.8670701
  },
  "nodes": [
    387839108,
    387839109,
    387839110,
    8422975693,
    387839111,
    387839112,
    8422975687,
    387839113,
    387839114,
    10707723093,
    8422975699,
    8422975680,
    387839115,
    387839116,
    387839108
  ],
  "tags": {
    "landuse": "cemetery",
    "name": "Friedhof Wittgensdorf",
    "religion": "christian"
  }
},
{
  "type": "way",
  "id": 33881262,
  "center": {
    "lat": 50.7685858,
    "lon": 12.3671601
  },
  "nodes": [
    388190360,
    388190361,
    388190362,
    388190363,
    2397550033,
    388190364,
    388190365,
    2397550105,
    388190366,
    388190367,
    2397550161,
    388190353,
    388190369,
    388190370,
    388190371,
    388190360
  ],
  "tags": {
    "amenity": "grave_yard",
    "denomination": "protestant",
    "name": "Friedhof Langenhessen",
    "religion": "christian"
  }
},
{
  "type": "way",
  "id": 33937665,
  "center": {
    "lat": 50.4818514,
    "lon": 12.7171445
  },
  "nodes": [
    389020185,
    389020186,
    2425882288,
    389020187,
    389020188,
    389020185
  ],
  "tags": {
    "amenity": "grave_yard"
  }
},
{
  "type": "way",
  "id": 34063387,
  "center": {
    "lat": 50.6846834,
    "lon": 12.4775240
  },
  "nodes": [
    954782237,
    954782242,
    954782238,
    954782239,
    954782240,
    954782251,
    2080247148,
    2939184429,
    1831931328,
    2080247152,
    954782235,
    2080247158,
    954782248,
    954782236,
    954782234,
    954782233,
    954782232,
    954782313,
    954801392,
    954782231,
    954782230,
    954782229,
    954782228,
    954782200,
    954782190,
    12554898987,
    12554898986,
    954782201,
    954782202,
    3638503896,
    954782203,
    1831931332,
    1831931330,
    1831931329,
    1831931325,
    2488725037,
    1831931331,
    2488725034,
    2488725030,
    1831931327,
    954782237
  ],
  "tags": {
    "amenity": "grave_yard",
    "name": "Gemeindefriedhof Planitz"
  }
},
{
  "type": "way",
  "id": 34633441,
  "center": {
    "lat": 50.7421712,
    "lon": 12.7361161
  },
  "nodes": [
    402739830,
    416707834,
    416707829,
    402739824,
    402739828,
    402739832,
    4226805814,
    402739833,
    4226805815,
    3715890225,
    402739830
  ],
  "tags": {
    "landuse": "cemetery",
    "name": "Friedhof Lugau"
  }
},
{
  "type": "way",
  "id": 34966964,
  "center": {
    "lat": 50.7084043,
    "lon": 12.6431025
  },
  "nodes": [
    410350424,
    410350427,
    410350426,
    410350429,
    410350428,
    410350430,
    4756181881,
    410366121,
    410350424
  ],
  "tags": {
    "denomination": "protestant",
    "landuse": "cemetery",
    "religion": "christian"
  }
},
{
  "type": "way",
  "id": 34995625,
  "center": {
    "lat": 50.5273710,
    "lon": 12.0952674
  },
  "nodes": [
    410455413,
    410455414,
    410455415,
    410455416,
    410455413
  ],
  "tags": {
    "amenity": "grave_yard",
    "religion": "christian"
  }
},
{
  "type": "way",
  "id": 35235937,
  "center": {
    "lat": 50.0811015,
    "lon": 12.8362045
  },
  "nodes": [
    413278521,
    1567830028,
    1567830024,
    5580951444,
    5580951445,
    413278522,
    5580964830,
    413278523,
    6749917151,
    6749917147,
    413278524,
    413278521
  ],
  "tags": {
    "landuse": "cemetery"
  }
},
{
  "type": "way",
  "id": 35235955,
  "center": {
    "lat": 50.0983009,
    "lon": 12.8265909
  },
  "nodes": [
    413278575,
    413278576,
    413278578,
    413278579,
    413278575
  ],
  "tags": {
    "amenity": "grave_yard",
    "name": "Bývalý hřbitov",
    "religion": "christian"
  }
},
{
  "type": "way",
  "id": 35550915,
  "center": {
    "lat": 50.2787127,
    "lon": 12.2295147
  },
  "nodes": [
    416549513,
    11765583675,
    11765583674,
    416549514,
    5188997156,
    5188997009,
    662910423,
    1149120901,
    1149120788,
    416549516,
    5188997207,
    661052998,
    5188997206,
    5188998341,
    416549513
  ],
  "tags": {
    "barrier": "fence",
    "landuse": "cemetery"
  }
},
{
  "type": "way",
  "id": 35593651,
  "center": {
    "lat": 50.0796096,
    "lon": 12.2225940
  },
  "nodes": [
    417157350,
    417157354,
    417157359,
    417157362,
    417157350
  ],
  "tags": {
    "landuse": "cemetery"
  }
},
{
  "type": "way",
  "id": 35630650,
  "center": {
    "lat": 50.3705295,
    "lon": 12.4648831
  },
  "nodes": [
    417461020,
    417461021,
    690890931,
    690890929,
    417461022,
    417461024,
    715558187,
    690890909,
    417461020
  ],
  "tags": {
    "denomination": "lutheran",
    "landuse": "cemetery",
    "name": "Friedhof Klingenthal-Brunndöbra",
    "opening_hours": "Apr-Sep 07:00-20:00; Oct-Mar 08:00-17:00",
    "religion": "christian"
  }
},
{
  "type": "way",
  "id": 35743461,
  "center": {
    "lat": 50.8598740,
    "lon": 12.3132860
  },
  "nodes": [
    418079146,
    418079149,
    418079151,
    8542168580,
    8641740918,
    418383870,
    8641740914,
    418079153,
    418079146
  ],
  "tags": {
    "barrier": "wall",
    "landuse": "cemetery",
    "name": "Friedhof Weißbach"
  }
},
{
  "type": "way",
  "id": 35955616,
  "center": {
    "lat": 50.4039785,
    "lon": 12.1300548
  },
  "nodes": [
    420299549,
    420299550,
    420299551,
    420299552,
    420299549
  ],
  "tags": {
    "landuse": "cemetery"
  }
},
{
  "type": "way",
  "id": 36881581,
  "center": {
    "lat": 50.6404761,
    "lon": 12.2337447
  },
  "nodes": [
    428819734,
    11687657984,
    428819737,
    11687657840,
    428819739,
    11687657839,
    428819741,
    11687657985,
    11687657986,
    428819734
  ],
  "tags": {
    "denomination": "protestant",
    "landuse": "cemetery",
    "name": "Neuer Friedhof Reinsdorf",
    "religion": "christian"
  }
},
{
  "type": "way",
  "id": 36881582,
  "center": {
    "lat": 50.6390966,
    "lon": 12.2368634
  },
  "nodes": [
    428819743,
    428819745,
    428819748,
    428819758,
    2624476216,
    428819759,
    428819760,
    2624476218,
    2624476217,
    2624476219,
    2624476220,
    428819761,
    2624476221,
    428819763,
    2624476222,
    428819765,
    428819743
  ],
  "tags": {
    "denomination": "protestant",
    "landuse": "cemetery",
    "name": "Alter Friedhof Reinsdorf",
    "religion": "christian"
  }
},
{
  "type": "way",
  "id": 36958055,
  "center": {
    "lat": 50.6157742,
    "lon": 12.1313868
  },
  "nodes": [
    429726395,
    429726396,
    429726397,
    2663022414,
    429726398,
    429726395
  ],
  "tags": {
    "denomination": "lutheran",
    "landuse": "cemetery",
    "name": "Friedhof Hohndorf",
    "religion": "christian",
    "wikidata": "Q113045458"
  }
},
{
  "type": "way",
  "id": 37055853,
  "center": {
    "lat": 50.9365580,
    "lon": 12.8828860
  },
  "nodes": [
    430957722,
    2447051054,
    2447051039,
    2447056864,
    6355903285,
    430957723,
    430957724,
    430957725,
    430957726,
    2214757308,
    430957727,
    430957722
  ],
  "tags": {
    "denomination": "protestant",
    "landuse": "cemetery",
    "name": "Friedhof an der Kirche Claußnitz",
    "religion": "christian"
  }
},
{
  "type": "way",
  "id": 37113018,
  "center": {
    "lat": 50.6757622,
    "lon": 12.2745647
  },
  "nodes": [
    431654076,
    4305135296,
    4305131857,
    431654073,
    431654076
  ],
  "tags": {
    "denomination": "protestant",
    "landuse": "cemetery",
    "name": "Friedhof Reudnitz",
    "religion": "christian",
    "wikidata": "Q113045539"
  }
},
{
  "type": "way",
  "id": 37992812,
  "center": {
    "lat": 50.5012776,
    "lon": 12.5411403
  },
  "nodes": [
    446201983,
    446202004,
    13123071104,
    446202000,
    446201972,
    446201974,
    446201658,
    446201655,
    446201651,
    446201648,
    446202045,
    446202057,
    446202058,
    2134691855,
    446202060,
    446202027,
    446202029,
    446201983
  ],
  "tags": {
    "landuse": "cemetery"
  }
},
{
  "type": "way",
  "id": 37997052,
  "center": {
    "lat": 50.5939278,
    "lon": 12.6620354
  },
  "nodes": [
    4167127442,
    446271278,
    324745923,
    9887850617,
    1704107835,
    1704107836,
    9891379601,
    7264292689,
    7264292690,
    9009841482,
    7264292688,
    446271280,
    446763637,
    4167127440,
    4167127442
  ],
  "tags": {
    "landuse": "cemetery",
    "name": "Friedhof Oberschlema",
    "source": "Saxony Topographic map (2020)"
  }
},
{
  "type": "way",
  "id": 38241496,
  "center": {
    "lat": 50.8488888,
    "lon": 12.7727476
  },
  "nodes": [
    450779151,
    450779155,
    599810530,
    450779159,
    599810527,
    599810528,
    599128628,
    11294013036,
    3059950175,
    2029118409,
    11294013046,
    11294013045,
    11294013044,
    450779168,
    450779174,
    11294013047,
    450779177,
    450779182,
    450779186,
    6074652687,
    450779151
  ],
  "tags": {
    "landuse": "cemetery",
    "name": "Friedhof Limbach",
    "religion": "christian"
  }
},
{
  "type": "way",
  "id": 38505555,
  "center": {
    "lat": 50.5383645,
    "lon": 12.9931879
  },
  "nodes": [
    455555153,
    455555154,
    455555155,
    3536209785,
    455555156,
    455555153
  ],
  "tags": {
    "landuse": "cemetery"
  }
},
{
  "type": "way",
  "id": 38715211,
  "center": {
    "lat": 50.9036813,
    "lon": 12.6706146
  },
  "nodes": [
    6680289378,
    2674727979,
    3090857659,
    458890743,
    3090857653,
    458890727,
    550023624,
    458890744,
    458890745,
    458890746,
    3090857654,
    458890747,
    6680289378
  ],
  "tags": {
    "denomination": "protestant",
    "landuse": "cemetery",
    "religion": "christian"
  }
},
{
  "type": "way",
  "id": 39404128,
  "center": {
    "lat": 50.7145790,
    "lon": 12.4526016
  },
  "nodes": [
    472107203,
    472107206,
    472107207,
    2149572346,
    473609835,
    472107209,
    473609814,
    472107210,
    472107211,
    472107212,
    2149572418,
    2149572414,
    2149572404,
    2149572385,
    472107203
  ],
  "tags": {
    "landuse": "cemetery",
    "name": "Paulusfriedhof"
  }
},
{
  "type": "way",
  "id": 40014656,
  "center": {
    "lat": 50.6814628,
    "lon": 12.4322807
  },
  "nodes": [
    480992052,
    480992060,
    480992095,
    2224896040,
    480992104,
    10261462448,
    480992110,
    3127198953,
    2241885254,
    3127198937,
    480992135,
    10292786017,
    2111538269,
    2111538377,
    2111538192,
    2111538368,
    2224896046,
    480992137,
    10235491078,
    10235491079,
    10235491080,
    10235491077,
    480992052
  ],
  "tags": {
    "denomination": "lutheran",
    "landuse": "cemetery",
    "name": "Friedhof der Auferstehungskirchgemeinde Stenn",
    "religion": "christian"
  }
},
{
  "type": "way",
  "id": 40151470,
  "center": {
    "lat": 50.6968830,
    "lon": 12.4268164
  },
  "nodes": [
    483411008,
    2224777017,
    483411009,
    3209272433,
    3042129901,
    483411010,
    3042130359,
    483411094,
    3042130353,
    483411012,
    1054128846,
    483411013,
    483411008
  ],
  "tags": {
    "denomination": "lutheran",
    "landuse": "cemetery",
    "name": "Friedhof der Christuskirchgemeinde Lichtentanne",
    "religion": "christian"
  }
},
{
  "type": "way",
  "id": 41267860,
  "center": {
    "lat": 50.6533644,
    "lon": 12.4380710
  },
  "nodes": [
    504510341,
    504512888,
    504510360,
    10554485850,
    10554485851,
    504510381,
    504510464,
    504510482,
    504510508,
    504510538,
    2111620944,
    504510341
  ],
  "tags": {
    "landuse": "cemetery",
    "name": "Friedhof Eberbrunn",
    "religion": "christian",
    "source": "bing"
  }
},
{
  "type": "way",
  "id": 41271407,
  "center": {
    "lat": 50.6735015,
    "lon": 12.4022034
  },
  "nodes": [
    504593782,
    504593797,
    504593810,
    3578328785,
    3578328784,
    504593824,
    3578323152,
    2117128140,
    2111538305,
    504593836,
    504593848,
    504593851,
    3578323139,
    5517375321,
    504595427,
    504593888,
    504593903,
    504593921,
    504593933,
    10312390558,
    504593982,
    5517375328,
    504593782
  ],
  "tags": {
    "landuse": "cemetery"
  }
},
{
  "type": "way",
  "id": 41384598,
  "center": {
    "lat": 50.5797770,
    "lon": 12.7100303
  },
  "nodes": [
    506174277,
    2797234182,
    506174279,
    2766745126,
    2766745130,
    506174286,
    6186442311,
    506174288,
    5992295737,
    506174289,
    506174290,
    506174296,
    506174297,
    506174686,
    506174299,
    506174277
  ],
  "tags": {
    "barrier": "wall",
    "landuse": "cemetery",
    "name": "Nicolai-Friedhof"
  }
},
{
  "type": "way",
  "id": 42444062,
  "center": {
    "lat": 50.4972775,
    "lon": 12.6022257
  },
  "nodes": [
    529881186,
    529881187,
    529881191,
    778606940,
    12261097096,
    12261097095,
    778606638,
    778606525,
    529905768,
    529881186
  ],
  "tags": {
    "barrier": "wall",
    "landuse": "cemetery"
  }
},
{
  "type": "way",
  "id": 42916728,
  "center": {
    "lat": 50.5685696,
    "lon": 12.6474395
  },
  "nodes": [
    537496820,
    11165419571,
    537496839,
    537496845,
    537496852,
    11165419572,
    2363334352,
    11165419573,
    537496858,
    11165419574,
    11165419575,
    537496865,
    11165419562,
    11165419563,
    11165419564,
    11165419570,
    11165419569,
    537496827,
    537496820
  ],
  "tags": {
    "landuse": "cemetery",
    "name": "Friedhof Zschorlau",
    "source": "extrapolation"
  }
},
{
  "type": "way",
  "id": 43049080,
  "center": {
    "lat": 50.5984467,
    "lon": 12.6393529
  },
  "nodes": [
    539297372,
    539297373,
    9801584474,
    539297371,
    539297369,
    3158886891,
    539297364,
    539297396,
    539297397,
    8814944753,
    539297395,
    539297391,
    7114966501,
    539297392,
    539297407,
    2400165041,
    3630767059,
    10751601508,
    539297416,
    539843499,
    539297433,
    539297426,
    539297422,
    9994822718,
    9994822717,
    8814797775,
    9994816915,
    9994816916,
    539297425,
    539297430,
    539297427,
    539297420,
    539297421,
    539297372
  ],
  "tags": {
    "landuse": "cemetery",
    "name": "Trinitatisfriedhof"
  }
},
{
  "type": "way",
  "id": 43069663,
  "center": {
    "lat": 50.2276362,
    "lon": 12.2095845
  },
  "nodes": [
    539541314,
    9725856579,
    9725856582,
    9725856583,
    9725856581,
    9725856584,
    539541315,
    9725856578,
    9725856577,
    9725856576,
    6182954290,
    1086264618,
    1086264631,
    1086264688,
    1086264529,
    539541317,
    10969632543,
    9725856580,
    10969632542,
    539541314
  ],
  "tags": {
    "barrier": "fence",
    "landuse": "cemetery",
    "religion": "christian"
  }
},
{
  "type": "way",
  "id": 43086866,
  "center": {
    "lat": 50.8161226,
    "lon": 12.8644407
  },
  "nodes": [
    539782251,
    539781941,
    539772811,
    2714907340,
    544224470,
    539772658,
    539772725,
    539782251
  ],
  "tags": {
    "addr:housenumber": "16",
    "addr:postcode": "09116",
    "addr:street": "Friedhofstraße",
    "landuse": "cemetery",
    "name": "Friedhof Schönau",
    "wikidata": "Q49335827"
  }
},
{
  "type": "way",
  "id": 43210313,
  "center": {
    "lat": 50.5987309,
    "lon": 12.6925396
  },
  "nodes": [
    541639823,
    541639824,
    541639827,
    541640071,
    541640072,
    541639829,
    541639823
  ],
  "tags": {
    "denomination": "lutheran",
    "landuse": "cemetery",
    "religion": "christian"
  }
},
{
  "type": "way",
  "id": 43556975,
  "center": {
    "lat": 50.3665206,
    "lon": 12.8185309
  },
  "nodes": [
    549943839,
    549943840,
    549943841,
    549943842,
    549943893,
    549943843,
    549943839
  ],
  "tags": {
    "landuse": "cemetery",
    "religion": "christian"
  }
},
{
  "type": "way",
  "id": 44008470,
  "center": {
    "lat": 50.8560386,
    "lon": 12.5677979
  },
  "nodes": [
    559585262,
    559585330,
    559585332,
    7527228525,
    4083119540,
    559585262
  ],
  "tags": {
    "denomination": "protestant",
    "landuse": "cemetery",
    "note": "FIXME , nur grob eingezeichnet",
    "religion": "christian"
  }
},
{
  "type": "way",
  "id": 45750014,
  "center": {
    "lat": 50.7959771,
    "lon": 12.3746712
  },
  "nodes": [
    582685743,
    582685744,
    582685745,
    582685746,
    582685747,
    582685748,
    582685749,
    582685750,
    582685751,
    582685752,
    582685753,
    582685754,
    582685755,
    582685756,
    582685757,
    582685758,
    582685759,
    582685760,
    582685761,
    582685762,
    582685763,
    582685764,
    582685765,
    582685766,
    582685767,
    582685768,
    582685769,
    582685770,
    582685771,
    582685772,
    582685773,
    582685774,
    582685668,
    582685775,
    582685743
  ],
  "tags": {
    "barrier": "fence",
    "denomination": "protestant",
    "landuse": "cemetery",
    "name": "Friedhof Neukirchen",
    "religion": "christian"
  }
},
{
  "type": "way",
  "id": 46736803,
  "center": {
    "lat": 50.8487347,
    "lon": 12.9163111
  },
  "nodes": [
    597426055,
    1101966825,
    1101966453,
    597426056,
    31710985,
    11626319762,
    31710990,
    31710995,
    1160969890,
    1160969878,
    597426057,
    1160970006,
    1101966571,
    597426059,
    597426055
  ],
  "tags": {
    "denomination": "lutheran",
    "landuse": "cemetery",
    "name": "Schloßfriedhof",
    "note": "Evangelisch-Lutherisch",
    "religion": "christian"
  }
},
{
  "type": "way",
  "id": 46916835,
  "center": {
    "lat": 50.9475729,
    "lon": 12.7586089
  },
  "nodes": [
    598930781,
    9253610911,
    5516769668,
    598930782,
    598930783,
    1737427836,
    11754963321,
    598930781
  ],
  "tags": {
    "landuse": "cemetery",
    "name": "Friedhof Rochsburg"
  }
},
{
  "type": "way",
  "id": 46994733,
  "center": {
    "lat": 50.8899293,
    "lon": 12.6818128
  },
  "nodes": [
    599618889,
    599618880,
    599618881,
    599618882,
    599618883,
    1690457264,
    1690457266,
    599618890,
    599618891,
    599618892,
    599618893,
    599618901,
    599618902,
    599618903,
    599618904,
    599618889
  ],
  "tags": {
    "denomination": "protestant",
    "landuse": "cemetery",
    "religion": "christian"
  }
},
{
  "type": "way",
  "id": 47034323,
  "center": {
    "lat": 50.8115969,
    "lon": 12.7944595
  },
  "nodes": [
    599962916,
    599962917,
    1606810787,
    599962918,
    1606810756,
    1606810740,
    599962914,
    599962915,
    1083916584,
    1606810731,
    1083916577,
    1606810775,
    599962916
  ],
  "tags": {
    "landuse": "cemetery",
    "name": "Friedhof Grüna",
    "wikidata": "Q49320481"
  }
},
{
  "type": "way",
  "id": 47079574,
  "center": {
    "lat": 50.9661106,
    "lon": 12.6565046
  },
  "nodes": [
    600425021,
    600425027,
    600425031,
    8376234661,
    600425036,
    8376234662,
    8376234663,
    8376234664,
    600425043,
    600425035,
    600425022,
    600425021
  ],
  "tags": {
    "denomination": "protestant",
    "landuse": "cemetery",
    "religion": "christian"
  }
},
{
  "type": "way",
  "id": 47080122,
  "center": {
    "lat": 50.9948049,
    "lon": 12.6422610
  },
  "nodes": [
    600429225,
    2107108168,
    2107108170,
    600429220,
    2107108172,
    600429227,
    600429229,
    600429228,
    600429224,
    600429225
  ],
  "tags": {
    "denomination": "protestant",
    "landuse": "cemetery",
    "religion": "christian"
  }
},
{
  "type": "way",
  "id": 47082062,
  "center": {
    "lat": 50.9917292,
    "lon": 12.7041049
  },
  "nodes": [
    600442052,
    9634471187,
    600448230,
    600442053,
    600442054,
    600448246,
    9634471188,
    600442055,
    600448263,
    600442052
  ],
  "tags": {
    "denomination": "protestant",
    "landuse": "cemetery",
    "religion": "christian"
  }
},
{
  "type": "way",
  "id": 47083592,
  "center": {
    "lat": 50.9704122,
    "lon": 12.7082095
  },
  "nodes": [
    600452917,
    8401642673,
    600452934,
    600452923,
    600452926,
    600452928,
    600452940,
    600452942,
    600452943,
    600452915,
    7456942205,
    7456942204,
    7456942193,
    600452917
  ],
  "tags": {
    "denomination": "protestant",
    "landuse": "cemetery",
    "religion": "christian"
  }
},
{
  "type": "way",
  "id": 47144650,
  "center": {
    "lat": 50.8630475,
    "lon": 12.8341953
  },
  "nodes": [
    601034794,
    601034795,
    10833567821,
    10833567820,
    601034780,
    10833567819,
    10833567823,
    10833567822,
    601034781,
    10833567824,
    601034776,
    601034777,
    601034796,
    601034797,
    601034794
  ],
  "tags": {
    "barrier": "hedge",
    "denomination": "protestant",
    "landuse": "cemetery",
    "name": "Friedhof Chemnitz-Röhrsdorf",
    "religion": "christian",
    "wikidata": "Q124392703"
  }
},
{
  "type": "way",
  "id": 47201353,
  "center": {
    "lat": 50.9746711,
    "lon": 12.8409632
  },
  "nodes": [
    601507316,
    8192649222,
    601507314,
    601507319,
    8192649256,
    601507296,
    2052821540,
    8192649254,
    8192649255,
    601507300,
    601507297,
    601507285,
    601507286,
    601507316
  ],
  "tags": {
    "denomination": "protestant",
    "landuse": "cemetery",
    "religion": "christian"
  }
},
{
  "type": "way",
  "id": 47202850,
  "center": {
    "lat": 50.9973550,
    "lon": 12.8657526
  },
  "nodes": [
    601517563,
    601517554,
    601517549,
    601517531,
    601517537,
    601517559,
    601517561,
    2054992588,
    601517569,
    601517563
  ],
  "tags": {
    "denomination": "protestant",
    "landuse": "cemetery",
    "religion": "christian"
  }
},
{
  "type": "way",
  "id": 48791124,
  "center": {
    "lat": 50.9644384,
    "lon": 12.7538939
  },
  "nodes": [
    619097164,
    3159337423,
    619097160,
    619097161,
    619097162,
    2144336286,
    2144336277,
    2144336262,
    620121867,
    7549858694,
    7549858695,
    619097159,
    619097165,
    620121866,
    619097168,
    619097164
  ],
  "tags": {
    "landuse": "cemetery"
  }
},
{
  "type": "way",
  "id": 48816620,
  "center": {
    "lat": 50.9852377,
    "lon": 12.7616100
  },
  "nodes": [
    2052664287,
    2052664264,
    2052664254,
    619351977,
    5521942827,
    2052664256,
    5521942826,
    5521942825,
    2052664260,
    5521942829,
    5521942828,
    2052664300,
    2052664287
  ],
  "tags": {
    "landuse": "cemetery"
  }
},
{
  "type": "way",
  "id": 53525418,
  "center": {
    "lat": 50.9096182,
    "lon": 12.8665963
  },
  "nodes": [
    3454106234,
    11364803174,
    3453783268,
    1253987295,
    1372008085,
    3454106234
  ],
  "tags": {
    "amenity": "grave_yard",
    "name": "Friedhof Köthensdorf"
  }
},
{
  "type": "way",
  "id": 53763128,
  "center": {
    "lat": 50.2594414,
    "lon": 12.7757913
  },
  "nodes": [
    678831621,
    678831622,
    678831619,
    11521695620,
    678831620,
    678831621
  ],
  "tags": {
    "barrier": "wall",
    "landuse": "cemetery"
  }
},
{
  "type": "way",
  "id": 54254329,
  "center": {
    "lat": 50.3119276,
    "lon": 12.2255274
  },
  "nodes": [
    684247088,
    684247089,
    684247080,
    11967411325,
    11967411327,
    684247081,
    684247088
  ],
  "tags": {
    "amenity": "grave_yard",
    "name": "Friedhof Arnsgrün",
    "religion": "christian"
  }
},
{
  "type": "way",
  "id": 54980610,
  "center": {
    "lat": 50.5616852,
    "lon": 12.7335130
  },
  "nodes": [
    691737582,
    8629508776,
    691737588,
    691737589,
    691737590,
    691737574,
    691737579,
    691737586,
    8629508775,
    691737582
  ],
  "tags": {
    "denomination": "lutheran",
    "landuse": "cemetery",
    "name": "Friedhof Lauter",
    "religion": "christian"
  }
},
{
  "type": "way",
  "id": 55995408,
  "center": {
    "lat": 50.1035622,
    "lon": 12.0877780
  },
  "nodes": [
    702879267,
    702879275,
    702879268,
    702879265,
    702879263,
    702879267
  ],
  "tags": {
    "denomination": "protestant",
    "landuse": "cemetery",
    "name": "Friedhof Höchstädt",
    "religion": "christian"
  }
},
{
  "type": "way",
  "id": 56672703,
  "center": {
    "lat": 50.7659989,
    "lon": 12.9439018
  },
  "nodes": [
    708716517,
    708716519,
    708716521,
    5202054926,
    1671719984,
    708716522,
    708716517
  ],
  "tags": {
    "amenity": "grave_yard"
  }
},
{
  "type": "way",
  "id": 57959595,
  "center": {
    "lat": 50.9108148,
    "lon": 12.1668341
  },
  "nodes": [
    719150566,
    2182132350,
    719150564,
    719150543,
    2182132372,
    2182132348,
    719150586,
    719150559,
    719150538,
    719150572,
    2182132265,
    2182132309,
    719150566
  ],
  "tags": {
    "barrier": "wall",
    "landuse": "cemetery"
  }
},
{
  "type": "way",
  "id": 58265332,
  "center": {
    "lat": 50.4738600,
    "lon": 12.2227081
  },
  "nodes": [
    722612955,
    722612956,
    5045515274,
    722612957,
    722612958,
    722612959,
    5045515278,
    5045515277,
    5045515276,
    5045515275,
    722612955
  ],
  "tags": {
    "landuse": "cemetery",
    "name": "Friedhof Theuma"
  }
},
{
  "type": "way",
  "id": 60066348,
  "center": {
    "lat": 50.3603030,
    "lon": 12.4671217
  },
  "nodes": [
    746515750,
    746515692,
    746515756,
    746515747,
    746515779,
    746515766,
    746515715,
    746515699,
    746515737,
    746515750
  ],
  "tags": {
    "denomination": "lutheran",
    "landuse": "cemetery",
    "name": "Zum Friedefürsten",
    "opening_hours": "Mar-Oct 07:00-sunset; Nov-Feb 08:00-sunset",
    "religion": "christian"
  }
},
{
  "type": "way",
  "id": 60086166,
  "center": {
    "lat": 50.9804538,
    "lon": 12.6001713
  },
  "nodes": [
    746668892,
    8426728941,
    6662700508,
    746668866,
    746668958,
    746668929,
    746668902,
    6662700499,
    6662700520,
    6662700510,
    746668877,
    8426728942,
    746668740,
    8426728943,
    746668892
  ],
  "tags": {
    "amenity": "grave_yard",
    "denomination": "protestant",
    "religion": "christian"
  }
},
{
  "type": "way",
  "id": 61348750,
  "center": {
    "lat": 50.7189715,
    "lon": 12.5981780
  },
  "nodes": [
    766154199,
    7620378105,
    312014377,
    548677800,
    274365359,
    274365360,
    274365361,
    290327983,
    274365362,
    766154199
  ],
  "tags": {
    "denomination": "protestant",
    "landuse": "cemetery",
    "religion": "christian"
  }
},
{
  "type": "way",
  "id": 61910200,
  "center": {
    "lat": 50.8916560,
    "lon": 12.5376020
  },
  "nodes": [
    771610859,
    771633786,
    771610843,
    3450597974,
    771610845,
    3450597975,
    3450597976,
    771610849,
    771633777,
    771610857,
    771610862,
    771610859
  ],
  "tags": {
    "denomination": "protestant",
    "landuse": "cemetery",
    "religion": "christian"
  }
},
{
  "type": "way",
  "id": 61913799,
  "center": {
    "lat": 50.9250701,
    "lon": 12.5551639
  },
  "nodes": [
    771706128,
    4223583494,
    771706105,
    1984963550,
    771706088,
    771706086,
    771706148,
    771706123,
    771706108,
    4223583489,
    771706128
  ],
  "tags": {
    "denomination": "protestant",
    "landuse": "cemetery",
    "religion": "christian"
  }
},
{
  "type": "way",
  "id": 61921316,
  "center": {
    "lat": 50.9348953,
    "lon": 12.6175459
  },
  "nodes": [
    771860170,
    771860198,
    2701089552,
    2701089554,
    2701089556,
    2701089558,
    771860142,
    2701089540,
    2701089538,
    2701089537,
    2701089534,
    771860102,
    771860170
  ],
  "tags": {
    "denomination": "protestant",
    "landuse": "cemetery",
    "religion": "christian"
  }
},
{
  "type": "way",
  "id": 61921321,
  "center": {
    "lat": 50.9380677,
    "lon": 12.5828845
  },
  "nodes": [
    771860169,
    771860197,
    771860138,
    771860100,
    771860169
  ],
  "tags": {
    "denomination": "protestant",
    "landuse": "cemetery",
    "religion": "christian"
  }
},
{
  "type": "way",
  "id": 62937097,
  "center": {
    "lat": 50.7377653,
    "lon": 12.5294031
  },
  "nodes": [
    782986905,
    782986900,
    782986887,
    782986907,
    782986893,
    782986901,
    782986889,
    782986879,
    260056742,
    782986873,
    782986896,
    782986882,
    782986905
  ],
  "tags": {
    "amenity": "grave_yard",
    "denomination": "lutheran",
    "name": "Friedhof Auerbach",
    "religion": "christian"
  }
},
{
  "type": "way",
  "id": 63224150,
  "center": {
    "lat": 50.9626502,
    "lon": 12.9501711
  },
  "nodes": [
    784832245,
    6339581553,
    784832230,
    7501821273,
    784832170,
    784832188,
    6107299239,
    784832245
  ],
  "tags": {
    "denomination": "protestant",
    "landuse": "cemetery",
    "religion": "christian"
  }
},
{
  "type": "way",
  "id": 65729584,
  "center": {
    "lat": 50.0098367,
    "lon": 12.2270326
  },
  "nodes": [
    800987198,
    3467089807,
    3467089805,
    800988570,
    3467089801,
    3467089803,
    3467089804,
    2620069706,
    2620069709,
    3467089808,
    3467089815,
    2620069710,
    3467089825,
    1738622340,
    1738622339,
    1738622338,
    800987198
  ],
  "tags": {
    "landuse": "cemetery",
    "name": "Friedhof",
    "religion": "christian"
  }
},
{
  "type": "way",
  "id": 73277816,
  "center": {
    "lat": 50.2042141,
    "lon": 12.0861578
  },
  "nodes": [
    869162540,
    1188955821,
    869162542,
    1045614714,
    869162544,
    1045622303,
    869162547,
    869162540
  ],
  "tags": {
    "barrier": "wall",
    "landuse": "cemetery"
  }
},
{
  "type": "way",
  "id": 73988896,
  "center": {
    "lat": 50.2748309,
    "lon": 12.2755571
  },
  "nodes": [
    806741560,
    875503661,
    875503630,
    875503713,
    9537395605,
    9537395606,
    806741560
  ],
  "tags": {
    "landuse": "cemetery",
    "name": "Friedhof Sohl"
  }
},
{
  "type": "way",
  "id": 76369313,
  "center": {
    "lat": 50.1932969,
    "lon": 12.1487557
  },
  "nodes": [
    900636792,
    462610334,
    462610371,
    900636794,
    900636795,
    900636792
  ],
  "tags": {
    "landuse": "cemetery",
    "name": "Friedhof Erkersreuth"
  }
},
{
  "type": "way",
  "id": 77340678,
  "center": {
    "lat": 50.3886807,
    "lon": 12.7681974
  },
  "nodes": [
    910357991,
    910357992,
    5486306063,
    5486306062,
    910357975,
    910357979,
    910357991
  ],
  "tags": {
    "landuse": "cemetery"
  }
},
{
  "type": "way",
  "id": 77401541,
  "center": {
    "lat": 50.3932202,
    "lon": 12.3295723
  },
  "nodes": [
    911077310,
    911077392,
    911077332,
    911077360,
    911077390,
    911077315,
    911077382,
    911077407,
    911077346,
    911077306,
    4283625492,
    911077385,
    911077301,
    1924844576,
    911077364,
    911077396,
    911077310
  ],
  "tags": {
    "landuse": "cemetery",
    "name": "Friedhof",
    "religion": "christian"
  }
},
{
  "type": "way",
  "id": 77472421,
  "center": {
    "lat": 50.4132709,
    "lon": 12.9191177
  },
  "nodes": [
    911883250,
    911883394,
    911883174,
    3385803962,
    3385803973,
    4241108654,
    911883309,
    911883907,
    3385803968,
    3385803972,
    911883250
  ],
  "tags": {
    "landuse": "cemetery"
  }
},
{
  "type": "way",
  "id": 78057509,
  "center": {
    "lat": 50.1640939,
    "lon": 12.0451061
  },
  "nodes": [
    917072197,
    11401136246,
    11401136247,
    564279144,
    917072201,
    917072202,
    917072197
  ],
  "tags": {
    "landuse": "cemetery",
    "name": "Friedhof Spielberg"
  }
},
{
  "type": "way",
  "id": 79649115,
  "center": {
    "lat": 50.4394756,
    "lon": 12.4605571
  },
  "nodes": [
    929428765,
    929429057,
    929428856,
    929429053,
    929428793,
    929428917,
    929428765
  ],
  "tags": {
    "landuse": "cemetery"
  }
},
{
  "type": "way",
  "id": 82373169,
  "center": {
    "lat": 50.0363074,
    "lon": 12.2836545
  },
  "nodes": [
    959170078,
    959169962,
    8401540836,
    959170113,
    959169889,
    959170085,
    959170078
  ],
  "tags": {
    "landuse": "cemetery",
    "religion": "christian"
  }
},
{
  "type": "way",
  "id": 82378243,
  "center": {
    "lat": 50.7353490,
    "lon": 12.4735697
  },
  "nodes": [
    959189443,
    4752188748,
    4752188751,
    4752188752,
    4752188749,
    959194397,
    4752188750,
    959194398,
    959193964,
    959193966,
    959232654,
    959232655,
    959232656,
    959231539,
    959189449,
    959231935,
    959189443
  ],
  "tags": {
    "landuse": "cemetery",
    "name": "Friedhof Zwickau-Weißenborn"
  }
},
{
  "type": "way",
  "id": 82711240,
  "center": {
    "lat": 50.2625945,
    "lon": 12.2402599
  },
  "nodes": [
    962975010,
    962975012,
    962975013,
    962975015,
    962975017,
    962975010
  ],
  "tags": {
    "landuse": "cemetery"
  }
},
{
  "type": "way",
  "id": 82918529,
  "center": {
    "lat": 50.6094202,
    "lon": 12.6813324
  },
  "nodes": [
    964948398,
    964948374,
    964948426,
    6150871572,
    964948432,
    964948398
  ],
  "tags": {
    "denomination": "protestant",
    "landuse": "cemetery",
    "name": "Friedhof Schlema",
    "religion": "christian"
  }
},
{
  "type": "way",
  "id": 85421293,
  "center": {
    "lat": 50.4350214,
    "lon": 12.4160984
  },
  "nodes": [
    990260012,
    990259780,
    990259841,
    990259953,
    990260053,
    990259737,
    990260012
  ],
  "tags": {
    "denomination": "protestant",
    "landuse": "cemetery",
    "name": "Hammerbrücke",
    "religion": "christian"
  }
},
{
  "type": "way",
  "id": 85660888,
  "center": {
    "lat": 50.3524635,
    "lon": 12.4334619
  },
  "nodes": [
    993814013,
    993814364,
    12167178926,
    12167178931,
    12167178927,
    993813896,
    993814119,
    12167178925,
    12167178928,
    233004010,
    993814013
  ],
  "tags": {
    "addr:city": "Klingenthal",
    "addr:country": "DE",
    "addr:postcode": "08267",
    "addr:street": "Friedhofsweg",
    "addr:suburb": "Zwota",
    "amenity": "grave_yard",
    "name": "Friedhof Zwota",
    "religion": "christian"
  }
},
{
  "type": "way",
  "id": 85802581,
  "center": {
    "lat": 50.6672603,
    "lon": 12.8354048
  },
  "nodes": [
    634338899,
    634338896,
    847302599,
    1969467571,
    847302596,
    847302583,
    641428915,
    996045557,
    2275206094,
    679039027,
    1969467575,
    679039026,
    1969467579,
    1969467578,
    1969467576,
    641417552,
    679039031,
    641428925,
    1969467574,
    8740445272,
    996045556,
    641428927,
    1969467584,
    634338906,
    1969467588,
    843491117,
    712956029,
    634338899
  ],
  "tags": {
    "landuse": "cemetery",
    "name": "Friedhof Dorfchemnitz"
  }
},
{
  "type": "way",
  "id": 85987617,
  "center": {
    "lat": 50.9936323,
    "lon": 12.5703129
  },
  "nodes": [
    998042022,
    998042005,
    998041912,
    998041927,
    998041992,
    5316216233,
    998041958,
    998042032,
    998042022
  ],
  "tags": {
    "addr:city": "Frohburg",
    "addr:postcode": "04654",
    "addr:street": "Kirchberg",
    "addr:suburb": "Altmörbitz",
    "amenity": "grave_yard",
    "denomination": "protestant",
    "name": "Friedhof Altmörbitz",
    "religion": "christian"
  }
},
{
  "type": "way",
  "id": 88266567,
  "center": {
    "lat": 50.1708206,
    "lon": 12.1384271
  },
  "nodes": [
    1025338857,
    2339192700,
    2339192726,
    2339192730,
    1025338854,
    1025338846,
    2339192715,
    1025338848,
    1025338851,
    1025338847,
    2339192722,
    1025338857
  ],
  "tags": {
    "landuse": "cemetery",
    "religion": "christian"
  }
},
{
  "type": "way",
  "id": 89201612,
  "center": {
    "lat": 50.5176176,
    "lon": 12.9441929
  },
  "nodes": [
    1035270671,
    11211353334,
    11211353333,
    11211377869,
    1035270668,
    1035270650,
    11211353335,
    1035270655,
    11211353336,
    1035270657,
    1035270652,
    11211353332,
    1035270646,
    1035270666,
    1035270644,
    1035270671
  ],
  "tags": {
    "landuse": "cemetery",
    "name": "Friedhof Crottendorf"
  }
},
{
  "type": "way",
  "id": 90017755,
  "center": {
    "lat": 50.2340827,
    "lon": 12.2342891
  },
  "nodes": [
    1043450967,
    1043451042,
    1043451033,
    1043451002,
    1043450967
  ],
  "tags": {
    "landuse": "cemetery"
  }
},
{
  "type": "way",
  "id": 91809741,
  "center": {
    "lat": 50.9816361,
    "lon": 12.3366104
  },
  "nodes": [
    2129230853,
    2129230856,
    2129230867,
    1066840520,
    1066840519,
    2129230853
  ],
  "tags": {
    "landuse": "cemetery",
    "name": "Friedhof Tegkwitz"
  }
},
{
  "type": "way",
  "id": 92413251,
  "center": {
    "lat": 50.9758990,
    "lon": 12.3569159
  },
  "nodes": [
    1072751767,
    8589156351,
    1072751758,
    1072751777,
    8589156353,
    1072751754,
    1072751767
  ],
  "tags": {
    "barrier": "wall",
    "landuse": "cemetery",
    "wikidata": "Q134312232"
  }
},
{
  "type": "way",
  "id": 93363667,
  "center": {
    "lat": 50.8355200,
    "lon": 12.8336931
  },
  "nodes": [
    1082619795,
    6426801609,
    1082619794,
    8151916307,
    8151916316,
    8151916312,
    8151916315,
    8151916302,
    6440943070,
    6440943053,
    8151935131,
    1082619797,
    4768421669,
    4768421657,
    4793797833,
    4793797187,
    1082619795
  ],
  "tags": {
    "landuse": "cemetery",
    "religion": "christian"
  }
},
{
  "type": "way",
  "id": 95017849,
  "center": {
    "lat": 50.7045800,
    "lon": 12.7732186
  },
  "nodes": [
    1391249137,
    1102509844,
    1102509845,
    1102509770,
    1102509765,
    4005761337,
    1102509787,
    2861545647,
    1102509785,
    1102509786,
    2195244098,
    1102509803,
    1102509764,
    1102509738,
    1102509782,
    1102509835,
    4681917460,
    2861545657,
    1102509774,
    1391249137
  ],
  "tags": {
    "barrier": "fence",
    "landuse": "cemetery",
    "religion": "christian"
  }
},
{
  "type": "way",
  "id": 95427470,
  "center": {
    "lat": 50.8960404,
    "lon": 12.3637044
  },
  "nodes": [
    1106508218,
    12777479783,
    1106508253,
    1106508247,
    1106508232,
    5745529977,
    1106508218
  ],
  "tags": {
    "landuse": "cemetery",
    "name": "Oberer Friedhof"
  }
},
{
  "type": "way",
  "id": 95427471,
  "center": {
    "lat": 50.8973270,
    "lon": 12.3601775
  },
  "nodes": [
    1106508226,
    1106508185,
    1176969975,
    1106508201,
    12777479767,
    1106508193,
    1176969969,
    1106508251,
    1106508240,
    1106508226
  ],
  "tags": {
    "landuse": "cemetery",
    "name": "Unterer Friedhof"
  }
},
{
  "type": "way",
  "id": 96254902,
  "center": {
    "lat": 50.4988405,
    "lon": 12.7609050
  },
  "nodes": [
    1115716734,
    499594937,
    499594931,
    3787770904,
    499594935,
    499594933,
    1115716734
  ],
  "tags": {
    "landuse": "cemetery"
  }
},
{
  "type": "way",
  "id": 96312112,
  "center": {
    "lat": 50.9563957,
    "lon": 12.2762695
  },
  "nodes": [
    1116286440,
    1116286432,
    2128118923,
    2128118919,
    1116286387,
    1116286250,
    1116286448,
    2128118886,
    1116286440
  ],
  "tags": {
    "amenity": "grave_yard",
    "barrier": "wall",
    "religion": "christian",
    "wikidata": "Q136455089"
  }
},
{
  "type": "way",
  "id": 97448311,
  "center": {
    "lat": 50.5796136,
    "lon": 12.8685503
  },
  "nodes": [
    1128499255,
    3690830980,
    3690830979,
    1128499134,
    1128499305,
    1128499131,
    1128499257,
    1128499265,
    1128499164,
    3690830982,
    3690830983,
    3690830976,
    1128499304,
    1128499261,
    1128499267,
    3690830977,
    3690830978,
    1128499214,
    3690830981,
    1128499218,
    1128499255
  ],
  "tags": {
    "landuse": "cemetery"
  }
},
{
  "type": "way",
  "id": 97950444,
  "center": {
    "lat": 50.0096927,
    "lon": 12.6270030
  },
  "nodes": [
    1133701623,
    1133701626,
    1133701635,
    1133701604,
    1133701613,
    8297270215,
    1133701636,
    1133701580,
    1133701619,
    1133701627,
    1133701584,
    1133701605,
    1133701631,
    1133701637,
    1133701623
  ],
  "tags": {
    "amenity": "grave_yard",
    "religion": "christian"
  }
},
{
  "type": "way",
  "id": 98282542,
  "center": {
    "lat": 50.0258932,
    "lon": 12.5612618
  },
  "nodes": [
    1137198957,
    1137198965,
    1137198963,
    1137198959,
    1137198955,
    1137198957
  ],
  "tags": {
    "barrier": "wall",
    "historic": "ruins",
    "landuse": "cemetery",
    "name": "židovský hřbitov",
    "name:cs": "židovský hřbitov",
    "name:de": "Jüdischer Friedhof",
    "religion": "jewish",
    "website": "https://www.slavkovsky-les.cz/zajimava-mista-slavkovskeho-lesa/zidovsky-hrbitov-v-uboci/",
    "wikidata": "Q14807107",
    "wikipedia": "cs:Židovský hřbitov v Úbočí"
  }
},
{
  "type": "way",
  "id": 100974928,
  "center": {
    "lat": 50.8983091,
    "lon": 12.7199874
  },
  "nodes": [
    1166383977,
    3267010387,
    568438842,
    3267010388,
    1067738242,
    1067738262,
    1067738284,
    1067738306,
    10695343158,
    1166383984,
    1166383976,
    1166383972,
    1166383971,
    10683966054,
    317182772,
    1080740281,
    1080740409,
    1080740892,
    1080740438,
    1080740738,
    1080740776,
    9163083575,
    1166383977
  ],
  "tags": {
    "barrier": "wall",
    "denomination": "protestant",
    "landuse": "cemetery",
    "religion": "christian"
  }
},
{
  "type": "way",
  "id": 102697826,
  "center": {
    "lat": 50.9318425,
    "lon": 12.7040255
  },
  "nodes": [
    300559611,
    13018817940,
    1186119092,
    1186119210,
    1186119717,
    1026422072,
    3789186418,
    13030274267,
    11756380354,
    11756380353,
    11756380352,
    11756380351,
    3077769790,
    11756380350,
    11756380349,
    11756380348,
    3270407345,
    5230414193,
    3270407347,
    3270407346,
    11756380347,
    11756380346,
    11756380345,
    11756380344,
    11756380343,
    11756380342,
    11756380341,
    11756380340,
    11756380339,
    11756380338,
    1186119136,
    300559611
  ],
  "tags": {
    "landuse": "cemetery"
  }
},
{
  "type": "way",
  "id": 104021958,
  "center": {
    "lat": 50.7991635,
    "lon": 12.9555964
  },
  "nodes": [
    1200484644,
    1200484625,
    1200484646,
    1200484623,
    1200484642,
    1200484617,
    1200484620,
    1200484644
  ],
  "tags": {
    "denomination": "lutheran",
    "landuse": "cemetery",
    "name": "Friedhof Reichenhain",
    "operator": "Ev.-Luth. Christuskirchgemeinde",
    "religion": "christian",
    "website": "http://ckgc.de/friedhöfe.html"
  }
},
{
  "type": "way",
  "id": 104053590,
  "center": {
    "lat": 50.7518422,
    "lon": 12.8754795
  },
  "nodes": [
    1200827609,
    1200827670,
    1277238973,
    1200827615,
    1200827641,
    1277238991,
    1200827609
  ],
  "tags": {
    "amenity": "grave_yard",
    "denomination": "lutheran",
    "name": "Friedhof Adorf",
    "religion": "christian"
  }
},
{
  "type": "way",
  "id": 105579914,
  "center": {
    "lat": 50.5216786,
    "lon": 12.2382021
  },
  "nodes": [
    255998173,
    2014307040,
    1275517161,
    1863397320,
    2017937450,
    1215811963,
    2017937451,
    1215811955,
    1215811954,
    1275517159,
    2017937471,
    255998173
  ],
  "tags": {
    "landuse": "cemetery"
  }
},
{
  "type": "way",
  "id": 106177316,
  "center": {
    "lat": 50.6737369,
    "lon": 12.9600230
  },
  "nodes": [
    1222317718,
    1222317853,
    1222317650,
    1222317608,
    1222317718
  ],
  "tags": {
    "amenity": "grave_yard",
    "description": "Ehemaliger Pestfriedhof von Thum??",
    "name": "Wettinplatz",
    "source": "https://kartenforum.slub-dresden.de/vkviewer?%3Fwelcomepage=off&z=11&c=12.9596%2C50.6737&oid=oai%3Ade%3Aslub-dresden%3Avk%3Aid-10010427%2C"
  }
},
{
  "type": "way",
  "id": 106653111,
  "center": {
    "lat": 50.0137287,
    "lon": 12.0101612
  },
  "nodes": [
    1226835519,
    3051995363,
    1226835518,
    1226835515,
    3051995364,
    1226835516,
    1226835517,
    1226835519
  ],
  "tags": {
    "amenity": "grave_yard",
    "denomination": "lutheran",
    "landuse": "cemetery",
    "religion": "christian"
  }
},
{
  "type": "way",
  "id": 107691096,
  "center": {
    "lat": 50.4159765,
    "lon": 12.9873935
  },
  "nodes": [
    1237180560,
    1237180424,
    1237180521,
    3902841604,
    1237180454,
    1237180560
  ],
  "tags": {
    "barrier": "wall",
    "denomination": "roman_catholic",
    "landuse": "cemetery",
    "religion": "christian"
  }
},
{
  "type": "way",
  "id": 107790925,
  "center": {
    "lat": 50.0139007,
    "lon": 12.6282106
  },
  "nodes": [
    1238203459,
    1238203473,
    1238203449,
    1238203433,
    13061259437,
    1238203405,
    1238203459
  ],
  "tags": {
    "amenity": "grave_yard",
    "religion": "jewish"
  }
},
{
  "type": "way",
  "id": 107904333,
  "center": {
    "lat": 50.8645157,
    "lon": 12.2636604
  },
  "nodes": [
    1239218119,
    1239218020,
    1239217990,
    1239218082,
    7729196501,
    7729196498,
    1239218119
  ],
  "tags": {
    "barrier": "wall",
    "landuse": "cemetery",
    "name": "Friedhof Posterstein"
  }
},
{
  "type": "way",
  "id": 108932629,
  "center": {
    "lat": 50.8782397,
    "lon": 12.9724025
  },
  "nodes": [
    30366082,
    1248528500,
    1248528498,
    1248528494,
    30366071,
    30366074,
    1248781197,
    12006415565,
    30366082
  ],
  "tags": {
    "denomination": "lutheran",
    "landuse": "cemetery",
    "name": "Stiftsfriedhof Ebersdorf",
    "operator": "Ev.-Luth. Segenskirchgemeinde Chemnitz Nord",
    "religion": "christian",
    "website": "https://segenskirchgemeinde-chemnitz.de/stiftsfriedhof-ebersdorf"
  }
},
{
  "type": "way",
  "id": 109602198,
  "center": {
    "lat": 50.8125066,
    "lon": 12.8341837
  },
  "nodes": [
    1254332015,
    1254331913,
    1254332095,
    1254332339,
    1254332027,
    1254332309,
    10885989844,
    10885989843,
    1254331986,
    1254332039,
    1254332267,
    1254332015
  ],
  "tags": {
    "landuse": "cemetery",
    "name": "Friedhof Reichenbrand"
  }
},
{
  "type": "way",
  "id": 111593780,
  "center": {
    "lat": 50.9185176,
    "lon": 12.9195902
  },
  "nodes": [
    8406617452,
    1271030032,
    8406617455,
    8406617471,
    11757629901,
    11757629902,
    11757614468,
    8406617452
  ],
  "tags": {
    "landuse": "cemetery",
    "name": "Garnsdorfer Friedhof",
    "source": "Bing"
  }
},
{
  "type": "way",
  "id": 111873677,
  "center": {
    "lat": 50.7720713,
    "lon": 12.8543359
  },
  "nodes": [
    1273739111,
    1273739003,
    1273739063,
    1273739125,
    1273739111
  ],
  "tags": {
    "amenity": "grave_yard",
    "name": "Tierfriedhof Neukirchen"
  }
},
{
  "type": "way",
  "id": 112320480,
  "center": {
    "lat": 50.8477491,
    "lon": 12.7181649
  },
  "nodes": [
    1277002679,
    1277002693,
    1277002670,
    1277002704,
    3059900196,
    1277002676,
    1277002685,
    1277002679
  ],
  "tags": {
    "denomination": "protestant",
    "landuse": "cemetery",
    "name": "Friedhof Rußdorf",
    "religion": "christian"
  }
},
{
  "type": "way",
  "id": 113279431,
  "center": {
    "lat": 50.8403680,
    "lon": 12.6836457
  },
  "nodes": [
    1285017352,
    1285017359,
    1285017356,
    1285017353,
    1285017351,
    1285017352
  ],
  "tags": {
    "landuse": "cemetery",
    "name": "Friedhof Falken"
  }
},
{
  "type": "way",
  "id": 114185960,
  "center": {
    "lat": 50.2451797,
    "lon": 12.0337419
  },
  "nodes": [
    1293753896,
    8071406631,
    8071406630,
    8071406629,
    8071406628,
    5435152303,
    5435152302,
    1293753892,
    8066362442,
    8066362441,
    11641411148,
    1293753900,
    1293753894,
    1293753898,
    1293753896
  ],
  "tags": {
    "landuse": "cemetery"
  }
},
{
  "type": "way",
  "id": 115850778,
  "center": {
    "lat": 50.5173417,
    "lon": 12.4074962
  },
  "nodes": [
    1307707863,
    1307707865,
    2709451072,
    1307707878,
    2709451071,
    2709451070,
    1307707867,
    1307707873,
    1307707859,
    1307707868,
    1307707882,
    1307707853,
    1307707884,
    1307707857,
    1307707866,
    1307707880,
    1307707874,
    1307707892,
    1307707861,
    5619731532,
    1307707869,
    1307707876,
    1307707895,
    1307707863
  ],
  "tags": {
    "denomination": "protestant",
    "landuse": "cemetery",
    "name": "Friedhof Auerbach",
    "religion": "christian"
  }
},
{
  "type": "way",
  "id": 116119003,
  "center": {
    "lat": 50.4048535,
    "lon": 12.1855491
  },
  "nodes": [
    1310258711,
    3587884113,
    3587884114,
    3587884115,
    1885671567,
    3587884116,
    3587884121,
    2878558668,
    12122008257,
    2878558677,
    7176223232,
    1310258717,
    1310258713,
    3528139607,
    3528139610,
    3528139611,
    1310258718,
    1310258711
  ],
  "tags": {
    "landuse": "cemetery",
    "name": "Hauptfriedhof Oelsnitz"
  }
},
{
  "type": "way",
  "id": 116700794,
  "center": {
    "lat": 50.3143558,
    "lon": 12.3624710
  },
  "nodes": [
    1314978680,
    1314978678,
    1314978619,
    1314978600,
    1314978610,
    1314978614,
    1314978680
  ],
  "tags": {
    "landuse": "cemetery",
    "name": "Friedhof Erlbach"
  }
},
{
  "type": "way",
  "id": 116850627,
  "center": {
    "lat": 50.4209501,
    "lon": 12.1004435
  },
  "nodes": [
    1316349339,
    1316349351,
    1316349354,
    1316349344,
    1316349340,
    1316349342,
    3384080665,
    1316349339
  ],
  "tags": {
    "landuse": "cemetery"
  }
},
{
  "type": "way",
  "id": 118353569,
  "center": {
    "lat": 50.6861413,
    "lon": 12.9118383
  },
  "nodes": [
    1331095340,
    3787416581,
    3787416580,
    3787416579,
    1331095379,
    3787416576,
    1331095332,
    1331095400,
    3787416577,
    689139681,
    1331095344,
    1331095340
  ],
  "tags": {
    "landuse": "cemetery"
  }
},
{
  "type": "way",
  "id": 119089887,
  "center": {
    "lat": 50.6374639,
    "lon": 12.2694615
  },
  "nodes": [
    1338897662,
    1338897649,
    2401630500,
    1338897668,
    1338897665,
    1338897662
  ],
  "tags": {
    "amenity": "grave_yard"
  }
},
{
  "type": "way",
  "id": 119212765,
  "center": {
    "lat": 50.8023234,
    "lon": 12.4287867
  },
  "nodes": [
    1340053766,
    1341982749,
    1340054791,
    1340054793,
    10746658775,
    10746685831,
    10746685830,
    10746685829,
    10746685828,
    1340054794,
    1340054795,
    1340053766
  ],
  "tags": {
    "landuse": "cemetery"
  }
},
{
  "type": "way",
  "id": 119490078,
  "center": {
    "lat": 50.3000109,
    "lon": 12.9397119
  },
  "nodes": [
    1342469284,
    1342468765,
    1342468662,
    5814891007,
    1342468759,
    1342468659,
    5814890997,
    1342468569,
    1342469257,
    1342469088,
    1342468940,
    1342468714,
    1342468931,
    1342468824,
    1342468707,
    11610382943,
    1342468609,
    1342469269,
    11610382942,
    1342468582,
    1342468669,
    11610382941,
    1342468772,
    11610382940,
    11610382937,
    11610382938,
    11610382939,
    1342469284
  ],
  "tags": {
    "barrier": "wall",
    "landuse": "cemetery",
    "religion": "christian"
  }
},
{
  "type": "way",
  "id": 120209554,
  "center": {
    "lat": 50.1058642,
    "lon": 12.1630938
  },
  "nodes": [
    1348371259,
    1348371257,
    2349282228,
    2349282220,
    1348371255,
    1348371253,
    1348371259
  ],
  "tags": {
    "amenity": "grave_yard"
  }
},
{
  "type": "way",
  "id": 122676951,
  "center": {
    "lat": 50.1799912,
    "lon": 12.5513098
  },
  "nodes": [
    1370132832,
    1370132840,
    11465916962,
    1370132846,
    1370132813,
    1370132839,
    11468760411,
    11468760409,
    11191368573,
    1370132809,
    1370132802,
    1370113519,
    11191368574,
    1370113548,
    1370113570,
    1370132832
  ],
  "tags": {
    "barrier": "wall",
    "landuse": "cemetery"
  }
},
{
  "type": "way",
  "id": 122735355,
  "center": {
    "lat": 50.2139510,
    "lon": 12.3578620
  },
  "nodes": [
    1370706905,
    1370707179,
    1370707094,
    1370707014,
    1370706576,
    1370706754,
    1370706905
  ],
  "tags": {
    "barrier": "wall",
    "landuse": "cemetery"
  }
},
{
  "type": "way",
  "id": 122991281,
  "center": {
    "lat": 50.3652726,
    "lon": 12.7879989
  },
  "nodes": [
    1372713179,
    1372713548,
    1372713216,
    2871609974,
    1372713111,
    1372713179
  ],
  "tags": {
    "barrier": "wall",
    "landuse": "cemetery"
  }
},
{
  "type": "way",
  "id": 123632239,
  "center": {
    "lat": 50.7562195,
    "lon": 12.3223291
  },
  "nodes": [
    1377913029,
    1377913017,
    1377913013,
    1377913018,
    2251118846,
    2251118826,
    2251118779,
    1377913015,
    2251118640,
    1377913011,
    2251118617,
    2251118620,
    9772590155,
    9772590154,
    1377913009,
    9772590153,
    1377913021,
    1377913049,
    9772590152,
    9772590151,
    9772590150,
    1377913029
  ],
  "tags": {
    "landuse": "cemetery"
  }
},
{
  "type": "way",
  "id": 123632242,
  "center": {
    "lat": 50.7476488,
    "lon": 12.3015676
  },
  "nodes": [
    1377913034,
    1377913026,
    2251117728,
    1377913057,
    2251117593,
    2251117559,
    2251117571,
    1377913059,
    1377913055,
    1377913096,
    2251117731,
    1377913002,
    2251117739,
    2251117746,
    1377913034
  ],
  "tags": {
    "landuse": "cemetery"
  }
},
{
  "type": "way",
  "id": 124068138,
  "center": {
    "lat": 50.8268358,
    "lon": 12.9538151
  },
  "nodes": [
    1381782136,
    2958868463,
    2958868462,
    2958868461,
    2958868459,
    1381782124,
    1381850423,
    1381782126,
    1381782127,
    1381782137,
    1381850425,
    1381782136
  ],
  "tags": {
    "alt_name": "Friedhof Gablenz",
    "denomination": "lutheran",
    "landuse": "cemetery",
    "name": "St.-Andreas-Friedhof",
    "religion": "christian",
    "url": "https://andreaskirche-chemnitz.de/friedhofsordnung/",
    "website": "https://andreaskirche-chemnitz.de/andreas-friedhof/"
  }
},
{
  "type": "way",
  "id": 125492849,
  "center": {
    "lat": 50.7980942,
    "lon": 12.7966198
  },
  "nodes": [
    1393704332,
    1393704326,
    1393704325,
    1393704327,
    1393704332
  ],
  "tags": {
    "landuse": "cemetery",
    "name": "Friedhof Mittelbach"
  }
},
{
  "type": "way",
  "id": 125911424,
  "center": {
    "lat": 50.7623112,
    "lon": 12.7618207
  },
  "nodes": [
    1397158529,
    1397158440,
    1397158455,
    1397158517,
    1397158544,
    1397158579,
    1397158600,
    1397158526,
    1397158550,
    1397158529
  ],
  "tags": {
    "amenity": "grave_yard",
    "name": "Friedhof Kirchberg"
  }
},
{
  "type": "way",
  "id": 126109275,
  "center": {
    "lat": 50.7467736,
    "lon": 12.6741456
  },
  "nodes": [
    1398907537,
    1365426521,
    1365426514,
    1365426513,
    1365426515,
    1429309180,
    1398907492,
    1398907522,
    1431298010,
    1431298012,
    1398907537
  ],
  "tags": {
    "denomination": "protestant",
    "landuse": "cemetery",
    "name": "Friedhof",
    "religion": "christian"
  }
},
{
  "type": "way",
  "id": 127219223,
  "center": {
    "lat": 50.5301932,
    "lon": 12.2491620
  },
  "nodes": [
    1408676246,
    203682810,
    2365555257,
    1275435860,
    1408676249,
    1408676246
  ],
  "tags": {
    "amenity": "grave_yard"
  }
},
{
  "type": "way",
  "id": 127720102,
  "center": {
    "lat": 50.2217096,
    "lon": 12.2637558
  },
  "nodes": [
    1412998488,
    1412998490,
    1412998498,
    1412998497,
    1412998488
  ],
  "tags": {
    "landuse": "cemetery"
  }
},
{
  "type": "way",
  "id": 127998255,
  "center": {
    "lat": 50.6227456,
    "lon": 12.2624017
  },
  "nodes": [
    1415460738,
    1415460739,
    1415460749,
    1415460746,
    1416663199,
    1415460740,
    1416409159,
    6003550691,
    1416409157,
    1415460747,
    1415460734,
    1415460737,
    1415460750,
    1415460751,
    1415460755,
    1415460753,
    1415460733,
    2405214092,
    1415460748,
    1415460754,
    1416463080,
    1415460738
  ],
  "tags": {
    "amenity": "grave_yard",
    "religion": "christian"
  }
},
{
  "type": "way",
  "id": 128027747,
  "center": {
    "lat": 50.6192055,
    "lon": 12.5304706
  },
  "nodes": [
    1415728425,
    1415728407,
    1415728423,
    1415728419,
    1415728413,
    1415728417,
    1415728432,
    1415728411,
    1415728409,
    1415728427,
    1415728421,
    1415728405,
    1415728418,
    1415728425
  ],
  "tags": {
    "landuse": "cemetery",
    "name:signed": "no"
  }
},
{
  "type": "way",
  "id": 128319167,
  "center": {
    "lat": 50.5264109,
    "lon": 12.3401111
  },
  "nodes": [
    3202818221,
    3202818227,
    1418394907,
    415562734,
    3202818216,
    3202818215,
    3202818207,
    415540873,
    3202818201,
    3202818199,
    3202818202,
    3202818221
  ],
  "tags": {
    "amenity": "grave_yard",
    "name": "Friedhof Schreiersgrün",
    "religion": "christian"
  }
},
{
  "type": "way",
  "id": 131746779,
  "center": {
    "lat": 50.4883258,
    "lon": 12.3798024
  },
  "nodes": [
    1449582096,
    3352224434,
    3352224432,
    3352494862,
    1449582070,
    1449582097,
    3129119133,
    3354214778,
    1449582093,
    1449582094,
    1449582098,
    13116331613,
    3352149951,
    1449582079,
    3352149952,
    3352149949,
    3352149944,
    1449582096
  ],
  "tags": {
    "landuse": "cemetery",
    "name": "Friedhof Falkenstein"
  }
},
{
  "type": "way",
  "id": 135050700,
  "center": {
    "lat": 50.9194871,
    "lon": 12.8400563
  },
  "nodes": [
    469239687,
    1779233965,
    1483681389,
    1779233942,
    1779233941,
    1779233940,
    1483681383,
    1483681384,
    469239687
  ],
  "tags": {
    "landuse": "cemetery"
  }
},
{
  "type": "way",
  "id": 135155855,
  "center": {
    "lat": 50.9390995,
    "lon": 12.8816732
  },
  "nodes": [
    1484569127,
    4268156832,
    1484569128,
    1484569121,
    1484569124,
    1484569127
  ],
  "tags": {
    "landuse": "cemetery"
  }
},
{
  "type": "way",
  "id": 136483480,
  "center": {
    "lat": 50.3591936,
    "lon": 12.5234865
  },
  "nodes": [
    1497136876,
    1497136792,
    1497136793,
    1497136887,
    1497136889,
    1497136891,
    1497136876
  ],
  "tags": {
    "landuse": "cemetery",
    "religion": "christian"
  }
},
{
  "type": "way",
  "id": 139302497,
  "center": {
    "lat": 50.7752076,
    "lon": 12.3960648
  },
  "nodes": [
    1527193915,
    1527193905,
    1527194031,
    1527193995,
    1527194001,
    1527194059,
    1527194004,
    1527194036,
    1527193915
  ],
  "tags": {
    "amenity": "grave_yard"
  }
},
{
  "type": "way",
  "id": 142710723,
  "center": {
    "lat": 50.6073718,
    "lon": 12.9471602
  },
  "nodes": [
    1561793995,
    1693582018,
    1693581997,
    1693581992,
    1693581988,
    1561793953,
    1561793974,
    1561793952,
    1561793975,
    1561793995
  ],
  "tags": {
    "landuse": "cemetery",
    "name": "Friedhof Tannenberg"
  }
},
{
  "type": "way",
  "id": 144746478,
  "center": {
    "lat": 50.6323925,
    "lon": 12.3066477
  },
  "nodes": [
    1582650557,
    2917975933,
    5611501815,
    1582650553,
    1582650558,
    2330689409,
    1582650556,
    5108604605,
    11738003754,
    1582650557
  ],
  "tags": {
    "barrier": "wall",
    "landuse": "cemetery",
    "name": "Hauptfriedhof"
  }
},
{
  "type": "way",
  "id": 147038991,
  "center": {
    "lat": 50.4820871,
    "lon": 12.9718568
  },
  "nodes": [
    1602337851,
    1629883208,
    1629883200,
    1602337844,
    6964664044,
    1644866566,
    1602337846,
    6964664043,
    1602337845,
    1602337851
  ],
  "tags": {
    "amenity": "grave_yard"
  }
},
{
  "type": "way",
  "id": 150388167,
  "center": {
    "lat": 50.7873845,
    "lon": 12.7212232
  },
  "nodes": [
    1503392023,
    1503869032,
    1633057039,
    1633057040,
    1633057041,
    1633057043,
    1633057045,
    1676079838,
    1633057046,
    1633057047,
    1633057048,
    1676079851,
    1633057049,
    1503392023
  ],
  "tags": {
    "landuse": "cemetery",
    "source": "Bing"
  }
},
{
  "type": "way",
  "id": 151368653,
  "center": {
    "lat": 50.7872062,
    "lon": 12.7305510
  },
  "nodes": [
    1641950936,
    1641950938,
    1641950940,
    1641950942,
    1641950944,
    1641950946,
    1641950947,
    1641950936
  ],
  "tags": {
    "landuse": "cemetery",
    "source": "Bing"
  }
},
{
  "type": "way",
  "id": 152381925,
  "center": {
    "lat": 50.7995421,
    "lon": 12.2215951
  },
  "nodes": [
    1652026593,
    1652026440,
    7797028994,
    7616875676,
    7797028995,
    7797028996,
    7797028997,
    1652026491,
    7797028998,
    1652026753,
    1652026730,
    1652026643,
    1652026593
  ],
  "tags": {
    "landuse": "cemetery"
  }
},
{
  "type": "way",
  "id": 153311947,
  "center": {
    "lat": 50.6613861,
    "lon": 12.6690039
  },
  "nodes": [
    1660235800,
    1660235797,
    1660235815,
    1660235837,
    2864796723,
    2864796726,
    1660235858,
    1660235866,
    1660235814,
    1660235800
  ],
  "tags": {
    "landuse": "cemetery"
  }
},
{
  "type": "way",
  "id": 153840855,
  "center": {
    "lat": 50.9029072,
    "lon": 12.0458486
  },
  "nodes": [
    1664715069,
    1664715062,
    3988371683,
    1664715063,
    1664715065,
    1664715066,
    1664715068,
    3988371684,
    1664715083,
    1664715090,
    1664715091,
    1664715085,
    1664715074,
    1664715073,
    1664715069
  ],
  "tags": {
    "landuse": "cemetery",
    "wikidata": "Q136530398"
  }
},
{
  "type": "way",
  "id": 155581880,
  "center": {
    "lat": 50.4707071,
    "lon": 12.2760629
  },
  "nodes": [
    1679759666,
    1679759656,
    1679759660,
    1679759673,
    1679759668,
    1679759667,
    1679759683,
    1679759666
  ],
  "tags": {
    "landuse": "cemetery"
  }
},
{
  "type": "way",
  "id": 155907064,
  "center": {
    "lat": 50.4512017,
    "lon": 12.3604890
  },
  "nodes": [
    1682537967,
    1682537953,
    1682537947,
    1682537884,
    1682537913,
    1682537963,
    1682537967
  ],
  "tags": {
    "landuse": "cemetery"
  }
},
{
  "type": "way",
  "id": 158703128,
  "center": {
    "lat": 50.4584374,
    "lon": 12.0726026
  },
  "nodes": [
    1708599146,
    1708599144,
    2417737621,
    2417737620,
    1708599135,
    1708599138,
    5956535920,
    1708599140,
    1708599141,
    1708599146
  ],
  "tags": {
    "fixme": "Verlauf geschätzt",
    "landuse": "cemetery"
  }
},
{
  "type": "way",
  "id": 158797765,
  "center": {
    "lat": 50.2482534,
    "lon": 12.8171686
  },
  "nodes": [
    1709294128,
    1709294127,
    1709294124,
    284055755,
    284055757,
    1709294128
  ],
  "tags": {
    "landuse": "cemetery",
    "name": "hřbitov ve Staré Roli"
  }
},
{
  "type": "way",
  "id": 158885479,
  "center": {
    "lat": 50.6573494,
    "lon": 12.4697215
  },
  "nodes": [
    1710117031,
    2266247563,
    1710116978,
    1710116939,
    1710116996,
    1710117014,
    1710117031
  ],
  "tags": {
    "amenity": "grave_yard"
  }
},
{
  "type": "way",
  "id": 161653198,
  "center": {
    "lat": 50.7369237,
    "lon": 12.9596572
  },
  "nodes": [
    1736243930,
    1736243937,
    1736243924,
    1736243933,
    1736243931,
    1736243935,
    1736243930
  ],
  "tags": {
    "check_date": "2024-04-15",
    "landuse": "cemetery",
    "name": "Friedhof Kemtau"
  }
},
{
  "type": "way",
  "id": 161762875,
  "center": {
    "lat": 50.4352805,
    "lon": 12.0733732
  },
  "nodes": [
    1737253279,
    1737253278,
    1737253285,
    1737253286,
    1737253279
  ],
  "tags": {
    "amenity": "grave_yard",
    "name": "Grabstätte Oberweischlitz Fam. Kasten",
    "religion": "christian"
  }
},
{
  "type": "way",
  "id": 162362806,
  "center": {
    "lat": 50.8093964,
    "lon": 12.9614752
  },
  "nodes": [
    1742715293,
    760276046,
    1742715298,
    760276152,
    8712961564,
    1742715297,
    1742715294,
    2522321553,
    1742715293
  ],
  "tags": {
    "addr:housenumber": "5",
    "addr:postcode": "09125",
    "addr:street": "Richterweg",
    "amenity": "grave_yard",
    "name": "Sowjetischer Garnisonfriedhof",
    "website": "https://www.stsg.de/cms/dokstelle/chemnitz-reichenhain"
  }
},
{
  "type": "way",
  "id": 162382842,
  "center": {
    "lat": 50.4277464,
    "lon": 12.0378271
  },
  "nodes": [
    2561302620,
    1742868959,
    1106140217,
    1106139923,
    2561302617,
    2561302618,
    2561302620
  ],
  "tags": {
    "landuse": "cemetery"
  }
},
{
  "type": "way",
  "id": 165387028,
  "center": {
    "lat": 50.6264454,
    "lon": 12.0420109
  },
  "nodes": [
    598114900,
    5303525375,
    5303525381,
    1769376019,
    1769376008,
    1769376017,
    598114900
  ],
  "tags": {
    "landuse": "cemetery",
    "wikidata": "Q113045496"
  }
},
{
  "type": "way",
  "id": 165814142,
  "center": {
    "lat": 50.5367583,
    "lon": 12.6216874
  },
  "nodes": [
    1773419319,
    9986525426,
    9986514356,
    1773419318,
    9986514357,
    9986525427,
    1773419320,
    9986514358,
    9986514355,
    1773407649,
    1773407647,
    1773407650,
    1773419319
  ],
  "tags": {
    "landuse": "cemetery",
    "source": "knowledge"
  }
},
{
  "type": "way",
  "id": 168643879,
  "center": {
    "lat": 50.7219392,
    "lon": 12.7342222
  },
  "nodes": [
    1798697488,
    1798697493,
    13143016764,
    1798697495,
    13143117897,
    13143117896,
    12784198404,
    1798697491,
    1798697488
  ],
  "tags": {
    "amenity": "grave_yard",
    "denomination": "protestant",
    "name": "Friedhof Neuoelsnitz",
    "religion": "christian"
  }
},
{
  "type": "way",
  "id": 173047714,
  "center": {
    "lat": 50.3555604,
    "lon": 12.3095288
  },
  "nodes": [
    1838742235,
    12868320144,
    12868320140,
    12868320141,
    12868320142,
    12868320143,
    1838742232,
    1838742235
  ],
  "tags": {
    "amenity": "grave_yard"
  }
},
{
  "type": "way",
  "id": 174779278,
  "center": {
    "lat": 50.3708884,
    "lon": 12.2709541
  },
  "nodes": [
    1854416462,
    1854416372,
    1854416429,
    1854416483,
    1854416582,
    1854416462
  ],
  "tags": {
    "amenity": "grave_yard",
    "denomination": "lutheran",
    "religion": "christian"
  }
},
{
  "type": "way",
  "id": 175856456,
  "center": {
    "lat": 50.4406616,
    "lon": 12.2465187
  },