{
  "version": 0.6,
  "generator": "Overpass API 0.7.62.8 e802775f",
  "osm3s": {
    "timestamp_osm_base": "2025-11-02T22:55:22Z",
    "copyright": "The data included in this document is from www.openstreetmap.org. The data is made available under ODbL."
  },
  "elements": [

{
  "type": "way",
  "id": 18345934,
  "center": {
    "lat": 51.1826026,
    "lon": 14.4392014
  },
  "nodes": [
    11945008455,
    1327804676,
    737661617,
    189109643,
    6844566555,
    6844566553,
    6844566554,
    6844566552,
    1327804659,
    1246141708,
    4818670242,
    292114008,
    1209041625,
    1329545347,
    1253176806,
    11945008426,
    11945008427,
    9692591139,
    11945008431,
    4949237877,
    738654276,
    4442580347,
    4442580329,
    4442580330,
    4442580331,
    4442580344,
    4945546954,
    189109691,
    632543951,
    632543950,
    11945008455
  ],
  "tags": {
    "alt_name": "Gottesacker zum Taucher",
    "denomination": "lutheran",
    "heritage": "4",
    "heritage:operator": "lfd",
    "landuse": "cemetery",
    "name": "Taucherfriedhof",
    "name:hsb": "Tuchorski kěrchow",
    "ref:lfd": "09301756",
    "religion": "christian",
    "url": "https://www.sachsen-lausitz.de/bautzen/taucher-kirche.html",
    "website": "https://www.st-petri-bautzen.de/taucherfriedhof",
    "wheelchair": "limited",
    "wheelchair:description": "teilweise ohne Beh. WC",
    "wikidata": "Q32931065",
    "wikipedia": "hsb:Tuchorski kěrchow"
  }
},
{
  "type": "way",
  "id": 18349331,
  "center": {
    "lat": 51.1838598,
    "lon": 14.4222866
  },
  "nodes": [
    1317499222,
    1817586379,
    189137905,
    8505096961,
    11401557906,
    11401557905,
    11401557904,
    11401557909,
    11401557908,
    11401557907,
    11401557901,
    11401557902,
    11401557903,
    11401557900,
    8505096962,
    9260942986,
    189137912,
    9260942989,
    9260942990,
    189137928,
    7159390016,
    189137937,
    189137960,
    189137968,
    189137991,
    189138000,
    189138016,
    7159390031,
    9253844716,
    9254159931,
    9254159932,
    6739499114,
    9253371208,
    4552539167,
    1199369287,
    9260942988,
    1317499222
  ],
  "tags": {
    "addr:city": "Bautzen",
    "addr:country": "DE",
    "addr:housenumber": "1a",
    "addr:postcode": "02625",
    "addr:street": "Nicolaipforte",
    "denomination": "roman_catholic",
    "heritage": "4",
    "heritage:operator": "lfd",
    "landuse": "cemetery",
    "name": "Nicolaifriedhof",
    "name:hsb": "Mikławšk",
    "ref:lfd": "09301044",
    "religion": "christian",
    "start_date": "1455",
    "url": "https://www.dompfarrei-bautzen.de/friedhof-st-marien.html?file=files/Dompfarrei/Downloads/Friedhofsordnung_2016.pdf",
    "website": "https://www.dompfarrei-bautzen.de/friedhof-st-nicolai.html",
    "wheelchair": "no",
    "wheelchair:description": "keine Barrierefreiheit",
    "wikidata": "Q27654328",
    "wikimedia_commons": "Category:Nikolaifriedhof Bautzen",
    "wikipedia": "hsb:Mikławšk (Budyšin)"
  }
},
{
  "type": "way",
  "id": 23088825,
  "center": {
    "lat": 51.9113866,
    "lon": 14.1295780
  },
  "nodes": [
    1289237568,
    1289237559,
    1289237575,
    249234996,
    1289237555,
    1289237573,
    1289237564,
    1289237568
  ],
  "tags": {
    "landuse": "cemetery",
    "name": "Neuer Friedhof"
  }
},
{
  "type": "way",
  "id": 23088875,
  "center": {
    "lat": 51.9286631,
    "lon": 14.0477270
  },
  "nodes": [
    307382439,
    2273697376,
    2685282944,
    2685282902,
    2685282874,
    2685282883,
    307382437,
    2685282881,
    2685283012,
    626626116,
    2685283053,
    2685283056,
    2685385524,
    307382439
  ],
  "tags": {
    "landuse": "cemetery",
    "source": "Bing"
  }
},
{
  "type": "way",
  "id": 23183123,
  "center": {
    "lat": 51.8143793,
    "lon": 14.2487293
  },
  "nodes": [
    31668280,
    250696844,
    250696845,
    4605994334,
    1982082540,
    1982082541,
    4605994330,
    1982082542,
    31668280
  ],
  "tags": {
    "landuse": "cemetery",
    "religion": "christian"
  }
},
{
  "type": "way",
  "id": 23308300,
  "center": {
    "lat": 51.1237272,
    "lon": 14.2394969
  },
  "nodes": [
    250676290,
    5334947056,
    2295236291,
    12536425895,
    12467518412,
    12467518415,
    1721191134,
    1721191159,
    250676290
  ],
  "tags": {
    "landuse": "cemetery",
    "name": "Friedhof Schmölln"
  }
},
{
  "type": "way",
  "id": 23452153,
  "center": {
    "lat": 51.0485685,
    "lon": 14.0779175
  },
  "nodes": [
    253987388,
    540200190,
    253987389,
    531861658,
    4880001610,
    4880001611,
    8912215503,
    253987390,
    4880001613,
    7168918102,
    4880001614,
    253987391,
    8912215502,
    253987392,
    531863108,
    531863105,
    531861659,
    4876563547,
    253987388
  ],
  "tags": {
    "denomination": "protestant;catholic",
    "heritage": "4",
    "heritage:operator": "lfd",
    "landuse": "cemetery",
    "note": "Änderung zu cemetery, für graveyard zu groß",
    "ref:lfd": "09302107",
    "religion": "christian"
  }
},
{
  "type": "way",
  "id": 23893823,
  "center": {
    "lat": 51.9739847,
    "lon": 14.0517459
  },
  "nodes": [
    147930212,
    147930209,
    1839893894,
    1839893893,
    147930212
  ],
  "tags": {
    "landuse": "cemetery"
  }
},
{
  "type": "way",
  "id": 23969563,
  "center": {
    "lat": 51.0976890,
    "lon": 14.9113530
  },
  "nodes": [
    259843009,
    11556250217,
    259843010,
    11556250216,
    259843013,
    11556250215,
    11556250214,
    11556250213,
    11556250222,
    598972440,
    11556250221,
    11556250220,
    259843016,
    259843017,
    259843018,
    11556250219,
    11556250218,
    259843019,
    259843009
  ],
  "tags": {
    "barrier": "fence",
    "landuse": "cemetery"
  }
},
{
  "type": "way",
  "id": 24034989,
  "center": {
    "lat": 51.1437145,
    "lon": 14.9350153
  },
  "nodes": [
    260663508,
    3318707193,
    3318707197,
    260663509,
    3318707223,
    260663510,
    260663511,
    3318707198,
    260663508
  ],
  "tags": {
    "landuse": "cemetery",
    "name": "Friedhof Rauschwalde",
    "religion": "christian"
  }
},
{
  "type": "way",
  "id": 24035003,
  "center": {
    "lat": 51.1443257,
    "lon": 14.9364371
  },
  "nodes": [
    260663938,
    260663939,
    12140106419,
    12140106421,
    12140106423,
    12140106422,
    12140106420,
    260663940,
    260663941,
    260663938
  ],
  "tags": {
    "amenity": "grave_yard",
    "name": "Sowjetischer Soldatenfriedhof",
    "start_date": "1946-04-21",
    "wikimedia_commons": "File:Sowjetisches Kriegsdenkmal Görlitz-Rauschwalde.JPG"
  }
},
{
  "type": "way",
  "id": 24276071,
  "center": {
    "lat": 51.0838754,
    "lon": 14.4500963
  },
  "nodes": [
    2361696239,
    2361696236,
    1036484704,
    262845643,
    262845696,
    262845699,
    2361696245,
    6052738576,
    2361696239
  ],
  "tags": {
    "landuse": "cemetery"
  }
},
{
  "type": "way",
  "id": 24279135,
  "center": {
    "lat": 51.0789828,
    "lon": 14.4317681
  },
  "nodes": [
    13031540209,
    13031540203,
    262835490,
    262835489,
    262835486,
    262835485,
    262835484,
    262881139,
    11811591099,
    262881140,
    11811591098,
    262881141,
    262881142,
    262835516,
    464687534,
    1801835083,
    262881144,
    13031540216,
    262881146,
    13031540215,
    13031540214,
    13031540213,
    13031540212,
    13031540210,
    13031540211,
    13031540209
  ],
  "tags": {
    "landuse": "cemetery"
  }
},
{
  "type": "way",
  "id": 24456738,
  "center": {
    "lat": 51.8300001,
    "lon": 14.1543548
  },
  "nodes": [
    1056784820,
    442021854,
    442021851,
    442021844,
    442021850,
    442021846,
    1199958515,
    1199958523,
    1199958455,
    1199958549,
    1199958581,
    1199958487,
    1191311713,
    1056784820
  ],
  "tags": {
    "landuse": "cemetery",
    "name": "Friedhof Burg"
  }
},
{
  "type": "way",
  "id": 24484699,
  "center": {
    "lat": 51.2895755,
    "lon": 14.8234856
  },
  "nodes": [
    3727494584,
    11685003470,
    3727494587,
    886090258,
    3727441499,
    11685075475,
    3727441508,
    3727441510,
    266212174,
    11685003471,
    11921784819,
    5327577408,
    11685063067,
    11685075469,
    11921784815,
    3727494584
  ],
  "tags": {
    "denomination": "evangelical",
    "email": "pfarramt@bruedergemeine-niesky.de",
    "landuse": "cemetery",
    "name": "Gottesacker",
    "operator": "Evangelische Brüdergemeine Niesky",
    "phone": "+49 3588 202995",
    "religion": "christian",
    "start_date": "1743-04-12",
    "website": "https://niesky.ebu.de/erkundungen/gottesacker",
    "wikidata": "Q49419790",
    "wikimedia_commons": "File:Niesky_-_Am_Gottesacker_-_Gottesacker_01_ies.jpg"
  }
},
{
  "type": "way",
  "id": 24768125,
  "center": {
    "lat": 51.3516383,
    "lon": 14.7928527
  },
  "nodes": [
    269155825,
    269155837,
    269155852,
    269155864,
    269155877,
    269155888,
    269155896,
    269155825
  ],
  "tags": {
    "landuse": "cemetery"
  }
},
{
  "type": "way",
  "id": 24951477,
  "center": {
    "lat": 51.1484198,
    "lon": 14.3670416
  },
  "nodes": [
    12876889657,
    3626829353,
    12876889665,
    12876889667,
    271142034,
    3626829355,
    12876889654,
    12876889662,
    12876889657
  ],
  "tags": {
    "landuse": "cemetery",
    "name": "Friedhof Gnaschwitz",
    "name:hsb": "Hnaščanski kěrchow",
    "wikidata": "Q62056728"
  }
},
{
  "type": "way",
  "id": 25299788,
  "center": {
    "lat": 51.7954921,
    "lon": 14.9768215
  },
  "nodes": [
    275568157,
    275599502,
    275599503,
    8355656488,
    275568158,
    275568159,
    275568160,
    275568161,
    8355656479,
    8355656481,
    8355656480,
    275568162,
    275600233,
    275568163,
    8355656487,
    8355656486,
    8355656485,
    275568164,
    275599504,
    275568157
  ],
  "tags": {
    "landuse": "cemetery",
    "name": "Cmentarz komunalny"
  }
},
{
  "type": "way",
  "id": 25646105,
  "center": {
    "lat": 51.0312864,
    "lon": 14.5281149
  },
  "nodes": [
    486852197,
    5334066115,
    451612645,
    12215685881,
    279562528,
    12215685886,
    279562529,
    8575760162,
    8575760163,
    512104269,
    486852197
  ],
  "tags": {
    "barrier": "fence",
    "landuse": "cemetery",
    "name": "Friedhof Neusalza",
    "religion": "christian"
  }
},
{
  "type": "way",
  "id": 25648229,
  "center": {
    "lat": 51.1631432,
    "lon": 14.9858132
  },
  "nodes": [
    279584721,
    8162396604,
    8316567883,
    12064799293,
    6612644866,
    282180796,
    6612684782,
    8316567884,
    279585165,
    279585466,
    10792257738,
    10792257736,
    286718162,
    10792257745,
    10792257730,
    279585469,
    10792257743,
    279584746,
    10792257729,
    279585176,
    10792257728,
    279585472,
    10792257742,
    279584753,
    279585179,
    279585473,
    11610560785,
    11564894831,
    4806339973,
    12606909218,
    279584756,
    279585182,
    11980786314,
    11980786316,
    279585184,
    279585186,
    279585187,
    8162396603,
    279585475,
    279584721
  ],
  "tags": {
    "landuse": "cemetery",
    "name": "Alter Friedhof",
    "operator:type": "public",
    "operator:wikidata": "Q4077",
    "religion": "christian",
    "url": "https://www.goerlitz.de/uploads/02-Buerger-Dokumente/Friedhof/Friedhof_uebersicht_2016_bunt.pdf"
  }
},
{
  "type": "way",
  "id": 25648252,
  "center": {
    "lat": 51.1670810,
    "lon": 14.9829074
  },
  "nodes": [
    279585403,
    279585645,
    279585011,
    3280541384,
    279585649,
    3280541376,
    3280541377,
    279585013,
    279584941,
    279584943,
    279584947,
    1318775279,
    8162426223,
    279585019,
    279585208,
    3280541375,
    279584949,
    279585403
  ],
  "tags": {
    "landuse": "cemetery",
    "name": "Neuer Friedhof",
    "operator:type": "public",
    "operator:wikidata": "Q4077",
    "url": "https://www.goerlitz.de/uploads/02-Buerger-Dokumente/Friedhof/Friedhof_uebersicht_2016_bunt.pdf"
  }
},
{
  "type": "way",
  "id": 25748749,
  "center": {
    "lat": 51.0095427,
    "lon": 14.5995992
  },
  "nodes": [
    8605443729,
    8600283547,
    8600283548,
    8600283549,
    280803363,
    1970532067,
    8600283552,
    280803348,
    8600283553,
    3949558236,
    280803349,
    280803351,
    8605443730,
    280803352,
    8605443729
  ],
  "tags": {
    "landuse": "cemetery",
    "religion": "christian"
  }
},
{
  "type": "way",
  "id": 25928620,
  "center": {
    "lat": 51.0570679,
    "lon": 14.5024095
  },
  "nodes": [
    282836023,
    1386586313,
    282836031,
    912504921,
    282836034,
    282836042,
    282836045,
    282836048,
    1386586314,
    282836023
  ],
  "tags": {
    "landuse": "cemetery"
  }
},
{
  "type": "way",
  "id": 26564189,
  "center": {
    "lat": 51.2298582,
    "lon": 14.8933026
  },
  "nodes": [
    291208264,
    291208258,
    2083169251,
    3309231007,
    291211951,
    291211953,
    9323541193,
    291211962,
    9323541192,
    3309245232,
    2710806108,
    2710806098,
    291208264
  ],
  "tags": {
    "landuse": "cemetery",
    "name": "Gemeindefriedhof",
    "religion": "christian"
  }
},
{
  "type": "way",
  "id": 27039997,
  "center": {
    "lat": 51.9542556,
    "lon": 14.0655876
  },
  "nodes": [
    296394682,
    296394690,
    296394684,
    296394685,
    296394687,
    296394682
  ],
  "tags": {
    "denomination": "protestant",
    "landuse": "cemetery",
    "name": "Friedhof Caminchen",
    "religion": "christian"
  }
},
{
  "type": "way",
  "id": 27283750,
  "center": {
    "lat": 51.1322255,
    "lon": 14.1967117
  },
  "nodes": [
    2300065996,
    429916270,
    629022549,
    629022546,
    299497110,
    429916266,
    526028702,
    526028724,
    2300125347,
    2300065996
  ],
  "tags": {
    "landuse": "cemetery",
    "name": "Neuer Friedhof"
  }
},
{
  "type": "way",
  "id": 28270028,
  "center": {
    "lat": 51.2976302,
    "lon": 14.7784647
  },
  "nodes": [
    310454159,
    310454161,
    310454163,
    12114988764,
    5163000346,
    310454167,
    5162931768,
    5162931766,
    5162931767,
    310454165,
    2022947055,
    2022947053,
    310454162,
    310454160,
    4169302905,
    310454159
  ],
  "tags": {
    "amenity": "grave_yard",
    "denomination": "protestant",
    "religion": "christian"
  }
},
{
  "type": "way",
  "id": 29237573,
  "center": {
    "lat": 51.2712837,
    "lon": 14.0881360
  },
  "nodes": [
    9197937309,
    9197937260,
    9197937281,
    9197937282,
    9197937283,
    9197937284,
    9197937285,
    9197937286,
    9197937287,
    9197937288,
    9197937289,
    9197937290,
    9197937291,
    9197937292,
    9197937293,
    9197937294,
    9197937295,
    9197937296,
    9197937297,
    9197937298,
    9197937299,
    9197937300,
    9197937301,
    9197937302,
    9197937303,
    9197937304,
    9197937308,
    9197937309
  ],
  "tags": {
    "landuse": "cemetery",
    "name": "Sankt-Just-Friedhof",
    "name:hsb": "Kěrchow swj. Justa",
    "religion": "christian"
  }
},
{
  "type": "way",
  "id": 29237634,
  "center": {
    "lat": 51.2680347,
    "lon": 14.0950568
  },
  "nodes": [
    321580975,
    321580976,
    321580977,
    321580978,
    321580979,
    6964958271,
    6964958272,
    1141009414,
    6964958273,
    1141009396,
    6964958243,
    6964958244,
    6964958245,
    321580982,
    6965017234,
    1141009397,
    12155109060,
    6221468995,
    321580984,
    6221469000,
    6221469001,
    1141009384,
    6221469002,
    3024005478,
    1508733727,
    321580975
  ],
  "tags": {
    "fixme": "Ich bin mir nicht sicher, ob \"Hauptfriedhof\" der richtige Name ist. Es hängt ein Schild \"Hauptkirche St. Marien Pfarrfriedhof\" danaben.",
    "landuse": "cemetery",
    "name": "Hauptfriedhof",
    "name:hsb": "Hłowny kěrchow",
    "opening_hours": "Mar-Oct 07:00-20:00; Nov-Feb 08:00-16:00",
    "religion": "christian"
  }
},
{
  "type": "way",
  "id": 29237778,
  "center": {
    "lat": 51.2704562,
    "lon": 14.1086446
  },
  "nodes": [
    321581988,
    321581989,
    1507819673,
    321581990,
    321581991,
    13011674487,
    13011674466,
    13011674465,
    13011674464,
    13011674460,
    13011674463,
    321581988
  ],
  "tags": {
    "denomination": "roman_catholic",
    "description:de": "Kath. Friedhof Kamenz",
    "description:hsb": "Katolske pohrjebnišćo Kamjenc",
    "landuse": "cemetery",
    "religion": "christian",
    "wikidata": "Q91498116"
  }
},
{
  "type": "way",
  "id": 30187757,
  "center": {
    "lat": 51.2346715,
    "lon": 14.3309045
  },
  "nodes": [
    12147803229,
    332619085,
    332619088,
    12147803242,
    12147803237,
    12147803229
  ],
  "tags": {
    "landuse": "cemetery",
    "name": "Friedhof Saritsch",
    "name:hsb": "Zarěčanske pohrjebnišćo",
    "wikidata": "Q86469952"
  }
},
{
  "type": "way",
  "id": 30485433,
  "center": {
    "lat": 51.0546261,
    "lon": 14.6541384
  },
  "nodes": [
    336398657,
    336398660,
    336398664,
    336398666,
    336398669,
    336398674,
    336398677,
    336398657
  ],
  "tags": {
    "landuse": "cemetery"
  }
},
{
  "type": "way",
  "id": 30485438,
  "center": {
    "lat": 51.0553673,
    "lon": 14.6551146
  },
  "nodes": [
    336398728,
    336398733,
    336398736,
    336398739,
    336398728
  ],
  "tags": {
    "landuse": "cemetery"
  }
},
{
  "type": "way",
  "id": 30803867,
  "center": {
    "lat": 51.5287447,
    "lon": 14.5525297
  },
  "nodes": [
    341257954,
    341257958,
    341257960,
    341257964,
    341257954
  ],
  "tags": {
    "landuse": "cemetery",
    "name": "Sowjetischer Soldatenfriedhof",
    "name:hsb": "Sowjetske wojerske pohrjebnišćo"
  }
},
{
  "type": "way",
  "id": 31720354,
  "center": {
    "lat": 51.1420605,
    "lon": 14.8091138
  },
  "nodes": [
    354908296,
    354908297,
    354908298,
    354908299,
    354908296
  ],
  "tags": {
    "landuse": "cemetery",
    "name": "Sowjetischer Ehrenfriedhof"
  }
},
{
  "type": "way",
  "id": 32138846,
  "center": {
    "lat": 51.1797544,
    "lon": 14.9375525
  },
  "nodes": [
    7301308210,
    360788995,
    9997891888,
    9997891887,
    9997891894,
    360788989,
    7295167095,
    360788991,
    11610888175,
    360788993,
    7301308210
  ],
  "tags": {
    "landuse": "cemetery",
    "religion": "christian"
  }
},
{
  "type": "way",
  "id": 32440613,
  "center": {
    "lat": 51.2281468,
    "lon": 14.5958196
  },
  "nodes": [
    364747267,
    364744874,
    12122849271,
    364744863,
    364744868,
    669062902,
    364747267
  ],
  "tags": {
    "denomination": "lutheran",
    "landuse": "cemetery",
    "name": "Friedhof Baruth",
    "name:hsb": "Bartski kěrchow",
    "religion": "christian",
    "wikidata": "Q91617011"
  }
},
{
  "type": "way",
  "id": 32603931,
  "center": {
    "lat": 51.2665168,
    "lon": 14.7306413
  },
  "nodes": [
    366639715,
    366639716,
    366639717,
    366639718,
    366639721,
    366639723,
    366639725,
    366639728,
    366639730,
    2800756045,
    366639733,
    366639745,
    5939213738,
    366639748,
    4190433222,
    366639751,
    366639754,
    366639756,
    366639759,
    366639762,
    2800756046,
    2800756043,
    4190433202,
    366639715
  ],
  "tags": {
    "barrier": "wall",
    "denomination": "protestant",
    "landuse": "cemetery",
    "religion": "christian"
  }
},
{
  "type": "way",
  "id": 33044216,
  "center": {
    "lat": 51.0182717,
    "lon": 14.5650608
  },
  "nodes": [
    372585151,
    372585154,
    372585159,
    3210908872,
    372585163,
    7660497381,
    372585151
  ],
  "tags": {
    "heritage:operator": "lfd",
    "landuse": "cemetery",
    "ref:lfd": "09303249",
    "religion": "christian"
  }
},
{
  "type": "way",
  "id": 33816457,
  "center": {
    "lat": 51.1375428,
    "lon": 14.4069315
  },
  "nodes": [
    387398096,
    6172595467,
    387398097,
    387398098,
    387398099,
    387398096
  ],
  "tags": {
    "denomination": "protestant",
    "landuse": "cemetery",
    "name": "Friedhof Singwitz",
    "name:hsb": "Dźěžnikečanski kěrchow",
    "religion": "christian",
    "wikidata": "Q91617017"
  }
},
{
  "type": "way",
  "id": 34132985,
  "center": {
    "lat": 51.0386022,
    "lon": 14.5352034
  },
  "nodes": [
    391376752,
    391376753,
    391376754,
    10969065936,
    391376755,
    10969065938,
    391376756,
    10969065937,
    391376757,
    391376758,
    391376759,
    391376760,
    391376761,
    391376762,
    391376763,
    391376764,
    391376752
  ],
  "tags": {
    "landuse": "cemetery",
    "religion": "christian"
  }
},
{
  "type": "way",
  "id": 34132989,
  "center": {
    "lat": 51.0369995,
    "lon": 14.5372018
  },
  "nodes": [
    391376808,
    497767010,
    391376809,
    391376810,
    391376811,
    391376812,
    391376813,
    391376814,
    391376815,
    3202319196,
    391376816,
    391376817,
    391376818,
    391376808
  ],
  "tags": {
    "landuse": "cemetery",
    "religion": "christian"
  }
},
{
  "type": "way",
  "id": 35778907,
  "center": {
    "lat": 51.5711280,
    "lon": 14.3885271
  },
  "nodes": [
    418343499,
    418343500,
    847999851,
    418343501,
    418343502,
    418343499
  ],
  "tags": {
    "landuse": "cemetery",
    "religion": "christian"
  }
},
{
  "type": "way",
  "id": 37053750,
  "center": {
    "lat": 51.2688423,
    "lon": 14.3282821
  },
  "nodes": [
    430936058,
    430936059,
    11990415253,
    430936060,
    430936061,
    430936058
  ],
  "tags": {
    "landuse": "cemetery",
    "name:hsb": "Njeswačanski kěrchow",
    "religion": "christian",
    "wikidata": "Q49407552"
  }
},
{
  "type": "way",
  "id": 38126465,
  "center": {
    "lat": 51.1641011,
    "lon": 14.2178680
  },
  "nodes": [
    448675006,
    448675008,
    448675010,
    448675012,
    448675006
  ],
  "tags": {
    "landuse": "cemetery",
    "name": "Friedhof Pohla",
    "name:hsb": "Palowski kěrchow",
    "religion": "christian",
    "wikidata": "Q101493838"
  }
},
{
  "type": "way",
  "id": 38227166,
  "center": {
    "lat": 51.0602782,
    "lon": 14.5740287
  },
  "nodes": [
    564675586,
    670273941,
    2102596553,
    450518773,
    12063367782,
    12063404522,
    9908101408,
    12473515267,
    9908101410,
    450518775,
    12063404525,
    12063404524,
    12063404523,
    564675586
  ],
  "tags": {
    "landuse": "cemetery",
    "religion": "christian"
  }
},
{
  "type": "way",
  "id": 38284307,
  "center": {
    "lat": 51.9857902,
    "lon": 14.4106498
  },
  "nodes": [
    451722539,
    451722540,
    451722541,
    7151001290,
    451722542,
    7110278484,
    11829163412,
    451722539
  ],
  "tags": {
    "landuse": "cemetery",
    "name": "Friedhof Staakow"
  }
},
{
  "type": "way",
  "id": 38289472,
  "center": {
    "lat": 51.7511653,
    "lon": 14.1510440
  },
  "nodes": [
    11895959018,
    11895959019,
    11895959020,
    4832935487,
    451787949,
    4832935457,
    11895959015,
    11895959016,
    11895959005,
    11895959017,
    11895959018
  ],
  "tags": {
    "landuse": "cemetery",
    "religion": "christian"
  }
},
{
  "type": "way",
  "id": 38325806,
  "center": {
    "lat": 51.9986272,
    "lon": 14.0622187
  },
  "nodes": [
    452525081,
    452525082,
    1507821270,
    3711748999,
    452525083,
    452525086,
    10146956545,
    452525081
  ],
  "tags": {
    "amenity": "grave_yard",
    "religion": "christian"
  }
},
{
  "type": "way",
  "id": 39806980,
  "center": {
    "lat": 51.0478851,
    "lon": 14.4827246
  },
  "nodes": [
    477128357,
    477128358,
    4895649174,
    4895649173,
    4895649172,
    4895649169,
    477128359,
    477128360,
    477128361,
    477128362,
    477128357
  ],
  "tags": {
    "description": "Friedhof Taubenheim",
    "landuse": "cemetery"
  }
},
{
  "type": "way",
  "id": 41128676,
  "center": {
    "lat": 51.1309464,
    "lon": 14.1808255
  },
  "nodes": [
    501904352,
    501904353,
    592296782,
    592296784,
    12137336776,
    12137336777,
    12137336778,
    4884291505,
    12137336771,
    12137336773,
    12137336774,
    12137336772,
    501904351,
    12137336775,
    501904352
  ],
  "tags": {
    "landuse": "cemetery",
    "name": "Alter Friedhof",
    "wikidata": "Q116907994"
  }
},
{
  "type": "way",
  "id": 41903525,
  "center": {
    "lat": 51.3482506,
    "lon": 14.6836151
  },
  "nodes": [
    518687790,
    518687792,
    518687800,
    518687801,
    518687802,
    518687803,
    518687805,
    518687790
  ],
  "tags": {
    "amenity": "grave_yard",
    "denomination": "protestant",
    "description": "Kirchhof Kreba",
    "description:hsb": "Chrjebjanski kěrchow",
    "religion": "christian",
    "wikidata": "Q101248141"
  }
},
{
  "type": "way",
  "id": 42043152,
  "center": {
    "lat": 51.1427135,
    "lon": 14.8804521
  },
  "nodes": [
    521966842,
    9171781094,
    521966852,
    521966860,
    11360602439,
    521966876,
    9171781084,
    11360602440,
    9171781085,
    521966905,
    11360602441,
    9171781093,
    9171781092,
    2158271542,
    9171781086,
    521966928,
    9171781109,
    9171781087,
    9171781108,
    1210679352,
    1210679335,
    1210679387,
    521966842
  ],
  "tags": {
    "denomination": "protestant",
    "landuse": "cemetery",
    "name": "Friedhof Markersdorf",
    "religion": "christian"
  }
},
{
  "type": "way",
  "id": 42229000,
  "center": {
    "lat": 51.1036689,
    "lon": 14.2203419
  },
  "nodes": [
    526226268,
    526226277,
    526226305,
    526226314,
    526226322,
    526226342,
    526226352,
    526226364,
    1644987307,
    526226368,
    526226268
  ],
  "tags": {
    "landuse": "cemetery"
  }
},
{
  "type": "way",
  "id": 42423369,
  "center": {
    "lat": 51.0187515,
    "lon": 14.7490677
  },
  "nodes": [
    5712105867,
    11758311412,
    11758311415,
    11758311416,
    11758311417,
    11758311418,
    11758311424,
    11758311422,
    11758311423,
    11758311421,
    11758311426,
    11758361327,
    11758311428,
    5001493534,
    5001493535,
    12003502409,
    11758311443,
    11758311419,
    11758311414,
    11758311437,
    11758311446,
    11758311447,
    11758311448,
    11758311453,
    11758311452,
    11758311451,
    11758311450,
    11758311449,
    3873465120,
    8971591881,
    3873473985,
    8971591878,
    529658561,
    5698706115,
    5698706117,
    5698706116,
    929987728,
    529658562,
    12086075373,
    529658563,
    12086075375,
    11756458179,
    11758361335,
    11758311462,
    11758311463,
    11758311464,
    11758311466,
    11758311465,
    5712105889,
    5712105867
  ],
  "tags": {
    "denomination": "moravian",
    "heritage": "4",
    "heritage:operator": "lfd",
    "landuse": "cemetery",
    "name": "Gottesacker der Evangelischen Brüder-Unität",
    "operator": "Evangelische Brüder-Unität",
    "ref:lfd": "09303311",
    "religion": "christian",
    "start_date": "1730",
    "website": "http://www.herrnhut.ebu.de/gottesacker",
    "wikidata": "Q13613063",
    "wikimedia_commons": "Category:Herrnhuter Gottesacker",
    "wikipedia": "de:Herrnhuter Gottesacker"
  }
},
{
  "type": "way",
  "id": 42453799,
  "center": {
    "lat": 51.5331292,
    "lon": 14.2971400
  },
  "nodes": [
    529964529,
    3191354812,
    529964523,
    529964525,
    529964521,
    529964527,
    3191355879,
    529964529
  ],
  "tags": {
    "barrier": "fence",
    "landuse": "cemetery"
  }
},
{
  "type": "way",
  "id": 42506243,
  "center": {
    "lat": 51.1084300,
    "lon": 14.1075222
  },
  "nodes": [
    530781911,
    530781915,
    530781916,
    6593335803,
    6593335804,
    530781917,
    530781918,
    6589287862,
    530781911
  ],
  "tags": {
    "landuse": "cemetery"
  }
},
{
  "type": "way",
  "id": 44928909,
  "center": {
    "lat": 51.9789755,
    "lon": 14.1919586
  },
  "nodes": [
    569728919,
    2421151560,
    1410972922,
    569728921,
    569728922,
    2020692988,
    569728925,
    569728919
  ],
  "tags": {
    "landuse": "cemetery"
  }
},
{
  "type": "way",
  "id": 45187887,
  "center": {
    "lat": 51.0941412,
    "lon": 14.3080045
  },
  "nodes": [
    12888706453,
    12888706452,
    12888706467,
    12888706468,
    573437406,
    12888706462,
    573437407,
    501535333,
    12888706453
  ],
  "tags": {
    "landuse": "cemetery",
    "religion": "christian",
    "wikidata": "Q49393984"
  }
},
{
  "type": "way",
  "id": 45730538,
  "center": {
    "lat": 51.2082630,
    "lon": 14.6243332
  },
  "nodes": [
    10649551405,
    583040750,
    1732400481,
    583040747,
    583040744,
    583040716,
    583040713,
    582823387,
    1734565139,
    583040719,
    582496189,
    1734577189,
    1734577188,
    1732363698,
    583040671,
    583040666,
    582823386,
    583040673,
    583040742,
    583040753,
    898273213,
    1732363696,
    583040739,
    13108950749,
    13108950750,
    10649551406,
    10649551405
  ],
  "tags": {
    "denomination": "lutheran",
    "description": "Friedhof Gröditz",
    "heritage": "4",
    "heritage:operator": "lfd",
    "landuse": "cemetery",
    "name:hsb": "Hrodźišćanski kěrchow",
    "ref:lfd": "09251876",
    "religion": "christian",
    "wikidata": "Q62060090"
  }
},
{
  "type": "way",
  "id": 47863021,
  "center": {
    "lat": 51.8329025,
    "lon": 14.1489398
  },
  "nodes": [
    608676706,
    608676698,
    608676699,
    1191283511,
    608676709,
    608676710,
    1191286107,
    1191286101,
    608676708,
    1191286105,
    608676707,
    608676706
  ],
  "tags": {
    "amenity": "grave_yard",
    "denomination": "protestant",
    "religion": "christian"
  }
},
{
  "type": "way",
  "id": 48807215,
  "center": {
    "lat": 51.1328699,
    "lon": 14.4063005
  },
  "nodes": [
    619258306,
    619258303,
    619258304,
    12031890465,
    12031890466,
    12031890464,
    12031890463,
    619258306
  ],
  "tags": {
    "denomination": "protestant",
    "landuse": "cemetery",
    "name": "Friedhof Obergurig",
    "name:hsb": "Hornjohórčanski kěrchow",
    "religion": "christian",
    "wikidata": "Q91617016"
  }
},
{
  "type": "way",
  "id": 49365366,
  "center": {
    "lat": 51.0627325,
    "lon": 14.3452329
  },
  "nodes": [
    1363822994,
    7090938703,
    626966501,
    1425448764,
    1425448785,
    6152100211,
    626966502,
    1363823003,
    1363823009,
    1363823019,
    1363823020,
    1363823010,
    7090938701,
    7090938702,
    7090938700,
    1363823005,
    1363822994
  ],
  "tags": {
    "landuse": "cemetery"
  }
},
{
  "type": "way",
  "id": 49525708,
  "center": {
    "lat": 51.0688380,
    "lon": 14.4254555
  },
  "nodes": [
    429827925,
    629400334,
    629400336,
    429930566,
    264031250,
    429827925
  ],
  "tags": {
    "denomination": "lutheran",
    "landuse": "cemetery",
    "name": "Evangelischer Friedhof",
    "religion": "christian"
  }
},
{
  "type": "way",
  "id": 49927151,
  "center": {
    "lat": 51.1889656,
    "lon": 14.4503017
  },
  "nodes": [
    12017236658,
    3187342871,
    3187342872,
    7051558519,
    3187342866,
    3187342867,
    3187342877,
    12017269379,
    3187342875,
    3187342870,
    3187342869,
    3187342865,
    3187342878,
    634484669,
    12017236658
  ],
  "tags": {
    "denomination": "roman_catholic",
    "landuse": "cemetery",
    "name": "Marienfriedhof",
    "name:hsb": "Marijine pohrjebnišćo",
    "religion": "christian",
    "url": "https://www.dompfarrei-bautzen.de/friedhof-st-marien.html?file=files/Dompfarrei/Downloads/Friedhofsordnung_2016.pdf",
    "website": "https://www.dompfarrei-bautzen.de/friedhof-st-marien.html",
    "wheelchair": "limited",
    "wheelchair:description": "teilweise ohne Beh. WC",
    "wikidata": "Q62033070"
  }
},
{
  "type": "way",
  "id": 50088994,
  "center": {
    "lat": 51.0726805,
    "lon": 14.6485201
  },
  "nodes": [
    11938958148,
    638915476,
    635975251,
    635975248,
    636028575,
    636028576,
    636028549,
    636028547,
    11938958149,
    11938958148
  ],
  "tags": {
    "landuse": "cemetery"
  }
},
{
  "type": "way",
  "id": 51270805,
  "center": {
    "lat": 51.5869211,
    "lon": 14.1641482
  },
  "nodes": [
    654173625,
    7794627946,
    7794627953,
    7794627954,
    7794627955,
    654173626,
    654173627,
    654173628,
    654327817,
    654327818,
    7794627917,
    654173629,
    654173633,
    7794627947,
    7794627948,
    7794627949,
    7794627951,
    654173630,
    7794627950,
    654173631,
    7794627952,
    654173632,
    654173625
  ],
  "tags": {
    "landuse": "cemetery",
    "religion": "christian"
  }
},
{
  "type": "way",
  "id": 51683916,
  "center": {
    "lat": 51.2224929,
    "lon": 14.2980659
  },
  "nodes": [
    659787665,
    1015060852,
    12147940739,
    12147940741,
    659787720,
    659787713,
    12147940748,
    659787666,
    12147940745,
    659787689,
    659787665
  ],
  "tags": {
    "denomination": "catholic",
    "landuse": "cemetery",
    "name": "Baćoński kěrchow",
    "name:de": "Friedhof Storcha",
    "religion": "christian",
    "wikidata": "Q86469270"
  }
},
{
  "type": "way",
  "id": 51692797,
  "center": {
    "lat": 51.2376251,
    "lon": 14.2471968
  },
  "nodes": [
    659887934,
    659887950,
    659887948,
    659887979,
    659887978,
    13121031517,
    659887980,
    659887981,
    659887982,
    659887983,
    659887984,
    13121031515,
    13121031518,
    13121031519,
    13121031516,
    659887970,
    13121031522,
    13121031520,
    659887969,
    659887988,
    659887989,
    659888098,
    659888091,
    13121031521,
    659887386,
    659887371,
    659887285,
    659887297,
    659887298,
    659887911,
    12242019499,
    659887912,
    659887934
  ],
  "tags": {
    "denomination": "catholic",
    "landuse": "cemetery",
    "religion": "christian",
    "wikidata": "Q63426228"
  }
},
{
  "type": "way",
  "id": 51745643,
  "center": {
    "lat": 51.0743544,
    "lon": 14.6001410
  },
  "nodes": [
    760175630,
    760175646,
    760175627,
    760175641,
    760175605,
    660443565,
    660443564,
    660443539,
    760175630
  ],
  "tags": {
    "landuse": "cemetery"
  }
},
{
  "type": "way",
  "id": 52071315,
  "center": {
    "lat": 51.9747071,
    "lon": 14.6275236
  },
  "nodes": [
    1727984378,
    1727984295,
    1727984237,
    1727984236,
    1727984271,
    1727984278,
    1727984344,
    1727984378
  ],
  "tags": {
    "landuse": "cemetery"
  }
},
{
  "type": "way",
  "id": 52435534,
  "center": {
    "lat": 51.1430638,
    "lon": 14.8073675
  },
  "nodes": [
    666708460,
    1530068939,
    2971705792,
    2971705790,
    666708459,
    1530068937,
    666708461,
    666708462,
    1530068962,
    1530068959,
    1530068958,
    666705157,
    666705147,
    666708460
  ],
  "tags": {
    "landuse": "cemetery",
    "name": "Friedhof Reichenbach"
  }
},
{
  "type": "way",
  "id": 52957726,
  "center": {
    "lat": 51.0220757,
    "lon": 14.9440264
  },
  "nodes": [
    671004786,
    671004778,
    2889988717,
    2889988729,
    2889988731,
    671004900,
    671004905,
    2889988738,
    2889988736,
    671004912,
    2889988728,
    671004877,
    2889988705,
    2889988697,
    671004885,
    671004765,
    2889988661,
    2889988665,
    2889988667,
    2889988668,
    671004767,
    671004793,
    671004786
  ],
  "tags": {
    "denomination": "roman_catholic",
    "heritage": "2",
    "heritage:operator": "nid",
    "historic": "yes",
    "landuse": "cemetery",
    "name": "Cmentarz parafialny",
    "ref:nid": "977/J",
    "religion": "christian"
  }
},
{
  "type": "way",
  "id": 55070870,
  "center": {
    "lat": 51.2177698,
    "lon": 14.1343337
  },
  "nodes": [
    7542505244,
    692857061,
    692857052,
    692857045,
    692857047,
    12214803371,
    692857033,
    13011705724,
    13011705725,
    7542505244
  ],
  "tags": {
    "landuse": "cemetery",
    "name": "Friedhof Elstra",
    "name:hsb": "Halštrowski kěrchow",
    "religion": "christian",
    "wikidata": "Q49399157"
  }
},
{
  "type": "way",
  "id": 55091363,
  "center": {
    "lat": 51.1053580,
    "lon": 14.6616635
  },
  "nodes": [
    693009593,
    693009594,
    693009595,
    693009598,
    693009599,
    693009600,
    693009601,
    693009602,
    693009593
  ],
  "tags": {
    "landuse": "cemetery",
    "name": "Katholischer Friedhof",
    "religion": "christian"
  }
},
{
  "type": "way",
  "id": 56158074,
  "center": {
    "lat": 51.1194094,
    "lon": 14.1404000
  },
  "nodes": [
    2915013254,
    704798029,
    704798031,
    704798032,
    704798033,
    704798044,
    2915013252,
    2915013255,
    2915013256,
    2915013257,
    4018501946,
    2915013258,
    2915013254
  ],
  "tags": {
    "amenity": "grave_yard",
    "barrier": "wall",
    "religion": "christian"
  }
},
{
  "type": "way",
  "id": 57044638,
  "center": {
    "lat": 51.1738388,
    "lon": 14.1687515
  },
  "nodes": [
    11253346975,
    2763513056,
    2763513057,
    2763513058,
    2763513059,
    11253346977,
    11253346976,
    11253346975
  ],
  "tags": {
    "landuse": "cemetery",
    "name": "Friedhof Burkau"
  }
},
{
  "type": "way",
  "id": 58511848,
  "center": {
    "lat": 51.5280717,
    "lon": 14.3778095
  },
  "nodes": [
    725188471,
    725188494,
    725188484,
    725188466,
    725188471
  ],
  "tags": {
    "landuse": "cemetery",
    "religion": "christian"
  }
},
{
  "type": "way",
  "id": 60669234,
  "center": {
    "lat": 51.1496113,
    "lon": 14.0636747
  },
  "nodes": [
    595678811,
    759432829,
    759432823,
    759432826,
    759432827,
    759432818,
    595678769,
    595678823,
    759432832,
    595678811
  ],
  "tags": {
    "landuse": "cemetery",
    "religion": "christian"
  }
},
{
  "type": "way",
  "id": 61743027,
  "center": {
    "lat": 51.2459039,
    "lon": 14.7623279
  },
  "nodes": [
    769317039,
    13108869163,
    13108869162,
    4044801897,
    13108869161,
    769317030,
    13108869160,
    13108869159,
    13108869158,
    13108869157,
    769317113,
    13108869177,
    4456498005,
    4080627771,
    4080627770,
    13108869176,
    13108869175,
    13108869174,
    13108869173,
    769317125,
    4191577525,
    13108869178,
    13108869172,
    769317145,
    13108869171,
    13108869170,
    13108869169,
    769317102,
    13108869168,
    13108869167,
    13108869166,
    13108869165,
    13108869164,
    769317039
  ],
  "tags": {
    "landuse": "cemetery"
  }
},
{
  "type": "way",
  "id": 69564588,
  "center": {
    "lat": 51.0195727,
    "lon": 14.7506234
  },
  "nodes": [
    832570684,
    3873473986,
    12003502415,
    8025299128,
    11758311456,
    3873473985,
    8971591878,
    529658561,
    832570684
  ],
  "tags": {
    "description": "Kommunaler Friedhof in kirchlicher Trägerschaft der Brüdergemeine auf dem Gottesacker",
    "landuse": "cemetery",
    "religion": "christian"
  }
},
{
  "type": "way",
  "id": 70371099,
  "center": {
    "lat": 51.9604015,
    "lon": 14.6801667
  },
  "nodes": [
    839725461,
    839725421,
    839725509,
    8425716301,
    839725598,
    839725461
  ],
  "tags": {
    "landuse": "cemetery",
    "name": "Friedhof"
  }
},
{
  "type": "way",
  "id": 70419146,
  "center": {
    "lat": 51.9582003,
    "lon": 14.6891597
  },
  "nodes": [
    840326012,
    840326700,
    840326512,
    840326239,
    840326012
  ],
  "tags": {
    "landuse": "cemetery",
    "name": "Jüdischer Friedhof",
    "religion": "jewish",
    "wikidata": "Q22955754",
    "wikipedia": "de:Jüdischer Friedhof (Guben)"
  }
},
{
  "type": "way",
  "id": 70419169,
  "center": {
    "lat": 51.9492679,
    "lon": 14.6899167
  },
  "nodes": [
    840326197,
    840326789,
    840326625,
    840327009,
    840326605,
    840155340,
    9628963375,
    8447190399,
    840326110,
    9628963369,
    840325838,
    840327219,
    840326197
  ],
  "tags": {
    "landuse": "cemetery",
    "name": "Westfriedhof"
  }
},
{
  "type": "way",
  "id": 70546369,
  "center": {
    "lat": 51.5740721,
    "lon": 14.3867485
  },
  "nodes": [
    1949380325,
    841925810,
    841925813,
    1949380329,
    1949380325
  ],
  "tags": {
    "description": "Sowjetischer Soldatenfriedhof",
    "historic": "memorial",
    "landuse": "cemetery",
    "wheelchair": "no"
  }
},
{
  "type": "way",
  "id": 70558631,
  "center": {
    "lat": 51.5736019,
    "lon": 14.3899471
  },
  "nodes": [
    225613399,
    225613409,
    225613418,
    225613425,
    225613432,
    841927122,
    225613399
  ],
  "tags": {
    "landuse": "cemetery",
    "religion": "christian"
  }
},
{
  "type": "way",
  "id": 70598526,
  "center": {
    "lat": 51.5736583,
    "lon": 14.3879581
  },
  "nodes": [
    842475299,
    842475304,
    842475306,
    842475311,
    842475314,
    842475316,
    842475320,
    842475323,
    842475325,
    842475328,
    842475329,
    842475299
  ],
  "tags": {
    "landuse": "cemetery",
    "name": "Deutscher Soldatenfriedhof",
    "name:hsb": "Nimski wójakowy kjarchob",
    "religion": "christian"
  }
},
{
  "type": "way",
  "id": 71195010,
  "center": {
    "lat": 51.0756326,
    "lon": 14.4125626
  },
  "nodes": [
    1700024329,
    631489813,
    847566996,
    847566998,
    847566997,
    1700024329
  ],
  "tags": {
    "landuse": "cemetery"
  }
},
{
  "type": "way",
  "id": 71552401,
  "center": {
    "lat": 51.0299233,
    "lon": 14.2203903
  },
  "nodes": [
    4426797315,
    4426797316,
    851149989,
    850907506,
    850907484,
    850907474,
    1371402622,
    4920239094,
    1611532251,
    850961742,
    9093681591,
    9093681590,
    851150051,
    851150061,
    4426797315
  ],
  "tags": {
    "landuse": "cemetery",
    "name": "Neuer Friedhof Neustadt",
    "operator": "Ev.-Luth. Kirchgemeinde Neustadt in Sachsen",
    "website": "https://www.neuerfriedhof.de"
  }
},
{
  "type": "way",
  "id": 72664820,
  "center": {
    "lat": 51.9529768,
    "lon": 14.0115650
  },
  "nodes": [
    862909122,
    862909074,
    862909148,
    862909104,
    862909122
  ],
  "tags": {
    "landuse": "cemetery"
  }
},
{
  "type": "way",
  "id": 73169422,
  "center": {
    "lat": 51.7987270,
    "lon": 14.5023766
  },
  "nodes": [
    868112478,
    868112481,
    868112474,
    868112466,
    868112478
  ],
  "tags": {
    "amenity": "grave_yard",
    "landuse": "cemetery",
    "religion": "christian"
  }
},
{
  "type": "way",
  "id": 75873576,
  "center": {
    "lat": 51.2807995,
    "lon": 14.8466885
  },
  "nodes": [
    895645523,
    12041959271,
    895645502,
    12041959274,
    895645543,
    895645513,
    895645523
  ],
  "tags": {
    "landuse": "cemetery",
    "leaf_type": "broadleaved",
    "name": "Ödernitzer Friedhof",
    "religion": "christian"
  }
},
{
  "type": "way",
  "id": 77384554,
  "center": {
    "lat": 51.1550326,
    "lon": 14.1350202
  },
  "nodes": [
    910876756,
    910876696,
    2387258320,
    910876618,
    910876708,
    5738644173,
    910876594,
    2387258294,
    859375543,
    859375557,
    12127640060,
    859375536,
    910876737,
    5738644169,
    910876603,
    910876659,
    2388579702,
    910876756
  ],
  "tags": {
    "landuse": "cemetery"
  }
},
{
  "type": "way",
  "id": 78066150,
  "center": {
    "lat": 51.7272536,
    "lon": 14.5364011
  },
  "nodes": [
    885616930,
    917213380,
    917213391,
    917213399,
    917213404,
    917213395,
    885616930
  ],
  "tags": {
    "denomination": "protestant",
    "landuse": "cemetery",
    "religion": "christian"
  }
},
{
  "type": "way",
  "id": 79689881,
  "center": {
    "lat": 51.0293962,
    "lon": 14.7608773
  },
  "nodes": [
    929987699,
    13037179655,
    13037179656,
    11784600277,
    13037179654,
    2902056680,
    2902056686,
    13037179651,
    13037179650,
    13037179653,
    13037179652,
    2902056691,
    2902056692,
    813899273,
    13037179628,
    929987704,
    929987731,
    13037179629,
    929987699
  ],
  "tags": {
    "landuse": "cemetery"
  }
},
{
  "type": "way",
  "id": 86674462,
  "center": {
    "lat": 51.2372213,
    "lon": 14.5241804
  },
  "nodes": [
    1008104348,
    1008104267,
    1008104408,
    1008104071,
    1008104348
  ],
  "tags": {
    "landuse": "cemetery",
    "name": "Friedhof Malschwitz",
    "name:hsb": "Malešanski kěrchow",
    "religion": "christian",
    "wikidata": "Q49408705"
  }
},
{
  "type": "way",
  "id": 87556606,
  "center": {
    "lat": 51.3340546,
    "lon": 14.0131625
  },
  "nodes": [
    279107975,
    1018648674,
    1018648219,
    1018648278,
    1431362615,
    279107975
  ],
  "tags": {
    "amenity": "grave_yard"
  }
},
{
  "type": "way",
  "id": 88267288,
  "center": {
    "lat": 51.5849010,
    "lon": 14.1248659
  },
  "nodes": [
    1025345840,
    1025345978,
    4840843987,
    1025345830,
    1025345630,
    1025346032,
    1025345928,
    1025345764,
    1934827280,
    1934827283,
    1934827285,
    1025345549,
    1025345993,
    1025345840
  ],
  "tags": {
    "amenity": "grave_yard"
  }
},
{
  "type": "way",
  "id": 88419114,
  "center": {
    "lat": 51.1850893,
    "lon": 14.4164133
  },
  "nodes": [
    1027094037,
    1419055266,
    1419055255,
    1419055195,
    9906279378,
    1419055190,
    9907182301,
    9906279379,
    1419055178,
    9907182308,
    9907182309,
    9907182312,
    9893706792,
    1027094067,
    1419055176,
    1419055204,
    1419055212,
    1027094049,
    1419055225,
    1027094070,
    1027094037
  ],
  "tags": {
    "alt_name": "Protschenbergfriedhof",
    "contact:website": "https://www.bautzen.de/anliegen/friedhofsangelegenheiten",
    "heritage": "4",
    "heritage:operator": "lfd",
    "landuse": "cemetery",
    "name": "Friedhof Protschenberg",
    "name:hsb": "Pohrjebnišćo na Hrodźišku",
    "ref:lfd": "09300784",
    "start_date": "1789",
    "url": "https://www.bautzen.de/fileadmin/media/ortsrecht/oeffentliche-einrichtungen/friedhofssatzung-2019.pdf",
    "wheelchair": "limited",
    "wheelchair:description": "teilweise ohne Beh. WC",
    "wikidata": "Q62033031",
    "wikimedia_commons": "Category:Protschenberg cemetery"
  }
},
{
  "type": "way",
  "id": 88935559,
  "center": {
    "lat": 51.2443655,
    "lon": 14.4016206
  },
  "nodes": [
    2404508201,
    1032171970,
    12140828980,
    1032171694,
    2404508185,
    11987709150,
    2404508187,
    2404508191,
    3779475845,
    2404508192,
    2404508197,
    2404508201
  ],
  "tags": {
    "denomination": "catholic",
    "landuse": "cemetery",
    "name": "Friedhof Radibor",
    "name:hsb": "Radworski kěrchow",
    "religion": "christian",
    "wikidata": "Q62053793"
  }
},
{
  "type": "way",
  "id": 98933802,
  "center": {
    "lat": 51.0939580,
    "lon": 14.7433566
  },
  "nodes": [
    1144448261,
    1144448270,
    1144448276,
    1144448280,
    1144448311,
    1144448317,
    1144448320,
    1144448261
  ],
  "tags": {
    "landuse": "cemetery"
  }
},
{
  "type": "way",
  "id": 99571552,
  "center": {
    "lat": 51.1966168,
    "lon": 14.6568902
  },
  "nodes": [
    1151519657,
    7164695111,
    1184252143,
    1151519689,
    1151519653,
    2247382991,
    2247382987,
    1151519665,
    2247382976,
    1151519632,
    1150854506,
    2247382974,
    1151519638,
    1151519643,
    1151519613,
    1151519660,
    1151519682,
    7293782820,
    1151519657
  ],
  "tags": {
    "denomination": "protestant",
    "description": "Friedhof Weißenberg",
    "description:hsb": "Wósporski kěrchow",
    "landuse": "cemetery",
    "religion": "christian",
    "wikidata": "Q101248694"
  }
},
{
  "type": "way",
  "id": 100952271,
  "center": {
    "lat": 51.0134106,
    "lon": 14.9282999
  },
  "nodes": [
    1166206173,
    1166206174,
    1166206175,
    1166206176,
    1166206173
  ],
  "tags": {
    "denomination": "catholic",
    "description": "Katholischer Friedhof",
    "landuse": "cemetery",
    "religion": "christian"
  }
},
{
  "type": "way",
  "id": 100971077,
  "center": {
    "lat": 51.0125738,
    "lon": 14.9293313
  },
  "nodes": [
    1166354680,
    4280946250,
    4280946251,
    1166354681,
    11281483496,
    1166354682,
    1166354683,
    1166354685,
    1166354686,
    1166354687,
    2191594851,
    1166354689,
    1166354680
  ],
  "tags": {
    "description": "Städtischer Friedhof",
    "landuse": "cemetery"
  }
},
{
  "type": "way",
  "id": 101537265,
  "center": {
    "lat": 51.1987198,
    "lon": 14.6948028
  },
  "nodes": [
    1172569140,
    1172569041,
    1538654127,
    4197585030,
    4197585031,
    1172569052,
    1172568982,
    1172568970,
    1538654131,
    13108950707,
    1538654053,
    1172569112,
    1172569140
  ],
  "tags": {
    "description": "Friedhof Buchholz, alt Friedhof Krischa",
    "description:hsb": "Křišowski kěrchow",
    "heritage": "4",
    "heritage:operator": "lfd",
    "landuse": "cemetery",
    "ref:lfd": "09274918",
    "religion": "christian",
    "wikidata": "Q101277539"
  }
},
{
  "type": "way",
  "id": 101852570,
  "center": {
    "lat": 51.1962406,
    "lon": 14.6634509
  },
  "nodes": [
    1177016293,
    7277341782,
    30374082,
    2249262719,
    1178142776,
    1177016293
  ],
  "tags": {
    "amenity": "grave_yard",
    "historic": "memorial",
    "name": "Sowjetischer Friedhof",
    "name:hsb": "Sowjetske pohrjebnišćo"
  }
},
{
  "type": "way",
  "id": 103133841,
  "center": {
    "lat": 51.1821861,
    "lon": 14.6791352
  },
  "nodes": [
    1190913391,
    1190913614,
    1190913535,
    1190913710,
    1190913391
  ],
  "tags": {
    "amenity": "grave_yard",
    "historic": "memorial",
    "name": "Ehrenfriedhof Maltitz",
    "name:hsb": "Čestne pohrjebnišćo Malećicy"
  }
},
{
  "type": "way",
  "id": 104678030,
  "center": {
    "lat": 51.0117725,
    "lon": 14.3661461
  },
  "nodes": [
    1207432102,
    1207432738,
    1207432416,
    11898166846,
    1207432773,
    1207432708,
    1207432120,
    1207432917,
    1207432331,
    1207432274,
    1207432655,
    1207432102
  ],
  "tags": {
    "barrier": "wall",
    "landuse": "cemetery"
  }
},
{
  "type": "way",
  "id": 105003114,
  "center": {
    "lat": 51.0951634,
    "lon": 14.8688351
  },
  "nodes": [
    2493829486,
    1210558873,
    1210558869,
    1210558858,
    5073247622,
    1210558877,
    1209775163,
    1209775138,
    2493829328,
    12601909205,
    2493829330,
    2493829329,
    1210558852,
    1210558863,
    1210558855,
    2493829486
  ],
  "tags": {
    "landuse": "cemetery"
  }
},
{
  "type": "way",
  "id": 106691396,
  "center": {
    "lat": 51.1848342,
    "lon": 14.6238006
  },
  "nodes": [
    1227204200,
    2266336847,
    1227204621,
    1252165843,
    1227204616,
    1145421558,
    2266336854,
    2266336855,
    1227204362,
    1227204735,
    2266336851,
    1227204200
  ],
  "tags": {
    "landuse": "cemetery",
    "name": "Friedhof Kotitz",
    "name:hsb": "Kotečanski kěrchow",
    "wikidata": "Q86539139"
  }
},
{
  "type": "way",
  "id": 107808263,
  "center": {
    "lat": 51.5784158,
    "lon": 14.5556639
  },
  "nodes": [
    1238344344,
    1238344357,
    1238344362,
    6407030663,
    1893571989,
    6413500235,
    1238344344
  ],
  "tags": {
    "landuse": "cemetery"
  }
},
{
  "type": "way",
  "id": 110235043,
  "center": {
    "lat": 51.1692873,
    "lon": 14.5011031
  },
  "nodes": [
    1259465601,
    1259465656,
    1259465687,
    1259465737,
    1259465692,
    1259465601
  ],
  "tags": {
    "landuse": "cemetery",
    "name": "Friedhof Kubschütz",
    "name:hsb": "Kubšiske pohrjebnišćo",
    "wikidata": "Q49409563"
  }
},
{
  "type": "way",
  "id": 110380515,
  "center": {
    "lat": 51.0117725,
    "lon": 14.3661461
  },
  "nodes": [
    1207432102,
    1207432655,
    1207432274,
    1207432331,
    1207432986,
    1207432120,
    1207432708,
    1207432773,
    11898166846,
    1207432416,
    1207432102
  ],
  "tags": {
    "landuse": "cemetery"
  }
},
{
  "type": "way",
  "id": 111712629,
  "center": {
    "lat": 51.1646344,
    "lon": 14.6746271
  },
  "nodes": [
    1272121367,
    1272941243,
    1272121357,
    1272121418,
    1272121390,
    1272121367
  ],
  "tags": {
    "landuse": "cemetery"
  }
},
{
  "type": "way",
  "id": 111828715,
  "center": {
    "lat": 51.6217186,
    "lon": 14.5433712
  },
  "nodes": [
    1273189260,
    5873443966,
    5877684887,
    1273189262,
    1273189261,
    5873443961,
    1273189263,
    1273189260
  ],
  "tags": {
    "landuse": "cemetery",
    "name": "Friedhof Bohsdorf",
    "religion": "christian"
  }
},
{
  "type": "way",
  "id": 113727155,
  "center": {
    "lat": 51.9102055,
    "lon": 14.1276503
  },
  "nodes": [
    1289241744,
    1289241736,
    2123046094,
    1289241745,
    1289251212,
    1289241744
  ],
  "tags": {
    "landuse": "cemetery",
    "name": "Alter Friedhof"
  }
},
{
  "type": "way",
  "id": 115836455,
  "center": {
    "lat": 51.6990670,
    "lon": 14.2018829
  },
  "nodes": [
    1307591576,
    1307591580,
    1672891167,
    10788381132,
    1307591581,
    1307591576
  ],
  "tags": {
    "landuse": "cemetery",
    "religion": "christian"
  }
},
{
  "type": "way",
  "id": 117743063,
  "center": {
    "lat": 51.6768753,
    "lon": 14.4403078
  },
  "nodes": [
    1325794624,
    1325794643,
    1325794617,
    1325794647,
    1676318902,
    1325794624
  ],
  "tags": {
    "barrier": "fence",
    "landuse": "cemetery",
    "religion": "christian"
  }
},
{
  "type": "way",
  "id": 118915682,
  "center": {
    "lat": 51.0498446,
    "lon": 14.6053537
  },
  "nodes": [
    686671304,
    686671310,
    1336739265,
    1336739414,
    1336739219,
    1336739365,
    1336739254,
    1336739407,
    686671304
  ],
  "tags": {
    "landuse": "cemetery",
    "religion": "christian"
  }
},
{
  "type": "way",
  "id": 118946781,
  "center": {
    "lat": 51.0425724,
    "lon": 14.1167526
  },
  "nodes": [
    1337159336,
    1639501918,
    1639501907,
    1337159253,
    1337159439,
    1639501867,
    1337159389,
    1639501875,
    1337159309,
    1337159212,
    10652355540,
    1337159412,
    1337159368,
    7168918087,
    1639501942,
    1337159336
  ],
  "tags": {
    "addr:city": "Langenwolmsdorf",
    "addr:postcode": "01833",
    "addr:street": "Bergstraße",
    "amenity": "grave_yard",
    "religion": "christian"
  }
},
{
  "type": "way",
  "id": 121910620,
  "center": {
    "lat": 51.4345535,
    "lon": 14.8867581
  },
  "nodes": [
    1363546318,
    1363546302,
    1363546298,
    1363546284,
    1363546318
  ],
  "tags": {
    "amenity": "grave_yard",
    "name": "unbekannte Soldaten"
  }
},
{
  "type": "way",
  "id": 122289174,
  "center": {
    "lat": 51.5762154,
    "lon": 14.3609806
  },
  "nodes": [
    13194281899,
    13194281900,
    13194281901,
    13194281902,
    964933003,
    13194281903,
    13194281904,
    1363490130,
    1363490241,
    1363490128,
    1533270206,
    1363490127,
    1363490271,
    1363490126,
    1363490125,
    964933002,
    964933055,
    964933037,
    964933086,
    13194281953,
    964933054,
    13194281952,
    13194281951,
    13194281906,
    13194281905,
    964932976,
    13194281899
  ],
  "tags": {
    "landuse": "cemetery",
    "name": "Waldfriedhof",
    "name:hsb": "Gólny kjarchob",
    "religion": "christian"
  }
},
{
  "type": "way",
  "id": 122291864,
  "center": {
    "lat": 51.0682727,
    "lon": 14.5360969
  },
  "nodes": [
    1366959265,
    1366959266,
    4672331768,
    1366959267,
    1292030538,
    1292030523,
    1292030516,
    5540578555,
    5540578554,
    5540578553,
    5540578552,
    1366959268,
    1366959269,
    1366959270,
    1366959271,
    1366959272,
    1366959273,
    4672331733,
    1366959274,
    1366959275,
    1366959276,
    1366959277,
    1366959265
  ],
  "tags": {
    "landuse": "cemetery",
    "religion": "christian"
  }
},
{
  "type": "way",
  "id": 123357293,
  "center": {
    "lat": 51.3819496,
    "lon": 14.0143559
  },
  "nodes": [
    6082969207,
    127680186,
    8664661505,
    8664661506,
    9565161206,
    6082969207
  ],
  "tags": {
    "amenity": "grave_yard"
  }
},
{
  "type": "way",
  "id": 123501155,
  "center": {
    "lat": 51.8498454,
    "lon": 14.3219684
  },
  "nodes": [
    234146322,
    234146324,
    234146327,
    234146317,
    234146322
  ],
  "tags": {
    "landuse": "cemetery"
  }
},
{
  "type": "way",
  "id": 123610887,
  "center": {
    "lat": 51.9558240,
    "lon": 14.7254321
  },
  "nodes": [
    2304080710,
    2304080709,
    1377765651,
    4049288650,
    1377765637,
    1377765612,
    1726551985,
    1377765540,
    1377765562,
    1377765587,
    1377765613,
    1377765630,
    1377765695,
    5294452726,
    2304080710
  ],
  "tags": {
    "description": "https://fotopolska.eu/Stary_cmentarz_Gubin?map_z=17",
    "landuse": "cemetery",
    "leaf_type": "broadleaved",
    "natural": "wood",
    "religion": "christian",
    "url": "https://polska-org.pl/4707790,Gubin,Stary_cmentarz.html"
  }
},
{
  "type": "way",
  "id": 124127906,
  "center": {
    "lat": 51.7725385,
    "lon": 14.3807686
  },
  "nodes": [
    2287231069,
    1382363209,
    1382363204,
    8510313950,
    8510313932,
    1382363208,
    1382363211,
    11396933662,
    280939915,
    2287231069
  ],
  "tags": {
    "landuse": "cemetery",
    "name": "Kriegsgefangenen Friedhof",
    "name:de": "Alter Friedhof/ Kriegsgräberstätte",
    "religion": "christian"
  }
},
{
  "type": "way",
  "id": 124205637,
  "center": {
    "lat": 51.2467807,
    "lon": 14.8253072
  },
  "nodes": [
    1383065350,
    3555121131,
    3555121133,
    3555121137,
    3555121138,
    1383065145,
    3555121152,
    3555121154,
    1383065126,
    3555121148,
    1383065299,
    3555121146,
    1383065350
  ],
  "tags": {
    "amenity": "grave_yard",
    "religion": "christian"
  }
},
{
  "type": "way",
  "id": 126576927,
  "center": {
    "lat": 51.7268892,
    "lon": 14.2886695
  },
  "nodes": [
    9311932556,
    9311932558,
    1402866994,
    1402866991,
    3504270337,
    9311932556
  ],
  "tags": {
    "landuse": "cemetery",
    "name": "Friedhof Klein Gaglow",
    "religion": "christian"
  }
},
{
  "type": "way",
  "id": 127682885,
  "center": {
    "lat": 51.7730711,
    "lon": 14.3326656
  },
  "nodes": [
    1412639245,
    7833029351,
    1480675643,
    1412639244,
    1480675634,
    7833029390,
    7833029439,
    7833029437,
    7833029436,
    7833029391,
    7833029394,
    7833029416,
    7833029417,
    7833029413,
    7833029418,
    1412639242,
    1412639241,
    1412639243,
    1412639245
  ],
  "tags": {
    "barrier": "wall",
    "landuse": "cemetery",
    "name": "Nordfriedhof",
    "name:hsb": "Pódpołnocny kjarchob",
    "religion": "christian",
    "wikidata": "Q61918697"
  }
},
{
  "type": "way",
  "id": 128616582,
  "center": {
    "lat": 51.7513453,
    "lon": 14.2920575
  },
  "nodes": [
    1420867765,
    11816208232,
    4018082391,
    4018082396,
    11816208250,
    11816208253,
    11816208259,
    11816208260,
    11816208261,
    13041094599,
    1364790978,
    7517401203,
    1364791027,
    1364791054,
    11816208192,
    1420867765
  ],
  "tags": {
    "landuse": "cemetery",
    "name": "Friedhof Ströbitz/Strobice",
    "religion": "christian"
  }
},
{
  "type": "way",
  "id": 129017214,
  "center": {
    "lat": 51.7921030,
    "lon": 14.3320879
  },
  "nodes": [
    1424284325,
    1424311564,
    1424311558,
    1699458622,
    3344975324,
    1424284312,
    1424284325
  ],
  "tags": {
    "landuse": "cemetery",
    "name": "Friedhof Schmellwitz",
    "religion": "christian"
  }
},
{
  "type": "way",
  "id": 129806025,
  "center": {
    "lat": 51.6031066,
    "lon": 14.0892697
  },
  "nodes": [
    1431395698,
    1431395695,
    1431395693,
    1431395692,
    1431395694,
    1431395700,
    1431395698
  ],
  "tags": {
    "amenity": "grave_yard"
  }
},
{
  "type": "way",
  "id": 129972015,
  "center": {
    "lat": 51.0469080,
    "lon": 14.4818230
  },
  "nodes": [
    1432976722,
    1432976724,
    1432976725,
    13015333764,
    13015333763,
    1432976726,
    1432976727,
    1432976728,
    1432976729,
    1432976733,
    1432976735,
    1432976737,
    13015333765,
    1432976722
  ],
  "tags": {
    "description": "Friedhof Taubenheim",
    "landuse": "cemetery"
  }
},
{
  "type": "way",
  "id": 130789245,
  "center": {
    "lat": 51.0830478,
    "lon": 14.4518823
  },
  "nodes": [
    1439592609,
    11939132632,
    11939132626,
    11939132630,
    11939132629,
    262845666,
    262845667,
    262845669,
    262845677,
    1035877331,
    1439592596,
    1439592594,
    1439592592,
    1439592590,
    1439592588,
    1439592585,
    1439592609
  ],
  "tags": {
    "landuse": "cemetery",
    "religion": "christian"
  }
},
{
  "type": "way",
  "id": 131332729,
  "center": {
    "lat": 51.0525712,
    "lon": 14.1728012
  },
  "nodes": [
    1445641817,
    1445641844,
    1445641823,
    1445641838,
    1445641846,
    1445641828,
    1445641827,
    1887418712,
    2772005614,
    1445641831,
    1445641817
  ],
  "tags": {
    "landuse": "cemetery"
  }
},
{
  "type": "way",
  "id": 131778987,
  "center": {
    "lat": 51.6936661,
    "lon": 14.1791289
  },
  "nodes": [
    1449905583,
    1449905585,
    1449905610,
    1449905606,
    1449905583
  ],
  "tags": {
    "landuse": "cemetery",
    "name": "Friedhof Illmersdorf"
  }
},
{
  "type": "way",
  "id": 132260483,
  "center": {
    "lat": 51.7921401,
    "lon": 14.0814087
  },
  "nodes": [
    1455300982,
    1455301005,
    1455300992,
    1455300976,
    1455300982
  ],
  "tags": {
    "landuse": "cemetery",
    "religion": "christian",
    "wheelchair": "limited"
  }
},
{
  "type": "way",
  "id": 132380679,
  "center": {
    "lat": 51.8159958,
    "lon": 14.0407129
  },
  "nodes": [
    1456294244,
    1456294243,
    2440585776,
    1456294253,
    10676142997,
    1456294257,
    10655928582,
    1456294244
  ],
  "tags": {
    "landuse": "cemetery",
    "religion": "christian"
  }
},
{
  "type": "way",
  "id": 133195162,
  "center": {
    "lat": 51.1149765,
    "lon": 14.7817013
  },
  "nodes": [
    1465736605,
    1465736608,
    1465736611,
    1465736614,
    1465736616,
    1465736633,
    1711845523,
    1465736637,
    1465736641,
    7193840626,
    7193840627,
    1465736647,
    1465736651,
    1465736654,
    1465736656,
    1465736605
  ],
  "tags": {
    "landuse": "cemetery",
    "religion": "christian"
  }
},
{
  "type": "way",
  "id": 133408641,
  "center": {
    "lat": 51.7847068,
    "lon": 14.0811602
  },
  "nodes": [
    733233910,
    733233876,
    12177279805,
    1468584682,
    1468584673,
    1468584701,
    1468584731,
    1468584776,
    1468584774,
    733234815,
    733233910
  ],
  "tags": {
    "landuse": "cemetery"
  }
},
{
  "type": "way",
  "id": 134040470,
  "center": {
    "lat": 51.0968311,
    "lon": 14.4275367
  },
  "nodes": [
    1440778195,
    4770755225,
    4770755106,
    1030134746,
    1030134770,
    4772529299,
    1130852349,
    1130852283,
    4772529295,
    4772529294,
    4770755109,
    4772529329,
    4770755218,
    4772529328,
    1474445458,
    1440778195
  ],
  "tags": {
    "landuse": "cemetery"
  }
},
{
  "type": "way",
  "id": 135251280,
  "center": {
    "lat": 51.0220146,
    "lon": 14.3173277
  },
  "nodes": [
    1485552521,
    3256921323,
    1485552515,
    3256922782,
    3256922790,
    5327635137,
    5327635104,
    1485552489,
    1485552408,
    1485552327,
    1485552521
  ],
  "tags": {
    "landuse": "cemetery"
  }
},
{
  "type": "way",
  "id": 135416642,
  "center": {
    "lat": 51.8017257,
    "lon": 14.0449585
  },
  "nodes": [
    1487269815,
    1487269814,
    1487274087,
    1487269810,
    1487269813,
    1487269815
  ],
  "tags": {
    "landuse": "cemetery",
    "religion": "christian"
  }
},
{
  "type": "way",
  "id": 135618978,
  "center": {
    "lat": 51.7787651,
    "lon": 14.0346931
  },
  "nodes": [
    1489214657,
    1489214633,
    1489214783,
    7791816816,
    1489214831,
    1489214677,
    1489214657
  ],
  "tags": {
    "landuse": "cemetery",
    "religion": "christian"
  }
},
{
  "type": "way",
  "id": 135996371,
  "center": {
    "lat": 51.0393437,
    "lon": 14.0529198
  },
  "nodes": [
    1492510833,
    4879920037,
    5796520283,
    4879920036,
    1492510830,
    1492510832,
    1492510831,
    5796520284,
    1492510829,
    5796520292,
    1492510828,
    12057767689,
    1492510827,
    4879920039,
    4879920038,
    9308240324,
    1492510833
  ],
  "tags": {
    "amenity": "grave_yard",
    "wikidata": "Q49503783"
  }
},
{
  "type": "way",
  "id": 137293494,
  "center": {
    "lat": 51.7572280,
    "lon": 14.0052207
  },
  "nodes": [
    1506007444,
    1506007441,
    1506007431,
    1506007438,
    1506007444
  ],
  "tags": {
    "amenity": "grave_yard",
    "denomination": "protestant",
    "religion": "christian",
    "source": "local_knowledge"
  }
},
{
  "type": "way",
  "id": 138007969,
  "center": {
    "lat": 51.0645349,
    "lon": 14.7965506
  },
  "nodes": [
    1072642932,
    3898465082,
    12053062952,
    1513172740,
    1513172738,
    12053062951,
    1513172735,
    1513172733,
    1751639654,
    12053062949,
    1751639601,
    2406663958,
    1072642932
  ],
  "tags": {
    "landuse": "cemetery"
  }
},
{
  "type": "way",
  "id": 138813564,
  "center": {
    "lat": 51.1175801,
    "lon": 14.9866434
  },
  "nodes": [
    8043667376,
    8043667375,
    13092652831,
    13092652830,
    13092652829,
    13092652826,
    13092652824,
    13092652823,
    13092652828,
    1522181038,
    2601220367,
    4796700029,
    1522181066,
    4796699773,
    13092652834,
    13092652832,
    8043667379,
    13092652833,
    8043667378,
    8043667377,
    8043667376
  ],
  "tags": {
    "denomination": "protestant",
    "landuse": "cemetery",
    "religion": "christian"
  }
},
{
  "type": "way",
  "id": 140047993,
  "center": {
    "lat": 51.1890652,
    "lon": 14.7437318
  },
  "nodes": [
    1534497394,
    1534497406,
    1534497407,
    1534497408,
    1534497409,
    1534497411,
    1534497413,
    1534497394
  ],
  "tags": {
    "description": "Friedhof Melaune",
    "landuse": "cemetery",
    "wikidata": "Q125373508"
  }
},
{
  "type": "way",
  "id": 142690896,
  "center": {
    "lat": 51.7151950,
    "lon": 14.3258409
  },
  "nodes": [
    1561514392,
    1561514428,
    1561514429,
    1561514390,
    1561514392
  ],
  "tags": {
    "denomination": "protestant",
    "landuse": "cemetery",
    "religion": "christian"
  }
},
{
  "type": "way",
  "id": 143601912,
  "center": {
    "lat": 51.7197483,
    "lon": 14.3461338
  },
  "nodes": [
    1571503017,
    1571502899,
    1571502887,
    1571502946,
    1571502963,
    1571502967,
    1490045654,
    1571503017
  ],
  "tags": {
    "landuse": "cemetery",
    "religion": "christian"
  }
},
{
  "type": "way",
  "id": 143956565,
  "center": {
    "lat": 51.8135698,
    "lon": 14.4266573
  },
  "nodes": [
    31557418,
    3971345999,
    3971362778,
    3971346001,
    1843334198,
    31557418
  ],
  "tags": {
    "landuse": "cemetery",
    "religion": "christian"
  }
},
{
  "type": "way",
  "id": 144048778,
  "center": {
    "lat": 51.6857971,
    "lon": 14.4727244
  },
  "nodes": [
    1576301030,
    1576301032,
    1576301052,
    1576301054,
    1576301056,
    5834262829,
    1576301057,
    1576301059,
    1576301047,
    1576301030
  ],
  "tags": {
    "landuse": "cemetery"
  }
},
{
  "type": "way",
  "id": 144273641,
  "center": {
    "lat": 51.0310788,
    "lon": 14.6259006
  },
  "nodes": [
    1578320997,
    1578321004,
    1578320996,
    1578320995,
    1578320997
  ],
  "tags": {
    "denomination": "orthodox",
    "landuse": "cemetery",
    "religion": "christian"
  }
},
{
  "type": "way",
  "id": 144273642,
  "center": {
    "lat": 51.0315637,
    "lon": 14.6274931
  },
  "nodes": [
    1578321008,
    1578321005,
    1578321012,
    1578321018,
    1578321008
  ],
  "tags": {
    "landuse": "cemetery",
    "religion": "christian"
  }
},
{
  "type": "way",
  "id": 144524359,
  "center": {
    "lat": 51.4618979,
    "lon": 14.7204904
  },
  "nodes": [
    1580732165,
    1580732163,
    1580732161,
    1580732162,
    3495354905,
    1580732165
  ],
  "tags": {
    "landuse": "cemetery"
  }
},
{
  "type": "way",
  "id": 144907082,
  "center": {
    "lat": 51.7118070,
    "lon": 14.3533988
  },
  "nodes": [
    31557361,
    31557363,
    31557366,
    31557368,
    31557361
  ],
  "tags": {
    "landuse": "cemetery"
  }
},
{
  "type": "way",
  "id": 145000369,
  "center": {
    "lat": 51.5034368,
    "lon": 14.7115054
  },
  "nodes": [
    3809871296,
    3809871319,
    11375515919,
    11375515929,
    11375515916,
    11375515948,
    3809871264,
    3809871263,
    850744324,
    11375515928,
    3809871296
  ],
  "tags": {
    "barrier": "fence",
    "landuse": "cemetery",
    "religion": "christian"
  }
},
{
  "type": "way",
  "id": 145018117,
  "center": {
    "lat": 51.5269755,
    "lon": 14.6644069
  },
  "nodes": [
    1584871137,
    1584871098,
    1584871157,
    1584871197,
    1584871223,
    1584871209,
    1584871167,
    1584871137
  ],
  "tags": {
    "landuse": "cemetery",
    "religion": "christian"
  }
},
{
  "type": "way",
  "id": 145070602,
  "center": {
    "lat": 51.6674394,
    "lon": 14.5470101
  },
  "nodes": [
    5869192369,
    1585228172,
    5869192358,
    5873584730,
    1585228171,
    1585228167,
    5873584717,
    5869192369
  ],
  "tags": {
    "landuse": "cemetery"
  }
},
{
  "type": "way",
  "id": 145177447,
  "center": {
    "lat": 51.0607622,
    "lon": 14.8821071
  },
  "nodes": [
    1586150558,
    1586150561,
    5522941135,
    1586150564,
    5522941134,
    5522941133,
    5522941132,
    5522941130,
    1586150502,
    1586150501,
    1586150499,
    12053332440,
    1586150558
  ],
  "tags": {
    "landuse": "cemetery"
  }
},
{
  "type": "way",
  "id": 146086324,
  "center": {
    "lat": 51.7320898,
    "lon": 14.3416974
  },
  "nodes": [
    11835476433,
    7159816520,
    11835476716,
    1593842591,
    1593842579,
    4111088906,
    11835476551,
    11835476552,
    11835476553,
    4111088904,
    4104771652,
    11835476496,
    715706306,
    11835476591,
    11835476594,
    11835476424,
    11835476423,
    11835476422,
    11835476421,
    11835476420,
    11835476419,
    11835476433
  ],
  "tags": {
    "landuse": "cemetery",
    "name": "Sowjetischer Ehrenfriedhof",
    "name:ru": "Советское воинское кладбище Котбус",
    "religion": "christian",
    "start_date": "1945"
  }
},
{
  "type": "way",
  "id": 146397311,
  "center": {
    "lat": 51.9904292,
    "lon": 14.3766312
  },
  "nodes": [
    1596693019,
    1596693024,
    1596693023,
    1596693017,
    13233058513,
    1596693019
  ],
  "tags": {
    "amenity": "grave_yard",
    "barrier": "fence",
    "description": "Gedenkstätte Waldfriedhof Sowjetisches Speziallager Nr. 6 Jamlitz 1945-1947",
    "historic": "memorial",
    "image": "https://commons.wikimedia.org/wiki/File%3AJamlitz_Gedenkstaette_Waldfriedhof-01.jpg",
    "name": "Gedenkstätte Waldfriedhof",
    "wikidata": "Q136499976",
    "wikimedia_commons": "Category:Gedenkstätte Waldfriedhof (Speziallager Jamlitz)"
  }
},
{
  "type": "way",
  "id": 146592490,
  "center": {
    "lat": 51.2175107,
    "lon": 14.1895853
  },
  "nodes": [
    1598651240,
    1598651418,
    1598651353,
    11550152064,
    1598651385,
    1598651370,
    1598637009,
    1981358778,
    11550152067,
    11550152066,
    11550152065,
    1598651240
  ],
  "tags": {
    "denomination": "catholic",
    "landuse": "cemetery",
    "religion": "christian"
  }
},
{
  "type": "way",
  "id": 147443438,
  "center": {
    "lat": 51.5347175,
    "lon": 14.7395645
  },
  "nodes": [
    1606673288,
    1606673278,
    1606673247,
    1606673242,
    1606673234,
    10293958869,
    10293958870,
    1606673297,
    1606673306,
    2767284699,
    1606673309,
    1606673288
  ],
  "tags": {
    "landuse": "cemetery",
    "name:de": "Friedhof",
    "source": "Bing"
  }
},
{
  "type": "way",
  "id": 148445559,
  "center": {
    "lat": 51.1963443,
    "lon": 14.4182517
  },
  "nodes": [
    1615475951,
    10178516708,
    1615475936,
    1615475935,
    1615475922,
    1615475951
  ],
  "tags": {
    "contact:website": "https://www.bautzen.de/anliegen/friedhofsangelegenheiten",
    "landuse": "cemetery",
    "name": "Friedhof Teichnitz",
    "name:hsb": "Ćichoński kěrchow",
    "url": "https://www.bautzen.de/fileadmin/media/ortsrecht/oeffentliche-einrichtungen/friedhofssatzung-2019.pdf",
    "wikidata": "Q62033103"
  }
},
{
  "type": "way",
  "id": 150351439,
  "center": {
    "lat": 51.7773787,
    "lon": 14.3800718
  },
  "nodes": [
    1632743482,
    1382322668,
    1382322694,
    1632743499,
    5527918694,
    5527918697,
    5527918702,
    5527918704,
    1632743532,
    1632743502,
    5527918705,
    1632743487,
    1632743478,
    1632743465,
    1632743482
  ],
  "tags": {
    "landuse": "cemetery",
    "name": "Friedhof Merzdorf",
    "religion": "christian"
  }
},
{
  "type": "way",
  "id": 150957951,
  "center": {
    "lat": 51.4619218,
    "lon": 14.2259857
  },
  "nodes": [
    1638149114,
    1907919098,
    1638149128,
    1638149115,
    1638149107,
    1638149114
  ],
  "tags": {
    "barrier": "fence",
    "landuse": "cemetery"
  }
},
{
  "type": "way",
  "id": 151365923,
  "center": {
    "lat": 51.0642096,
    "lon": 14.9603549
  },
  "nodes": [
    1641909391,
    11261208462,
    1641909387,
    11261208461,
    1498099411,
    1498099412,
    1498099414,
    306457151,
    1641909393,
    1641909391
  ],
  "tags": {
    "description": "Friedhof - cmentarz",
    "landuse": "cemetery",
    "religion": "christian"
  }
},
{
  "type": "way",
  "id": 152131378,
  "center": {
    "lat": 51.7157657,
    "lon": 14.4039460
  },
  "nodes": [
    1649619681,
    1649619684,
    1649619683,
    1649619682,
    1649619680,
    1649619679,
    1649619677,
    1649619676,
    1649619678,
    1649619681
  ],
  "tags": {
    "landuse": "cemetery",
    "religion": "christian"
  }
},
{
  "type": "way",
  "id": 152690074,
  "center": {
    "lat": 51.0420768,
    "lon": 14.9458143
  },
  "nodes": [
    1654893913,
    1654893872,
    1654893869,
    1654893911,
    1654893913
  ],
  "tags": {
    "landuse": "cemetery"
  }
},
{
  "type": "way",
  "id": 152977720,
  "center": {
    "lat": 51.7507469,
    "lon": 14.5489265
  },
  "nodes": [
    1657368342,
    1657368350,
    1657368400,
    1657368378,
    1657368342
  ],
  "tags": {
    "landuse": "cemetery",
    "religion": "christian"
  }
},
{
  "type": "way",
  "id": 154044739,
  "center": {
    "lat": 51.6916092,
    "lon": 14.5987728
  },
  "nodes": [
    1666470493,
    5823579318,
    1666470491,
    1666584463,
    1666470500,
    1666470493
  ],
  "tags": {
    "landuse": "cemetery",
    "religion": "christian"
  }
},
{
  "type": "way",
  "id": 154069577,
  "center": {
    "lat": 51.7180735,
    "lon": 14.6573765
  },
  "nodes": [
    1666643533,
    1666643531,
    1666643532,
    1666643536,
    1666643534,
    1666643533
  ],
  "tags": {
    "landuse": "cemetery",
    "website": "https://www.forst-lausitz.de/sixcms/detail.php?id=112700"
  }
},
{
  "type": "way",
  "id": 155604109,
  "center": {
    "lat": 51.7245616,
    "lon": 14.5781419
  },
  "nodes": [
    1680014534,
    7264539298,
    7264539322,
    1680014541,
    1680014534
  ],
  "tags": {
    "landuse": "cemetery",
    "website": "https://www.forst-lausitz.de/sixcms/detail.php?id=112700"
  }
},
{
  "type": "way",
  "id": 157158675,
  "center": {
    "lat": 51.6088414,
    "lon": 14.4097735
  },
  "nodes": [
    1693789060,
    1693789048,
    1693789062,
    8059391456,
    1693789060
  ],
  "tags": {
    "landuse": "cemetery"
  }
},
{
  "type": "way",
  "id": 158483640,
  "center": {
    "lat": 51.4333831,
    "lon": 14.1391964
  },
  "nodes": [
    4915089304,
    6841877282,
    6841877281,
    1706759945,
    1706759959,
    4915089311,
    4915089316,
    4915089318,
    4915089319,
    4915089317,
    4915089314,
    1706759981,
    1706759979,
    1706759949,
    4915089308,
    6841877274,
    4915089307,
    4915089306,
    12271356684,
    4915089304
  ],
  "tags": {
    "denomination": "lutheran",
    "description": "Friedhof Schwarzkollm",
    "description:hsb": "Čornochołmčanski kěrchow",
    "landuse": "cemetery",
    "religion": "christian",
    "type": "multipolygon",
    "website": "http://www.kirche-schwarzkollm.de/friedhof.html"
  }
},
{
  "type": "way",
  "id": 158531076,
  "center": {
    "lat": 51.4411774,
    "lon": 14.1016080
  },
  "nodes": [
    1706196392,
    1706196382,
    4781529936,
    1706196398,
    1707139725,
    4781529932,
    4781529933,
    1706196392
  ],
  "tags": {
    "denomination": "protestant",
    "description": "evangelischer Friedhof Torno",
    "landuse": "cemetery",
    "religion": "christian"
  }
},
{
  "type": "way",
  "id": 159153788,
  "center": {
    "lat": 51.3462025,
    "lon": 14.0714751
  },
  "nodes": [
    433981014,
    420286800,
    433981013,
    1481512469,
    7214698872,
    1481512470,
    1481512455,
    433981014
  ],
  "tags": {
    "description": "Friedhof Straßgräbchen",
    "description:hsb": "Pohrjebnišćo Nadrózna Hrabowka",
    "landuse": "cemetery"
  }
},
{
  "type": "way",
  "id": 159213471,
  "center": {
    "lat": 51.0562816,
    "lon": 14.3843258
  },
  "nodes": [
    1713113858,
    1713113870,
    10224083958,
    1713113803,
    1713113798,
    4942236908,
    4942244621,
    1713113731,
    4942236904,
    1713113925,
    1713113908,
    1713113858
  ],
  "tags": {
    "landuse": "cemetery"
  }
},
{
  "type": "way",
  "id": 159223899,
  "center": {
    "lat": 51.4312317,
    "lon": 13.9999601
  },
  "nodes": [
    7622833224,
    7622833202,
    7622833225,
    7622833207,
    1713190333,
    1713190314,
    7622833206,
    7622833223,
    7622833224
  ],
  "tags": {
    "landuse": "cemetery",
    "name": "Friedhof Hohenbocka",
    "religion": "christian"
  }
},
{
  "type": "way",
  "id": 159551798,
  "center": {
    "lat": 51.3844860,
    "lon": 14.1544232
  },
  "nodes": [
    1716669960,
    1716669965,
    1716669941,
    1716669938,
    1716669960
  ],
  "tags": {
    "landuse": "cemetery",
    "name": "Friedhof Zeißholz"
  }
},
{
  "type": "way",
  "id": 160126946,
  "center": {
    "lat": 51.4937663,
    "lon": 14.4563999
  },
  "nodes": [
    1722034527,
    1722034521,
    1722034519,
    1722034502,
    1722034511,
    1722034527
  ],
  "tags": {
    "landuse": "cemetery",
    "religion": "christian"
  }
},
{
  "type": "way",
  "id": 160247871,
  "center": {
    "lat": 51.7135716,
    "lon": 14.0930074
  },
  "nodes": [
    1723062793,
    1723062785,
    1723062779,
    5224852926,
    1723062786,
    1723062802,
    5224852925,
    1723062793
  ],
  "tags": {
    "landuse": "cemetery",
    "name": "Friedhof Laasow"
  }
},
{
  "type": "way",
  "id": 161081087,
  "center": {
    "lat": 51.3642467,
    "lon": 14.5081531
  },
  "nodes": [
    1730835026,
    6469553647,
    1730835024,
    1730835061,
    6469553650,
    1730835064,
    6469553641,
    1730835026
  ],
  "tags": {
    "landuse": "cemetery",
    "name": "Friedhof Uhyst",
    "name:hsb": "Delnjowujězdźanski kěrchow",
    "wikidata": "Q91616944"
  }
},
{
  "type": "way",
  "id": 161297974,
  "center": {
    "lat": 51.3271696,
    "lon": 14.8909057
  },
  "nodes": [
    1732884838,
    1732884842,
    1732884840,
    1732884844,
    10221554245,
    1732884839,
    1732884841,
    4360430098,
    4360430099,
    1732884838
  ],
  "tags": {
    "amenity": "grave_yard",
    "religion": "christian"
  }
},
{
  "type": "way",
  "id": 162861669,
  "center": {
    "lat": 51.0005450,
    "lon": 14.4558010
  },
  "nodes": [
    1746680394,
    1746680419,
    2398674529,
    1746680469,
    1746680467,
    1746680452,
    1746680425,
    1746680462,
    1746680414,
    1746680401,
    2979466780,
    2979466781,
    1746680476,
    2398674564,
    1746680428,
    1746680431,
    1746680465,
    6251135332,
    6251135333,
    1746680424,
    1746680421,
    2979466782,
    2979466784,
    2979466786,
    2979466787,
    2979466790,
    2979466791,
    1746680394
  ],
  "tags": {
    "landuse": "cemetery",
    "source": "Bing"
  }
},
{
  "type": "way",
  "id": 164229747,
  "center": {
    "lat": 51.5932733,
    "lon": 14.5172318
  },
  "nodes": [
    1758791326,
    5963987039,
    1758791306,
    1758791301,
    1845379119,
    1758791326
  ],
  "tags": {
    "landuse": "cemetery"
  }
},
{
  "type": "way",
  "id": 164743424,
  "center": {
    "lat": 51.1924928,
    "lon": 14.4522566
  },
  "nodes": [
    12017236611,
    1763499763,
    1763499759,
    1763499762,
    12017236612,
    12017236611
  ],
  "tags": {
    "amenity": "grave_yard",
    "barrier": "fence",
    "name": "Jüdischer Friedhof Bautzen",
    "name:hsb": "Židowske pohrjebnišćo Budyšin",
    "religion": "jewish",
    "wikidata": "Q21173194"
  }
},
{
  "type": "way",
  "id": 164835479,
  "center": {
    "lat": 51.4938865,
    "lon": 14.0675151
  },
  "nodes": [
    1764363031,
    1764363030,
    1764363029,
    1764363033,
    1764363052,
    1764363057,
    1764363031
  ],
  "tags": {
    "landuse": "cemetery"
  }
},
{
  "type": "way",
  "id": 165716135,
  "center": {
    "lat": 51.9499157,
    "lon": 14.7469967
  },
  "nodes": [
    1772562782,
    1772562781,
    1772562756,
    1772562747,
    1772562759,
    1772562767,
    1772562787,
    1772562791,
    1772562800,
    1772562799,
    1772562798,
    11355061354,
    11355061355,
    11355061356,
    1772562782
  ],
  "tags": {
    "denomination": "roman_catholic",
    "landuse": "cemetery",
    "name": "Cmentarz komunalny",
    "religion": "christian",
    "url": "https://polska-org.pl/6458047,Gubin,Cmentarz_komunalny.html"
  }
},
{
  "type": "way",
  "id": 165716172,
  "center": {
    "lat": 51.9101513,
    "lon": 14.6784408
  },
  "nodes": [
    1772560347,
    1772560314,
    1772560306,
    1772560343,
    1772560347
  ],
  "tags": {
    "landuse": "cemetery",
    "name": "Friedhof Schlagsdorf",
    "religion": "christian"
  }
},
{
  "type": "way",
  "id": 165716181,
  "center": {
    "lat": 51.9933877,
    "lon": 14.6783314
  },
  "nodes": [
    1772565220,
    1772565208,
    1737498956,
    1772565204,
    1772565219,
    1772565220
  ],
  "tags": {
    "barrier": "fence",
    "landuse": "cemetery"
  }
},
{
  "type": "way",
  "id": 166478955,
  "center": {
    "lat": 51.7568793,
    "lon": 14.6436848
  },
  "nodes": [
    1779233453,
    1779233455,
    2918599422,
    2918599423,
    2918616136,
    2918616137,
    2918674343,
    1779233408,
    2918674314,
    1986906444,
    2920168145,
    1986906402,
    1779233354,
    2918674310,
    1779233353,
    1779233359,
    2920168141,
    1779233356,
    1779233370,
    1779233392,
    1779233388,
    2977114365,
    2977114372,
    2977114380,
    1779233425,
    2905982755,
    2977114382,
    2918674331,
    1986259779,
    1986259781,
    1986259786,
    1779233436,
    5361395428,
    1779233453
  ],
  "tags": {
    "barrier": "wall",
    "height": "2",
    "landuse": "cemetery",
    "url": "https://polska-org.pl/5987149,Forst_Lausitz,Cmentarz_miejski.html",
    "website": "https://www.forst-lausitz.de/sixcms/detail.php?id=112700"
  }
},
{
  "type": "way",
  "id": 167489053,
  "center": {
    "lat": 51.4486280,
    "lon": 14.0948904
  },
  "nodes": [
    1788811782,
    1788811784,
    1788811727,
    1788811726,
    1788811730,
    1788811728,
    1788811782
  ],
  "tags": {
    "landuse": "cemetery"
  }
},
{
  "type": "way",
  "id": 168286518,
  "center": {
    "lat": 51.4661144,
    "lon": 14.1374153
  },
  "nodes": [
    1795704625,
    1795704621,
    1795704610,
    1795704563,
    1795704568,
    1795704577,
    1795704625
  ],
  "tags": {
    "landuse": "cemetery"
  }
},
{
  "type": "way",
  "id": 168559773,
  "center": {
    "lat": 51.4183965,
    "lon": 14.1959058
  },
  "nodes": [
    1735315251,
    1798055883,
    1798055882,
    11291276418,
    1713365123,
    3998723512,
    11291276422,
    11291276423,
    1735315251
  ],
  "tags": {
    "landuse": "cemetery",
    "name": "Friedhof Michalken",
    "name:hsb": "Michałčanske pohrjebnišćo",
    "operator:type": "public",
    "operator:wikidata": "Q14904",
    "url": "https://www.hoyerswerda.de/wp-content/uploads///formulare%20internetseite/Geschäftskreis%20Bürgermeister/33_FB%20Bürgeramt/33_2_FG%20öffentl%20Sicherheit%20u%20Ordnung/33_21_%20FD%20öffentl%20Sicherheit%20u%20Ordnung%20_Friedhö/4_Friedhofsverwaltung/Formu",
    "wikidata": "Q91617014"
  }
},
{
  "type": "way",
  "id": 168686204,
  "center": {
    "lat": 51.7540341,
    "lon": 14.6228012
  },
  "nodes": [
    1799130683,
    1799130682,
    12082936396,
    1799130685,
    1799130688,
    1799130683
  ],
  "tags": {
    "landuse": "cemetery",
    "name": "Friedhof Horno",
    "religion": "christian"
  }
},
{
  "type": "way",
  "id": 169089040,
  "center": {
    "lat": 51.3088197,
    "lon": 14.3333036
  },
  "nodes": [
    1802594970,
    1802594975,
    1802595041,
    1802595236,
    1802595221,
    1802595169,
    1802595038,
    1802594996,
    1802594976,
    1802594970
  ],
  "tags": {
    "landuse": "cemetery",
    "name": "Friedhof Königswartha",
    "name:hsb": "Rakečanski kěrchow",
    "wikidata": "Q65930510"
  }
},
{
  "type": "way",
  "id": 169447338,
  "center": {
    "lat": 51.4659850,
    "lon": 14.7640638
  },
  "nodes": [
    1806091412,
    1806091410,
    1806091414,
    1806091416,
    1806091412
  ],
  "tags": {
    "amenity": "grave_yard",
    "name": "Friedhof Brand",
    "religion": "christian"
  }
},
{
  "type": "way",
  "id": 170281494,
  "center": {
    "lat": 51.8774174,
    "lon": 14.3927612
  },
  "nodes": [
    1814340321,
    5647967675,
    1814340191,
    5647967685,
    5647967679,
    1814340121,
    1814340190,
    1814340321
  ],
  "tags": {
    "landuse": "cemetery",
    "source": "Bing; survey"
  }
},
{
  "type": "way",
  "id": 170307455,
  "center": {
    "lat": 51.8573639,
    "lon": 14.2533193
  },
  "nodes": [
    1814620981,
    1814621039,
    1814620847,
    39578991,
    1814620981
  ],
  "tags": {
    "landuse": "cemetery",
    "source": "Bing"
  }
},
{
  "type": "way",
  "id": 170308011,
  "center": {
    "lat": 51.8689493,
    "lon": 14.3612142
  },
  "nodes": [
    1814629741,
    1814629715,
    1814629743,
    1814629717,
    1814629741
  ],
  "tags": {
    "landuse": "cemetery",
    "source": "Bing"
  }
},
{
  "type": "way",
  "id": 170446119,
  "center": {
    "lat": 51.1552438,
    "lon": 14.3874786
  },
  "nodes": [
    10206748776,
    674144271,
    10206748777,
    1815853061,
    1815853059,
    687788184,
    10206748776
  ],
  "tags": {
    "landuse": "cemetery",
    "name": "Friedhof Grubschütz",
    "name:hsb": "Hrubjelčanski kěrchow",
    "religion": "christian",
    "wikidata": "Q86537906"
  }
},
{
  "type": "way",
  "id": 170506167,
  "center": {
    "lat": 51.1481370,
    "lon": 14.0097057
  },
  "nodes": [
    12140114075,
    12140114073,
    12140114069,
    12140114072,
    12140114066,
    1816649410,
    1816649551,
    13121463531,
    13121463532,
    1816649566,
    12140114077,
    12140114075
  ],
  "tags": {
    "landuse": "cemetery",
    "name": "Äußerer Friedhof Großröhrsdorf",
    "wikidata": "Q102070970"
  }
},
{
  "type": "way",
  "id": 170786483,
  "center": {
    "lat": 51.2264347,
    "lon": 14.0583958
  },
  "nodes": [
    1819303232,
    1819303234,
    1819303252,
    1819303236,
    1819303204,
    13246513019,
    1819303202,
    12963830598,
    1819303189,
    1139931741,
    1139931773,
    13202962974,
    1139931759,
    1139931810,
    12963837603,
    12222088160,
    1819303185,
    1819303191,
    1819303193,
    1819303195,
    1819303228,
    1819303230,
    1819303232
  ],
  "tags": {
    "landuse": "cemetery"
  }
},
{
  "type": "way",
  "id": 170811817,
  "center": {
    "lat": 51.9210538,
    "lon": 14.0261129
  },
  "nodes": [
    1819514979,
    1819514997,
    2096255808,
    2096255842,
    1819515090,
    1819515100,
    1819514979
  ],
  "tags": {
    "landuse": "cemetery",
    "name": "Friedhof Alt Zauche",
    "source": "local knowledge"
  }
},
{
  "type": "way",
  "id": 170978025,
  "center": {
    "lat": 51.7919290,
    "lon": 14.1495754
  },
  "nodes": [
    3809334154,
    1820834389,
    1820834460,
    1820834385,
    11148360439,
    11148360440,
    11148360441,
    11148360442,
    3809334154
  ],
  "tags": {
    "landuse": "cemetery",
    "religion": "christian",
    "source": "Bing"
  }
},
{
  "type": "way",
  "id": 171127340,
  "center": {
    "lat": 51.8894640,
    "lon": 14.3091931
  },
  "nodes": [
    1822083500,
    1822083451,
    1822083449,
    5639898495,
    1822083453,
    1822083492,
    1822083502,
    1822083500
  ],
  "tags": {
    "landuse": "cemetery",
    "source": "Bing"
  }
},
{
  "type": "way",
  "id": 171136081,
  "center": {
    "lat": 51.9080415,
    "lon": 14.1833529
  },
  "nodes": [
    268046004,
    6566601123,
    1822131757,
    268046006,
    268046007,
    268046004
  ],
  "tags": {
    "landuse": "cemetery"
  }
},
{
  "type": "way",
  "id": 171351661,
  "center": {
    "lat": 51.7405784,
    "lon": 14.0975737
  },
  "nodes": [
    1723063564,
    1723063495,
    1723063486,
    1723063523,
    1823906588,
    1723063564
  ],
  "tags": {
    "landuse": "cemetery",
    "source": "Bing"
  }
},
{
  "type": "way",
  "id": 171717985,
  "center": {
    "lat": 51.6295965,
    "lon": 14.1358471
  },
  "nodes": [
    5345182833,
    1827063562,
    1827063563,
    1827063568,
    1827063557,
    1827063553,
    5345182833
  ],
  "tags": {
    "landuse": "cemetery",
    "source": "Bing"
  }
},
{
  "type": "way",
  "id": 171748472,
  "center": {
    "lat": 51.9270732,
    "lon": 14.0941178
  },
  "nodes": [
    1827301825,
    623264189,
    1827301823,
    1827301822,
    2291589676,
    1827301821,
    1827301820,
    2291777726,
    1827301825
  ],
  "tags": {
    "landuse": "cemetery",
    "source": "Bing"
  }
},
{
  "type": "way",
  "id": 171772178,
  "center": {
    "lat": 51.5784179,
    "lon": 14.4923346
  },
  "nodes": [
    1827512207,
    1827512203,
    1827512201,
    1827512197,
    6394319426,
    1827512207
  ],
  "tags": {
    "landuse": "cemetery",
    "source": "Bing"
  }
},
{
  "type": "way",
  "id": 171772179,
  "center": {
    "lat": 51.5868655,
    "lon": 14.4799096
  },
  "nodes": [
    1827512309,
    1827512285,
    1827512310,
    5941135130,
    1827512279,
    1827512309
  ],
  "tags": {
    "landuse": "cemetery",
    "source": "Bing"
  }
},
{
  "type": "way",
  "id": 171791325,
  "center": {
    "lat": 51.5155557,
    "lon": 14.7557480
  },
  "nodes": [
    1827691312,
    1584728226,
    1827691314,
    1187321740,
    1296735437,
    3076626317,
    1187321790,
    1827691312
  ],
  "tags": {
    "landuse": "cemetery",
    "source": "Bing"
  }
},
{
  "type": "way",
  "id": 171986582,
  "center": {
    "lat": 51.9919569,
    "lon": 14.3582874
  },
  "nodes": [
    1829436950,
    1829436949,
    1829436948,
    1829436951,
    1829436950
  ],
  "tags": {
    "landuse": "cemetery",
    "name": "Friedhof Jamlitz",
    "religion": "christian",
    "source": "Bing"
  }
},
{
  "type": "way",
  "id": 172008615,
  "center": {
    "lat": 51.9834252,
    "lon": 14.5400452
  },
  "nodes": [
    250696860,
    1829612863,
    1829612866,
    250696859,
    1586707491,
    250696860
  ],
  "tags": {
    "landuse": "cemetery"
  }
},
{
  "type": "way",
  "id": 172982763,
  "center": {
    "lat": 51.4260421,
    "lon": 14.5377662
  },
  "nodes": [
    1838135323,
    1838135322,
    1838135319,
    1838135318,
    1838135321,
    1838135323
  ],
  "tags": {
    "description": "Friedhof Sprey",
    "description:hsb": "Sprjowjanski kěrchow",
    "landuse": "cemetery",
    "religion": "christian",
    "wikidata": "Q91616998"
  }
},
{
  "type": "way",
  "id": 172995324,
  "center": {
    "lat": 51.8986585,
    "lon": 14.6797175
  },
  "nodes": [
    1838266574,
    1838266561,
    1838266553,
    1838266570,
    1838266574
  ],
  "tags": {
    "landuse": "cemetery"
  }
},
{
  "type": "way",
  "id": 173051858,
  "center": {
    "lat": 51.5015332,
    "lon": 14.6239526
  },
  "nodes": [
    11373289051,
    12183887412,
    214688602,
    214688613,
    12178051988,
    12178051985,
    12178051989,
    12178051986,
    12178051987,
    11373289051
  ],
  "tags": {
    "landuse": "cemetery",
    "religion": "christian"
  }
},
{
  "type": "way",
  "id": 173159617,
  "center": {
    "lat": 51.3833525,
    "lon": 14.2400223
  },
  "nodes": [
    252557258,
    252557255,
    252557256,
    252557257,
    252557258
  ],
  "tags": {
    "denomination": "catholic",
    "landuse": "cemetery",
    "name": "Katholischer Friedhof Wittichenau",
    "name:hsb": "Katolski kěrchow Kulow",
    "religion": "christian",
    "wikidata": "Q64210914"
  }
},
{
  "type": "way",
  "id": 173162972,
  "center": {
    "lat": 51.9391580,
    "lon": 14.1299649
  },
  "nodes": [
    258986001,
    258986002,
    258986003,
    258986000,
    258986001
  ],
  "tags": {
    "landuse": "cemetery"
  }
},
{
  "type": "way",
  "id": 173172820,
  "center": {
    "lat": 51.4995841,
    "lon": 14.8180140
  },
  "nodes": [
    1839998371,
    10225925813,
    1839998372,
    1839998370,
    370843974,
    10225925814,
    1839998373,
    370843761,
    1839998371
  ],
  "tags": {
    "landuse": "cemetery",
    "name": "Friedhof Skerbersdorf"
  }
},
{
  "type": "way",
  "id": 173172926,
  "center": {
    "lat": 51.4252666,
    "lon": 14.2824907
  },
  "nodes": [
    1839999547,
    7999393948,
    1839999539,
    7999393955,
    1839999538,
    7999393956,
    1839999545,
    1839999547
  ],
  "tags": {
    "landuse": "cemetery",
    "name": "Friedhof Zeißig",
    "name:hsb": "Ćiskowske pohrjebnišćo",
    "operator:type": "public",
    "operator:wikidata": "Q14904",
    "url": "https://www.hoyerswerda.de/wp-content/uploads///formulare%20internetseite/Geschäftskreis%20Bürgermeister/33_FB%20Bürgeramt/33_2_FG%20öffentl%20Sicherheit%20u%20Ordnung/33_21_%20FD%20öffentl%20Sicherheit%20u%20Ordnung%20_Friedhö/4_Friedhofsverwaltung/Formu",
    "wikidata": "Q91616924"
  }
},
{
  "type": "way",
  "id": 173343303,
  "center": {
    "lat": 51.1240657,
    "lon": 14.8526360
  },
  "nodes": [
    1841783148,
    1841783150,
    1841783153,
    1841783142,
    1841783156,
    1841783159,
    1841783162,
    1841783148
  ],
  "tags": {
    "landuse": "cemetery",
    "religion": "christian"
  }
},
{
  "type": "way",
  "id": 173452627,
  "center": {
    "lat": 51.5547402,
    "lon": 14.1883626
  },
  "nodes": [
    1842637953,
    1842637959,
    1842637967,
    1842637966,
    4844073215,
    1842637951,
    1842637953
  ],
  "tags": {
    "landuse": "cemetery",
    "religion": "christian"
  }
},
{
  "type": "way",
  "id": 173487592,
  "center": {
    "lat": 51.4407450,
    "lon": 14.2856794
  },
  "nodes": [
    1764088246,
    1764088244,
    1842908160,
    620477874,
    1842889205,
    620477875,
    1842889213,
    1842889218,
    620477876,
    259792700,
    1842889219,
    1842889220,
    1842889221,
    1842889201,
    1842889197,
    1842889193,
    1842889192,
    1842889191,
    250696988,
    1764088246
  ],
  "tags": {
    "alt_name": "Friedhof Kühnicht",
    "landuse": "cemetery",
    "name": "Waldfriedhof",
    "name:hsb": "Lěsne pohrjebnišćo",
    "operator:type": "public",
    "operator:wikidata": "Q14904",
    "url": "https://www.hoyerswerda.de/wp-content/uploads///formulare%20internetseite/Geschäftskreis%20Bürgermeister/33_FB%20Bürgeramt/33_2_FG%20öffentl%20Sicherheit%20u%20Ordnung/33_21_%20FD%20öffentl%20Sicherheit%20u%20Ordnung%20_Friedhö/4_Friedhofsverwaltung/Formu"
  }
},
{
  "type": "way",
  "id": 173488790,
  "center": {
    "lat": 51.7240455,
    "lon": 14.4876619
  },
  "nodes": [
    1436740717,
    1842899943,
    1842899945,
    1842899944,
    1842899942,
    1510653775,
    1436740717
  ],
  "tags": {
    "landuse": "cemetery"
  }
},
{
  "type": "way",
  "id": 173813087,
  "center": {
    "lat": 51.6016623,
    "lon": 14.5667859
  },
  "nodes": [
    1845743026,
    6700467316,
    6700467312,
    1845743014,
    1845742998,
    6700467300,
    6700467294,
    1845743047,
    6700467308,
    1845743026
  ],
  "tags": {
    "barrier": "fence",
    "landuse": "cemetery",
    "religion": "christian",
    "source": "Bing"
  }
},
{
  "type": "way",
  "id": 173908614,
  "center": {
    "lat": 51.5661757,
    "lon": 14.5332989
  },
  "nodes": [
    1846561435,
    1846561440,
    1846561442,
    1846561413,
    1846561435
  ],
  "tags": {
    "landuse": "cemetery",
    "name": "Friedhof Lieskau",
    "name:dsb": "Lěšćański kjarchob",
    "name:hsb": "Lěskowski kěrchow",
    "wikidata": "Q104395987"
  }
},
{
  "type": "way",
  "id": 173912254,
  "center": {
    "lat": 51.0437064,
    "lon": 14.8251678
  },
  "nodes": [
    1846595206,
    11405092797,
    11405092798,
    1846595205,
    1846595203,
    11405092796,
    2663346402,
    1459910885,
    1846595206
  ],
  "tags": {
    "landuse": "cemetery",
    "religion": "christian"
  }
},
{
  "type": "way",
  "id": 173913115,
  "center": {
    "lat": 51.9134824,
    "lon": 14.5717686
  },
  "nodes": [
    1846604752,
    1846604746,
    1846604742,
    8719570259,
    1846604749,
    1846604752
  ],
  "tags": {
    "landuse": "cemetery",
    "religion": "christian"
  }
},
{
  "type": "way",
  "id": 173930547,
  "center": {
    "lat": 51.8977297,
    "lon": 14.4544579
  },
  "nodes": [
    1846769510,
    1846769523,
    1846769506,
    7894359592,
    1846769487,
    5699913930,
    1846769510
  ],
  "tags": {
    "landuse": "cemetery",
    "religion": "christian"
  }
},
{
  "type": "way",
  "id": 173930549,
  "center": {
    "lat": 51.8610044,
    "lon": 14.5086578
  },
  "nodes": [
    1846769148,
    1846769150,
    1846769149,
    1846769147,
    9952777485,
    9952777504,
    9952777482,
    1846769146,
    1846769148
  ],
  "tags": {
    "landuse": "cemetery",
    "religion": "christian"
  }
},
{
  "type": "way",
  "id": 173988656,
  "center": {
    "lat": 51.0867943,
    "lon": 14.0696722
  },
  "nodes": [
    1847294923,
    1847294925,
    1847294929,
    1847294927,
    1847294921,
    1847294915,
    1847294916,
    1847294919,
    1847294920,
    1847294922,
    1847294924,
    1847294923
  ],
  "tags": {
    "amenity": "grave_yard"
  }
},
{
  "type": "way",
  "id": 173989668,
  "center": {
    "lat": 51.5594045,
    "lon": 14.5630201
  },
  "nodes": [
    1847306790,
    1847306844,
    1847306840,
    1847306791,
    1847306790
  ],
  "tags": {
    "landuse": "cemetery",
    "name": "Friedhof Groß Düben",
    "name:hsb": "Dźěwinske pohrjebnišćo",
    "source": "Bing",
    "wikidata": "Q94695883"
  }
},
{
  "type": "way",
  "id": 174169979,
  "center": {
    "lat": 51.5586696,
    "lon": 14.6251467
  },
  "nodes": [
    1848867835,
    166031264,
    166031269,
    6413566638,
    166031274,
    6407376822,
    1848867835
  ],
  "tags": {
    "landuse": "cemetery",
    "source": "Bing"
  }
},
{
  "type": "way",
  "id": 174173762,
  "center": {
    "lat": 51.5717250,
    "lon": 14.6662603
  },
  "nodes": [
    1848910683,
    6583253318,
    1848910774,
    6581964211,
    6581964212,
    1848910770,
    1848910683
  ],
  "tags": {
    "landuse": "cemetery",
    "source": "Bing"
  }
},