{
  "version": 0.6,
  "generator": "Overpass API 0.7.62.8 e802775f",
  "osm3s": {
    "timestamp_osm_base": "2025-11-02T22:53:19Z",
    "copyright": "The data included in this document is from www.openstreetmap.org. The data is made available under ODbL."
  },
  "elements": [

{
  "type": "way",
  "id": 4549844,
  "center": {
    "lat": 48.8526657,
    "lon": 16.5982812
  },
  "nodes": [
    28388527,
    28388482,
    28388478,
    28388474,
    28388527
  ],
  "tags": {
    "created_by": "JOSM",
    "landuse": "cemetery"
  }
},
{
  "type": "way",
  "id": 5726586,
  "center": {
    "lat": 48.0941682,
    "lon": 16.2855395
  },
  "nodes": [
    43324128,
    3493664464,
    43324132,
    3461235340,
    43324114,
    3493664455,
    3493664454,
    3493664453,
    3493664452,
    2579651850,
    3493664449,
    3493664448,
    3493664446,
    43324118,
    3493664447,
    3067941268,
    3067941275,
    43324121,
    43324125,
    43324128
  ],
  "tags": {
    "fixme": "Allerseelen, Allerheiligen und Heilig Abend ist auch lang offen",
    "heritage": "2",
    "historic": "yes",
    "image": "https://commons.wikimedia.org/wiki/File:Maximilian_Hell_4941.jpg",
    "landuse": "cemetery",
    "name": "Romantikerfriedhof Maria Enzersdorf",
    "opening_hours": "Nov-Mar 07:00-18:00; Apr-Oct 07:00-20:00",
    "ref:at:bda": "106447",
    "wikidata": "Q2164962",
    "wikipedia": "de:Romantikerfriedhof Maria Enzersdorf"
  }
},
{
  "type": "way",
  "id": 5776871,
  "center": {
    "lat": 48.1783698,
    "lon": 16.2612702
  },
  "nodes": [
    44979064,
    44978926,
    2059520327,
    2059520335,
    44978930,
    2059520336,
    44978935,
    44978943,
    288787402,
    44978949,
    44978952,
    2059520339,
    288787341,
    44978959,
    44978966,
    44978973,
    2059520343,
    44978981,
    2059520347,
    44978988,
    288787399,
    12536876568,
    12536876567,
    12536876566,
    2059520404,
    44978999,
    288787398,
    12536876575,
    12536876576,
    44979008,
    11165235655,
    44979011,
    44979017,
    44979022,
    288627167,
    288627433,
    2059503678,
    2059503681,
    2059503672,
    288627434,
    2059520322,
    13265518428,
    2059520320,
    44979047,
    2059520316,
    2059503661,
    44979053,
    2059520314,
    2059520315,
    2059520317,
    2059520318,
    44979058,
    2059520323,
    44979064
  ],
  "tags": {
    "landuse": "cemetery",
    "name": "Ober St. Veiter Friedhof",
    "religion": "christian"
  }
},
{
  "type": "way",
  "id": 5780741,
  "center": {
    "lat": 48.2018262,
    "lon": 16.2827326
  },
  "nodes": [
    45119339,
    45119335,
    45119345,
    291538078,
    13094531696,
    9461821149,
    45119355,
    13094538703,
    9461821144,
    13094538705,
    13094538704,
    9461821136,
    9461821137,
    9461821138,
    13094531700,
    45119372,
    45119377,
    331333959,
    9501472908,
    45119386,
    6087226929,
    3450362872,
    45119392,
    45119399,
    45119404,
    45119407,
    45119413,
    45119420,
    331332653,
    45119424,
    45119429,
    5880961395,
    5880961396,
    45119435,
    45119441,
    45119446,
    291536415,
    45119452,
    363720733,
    363720738,
    2015498671,
    2015498673,
    2015498675,
    1445626181,
    1445626182,
    45119458,
    2015498678,
    291536502,
    291536828,
    291536821,
    3423521549,
    291537108,
    13094539311,
    13094539307,
    45119329,
    13094543501,
    13089024713,
    13089024717,
    13089024721,
    6087226931,
    291538230,
    13089024719,
    13089024711,
    13089024708,
    45119339
  ],
  "tags": {
    "barrier": "wall",
    "landuse": "cemetery",
    "name": "Baumgartner Friedhof",
    "religion": "christian",
    "source": "geoimage.at (high res)",
    "wikidata": "Q811564",
    "wikimedia_commons": "Category:Baumgartner Friedhof",
    "wikipedia": "de:Baumgartner Friedhof"
  }
},
{
  "type": "way",
  "id": 6626564,
  "center": {
    "lat": 48.0225144,
    "lon": 16.2830195
  },
  "nodes": [
    9321179431,
    9321179432,
    53380116,
    53380119,
    8718853415,
    53380044,
    8718853414,
    9321179430,
    9321179429,
    9321179428,
    2515651776,
    9321179431
  ],
  "tags": {
    "amenity": "grave_yard"
  }
},
{
  "type": "way",
  "id": 7971021,
  "center": {
    "lat": 48.3643849,
    "lon": 16.4286589
  },
  "nodes": [
    59599731,
    59599733,
    59599734,
    59599735,
    1803962010,
    59599731
  ],
  "tags": {
    "landuse": "cemetery",
    "name": "Friedhof Enzersfeld",
    "religion": "christian"
  }
},
{
  "type": "way",
  "id": 7973631,
  "center": {
    "lat": 48.2274564,
    "lon": 16.1419670
  },
  "nodes": [
    59632201,
    8176238007,
    59632202,
    59632203,
    59632204,
    59632205,
    2560569300,
    1695880532,
    2560569281,
    1695880602,
    2560569252,
    2560569247,
    1695880572,
    2560592913,
    1727350973,
    59632206,
    1695880594,
    2560592885,
    2560592887,
    2560569240,
    3052268390,
    1695880590,
    242068733,
    7701290307,
    59632201
  ],
  "tags": {
    "barrier": "wall",
    "denomination": "catholic",
    "landuse": "cemetery",
    "name": "Friedhof Gablitz",
    "religion": "christian",
    "source": "geoimage.at",
    "wikidata": "Q112894923"
  }
},
{
  "type": "way",
  "id": 7973653,
  "center": {
    "lat": 48.2648110,
    "lon": 16.0798091
  },
  "nodes": [
    59632531,
    9420093814,
    59632532,
    59632533,
    59632534,
    1906216618,
    612234766,
    59632536,
    59632531
  ],
  "tags": {
    "barrier": "wall",
    "landuse": "cemetery",
    "name:signed": "no"
  }
},
{
  "type": "way",
  "id": 8028706,
  "center": {
    "lat": 48.3642751,
    "lon": 16.4691085
  },
  "nodes": [
    60012010,
    2537581458,
    60012011,
    2537581453,
    2537581433,
    2537581434,
    2537581437,
    2537581444,
    2537581447,
    2537581450,
    2537581451,
    2537581452,
    2537581457,
    60012012,
    60012013,
    1261207685,
    60012010
  ],
  "tags": {
    "addr:city": "Großebersdorf",
    "addr:postcode": "2203",
    "landuse": "cemetery",
    "religion": "christian"
  }
},
{
  "type": "way",
  "id": 8028720,
  "center": {
    "lat": 48.3885908,
    "lon": 16.4251897
  },
  "nodes": [
    60012080,
    1691212433,
    1691212432,
    60012081,
    60012082,
    60012083,
    60012080
  ],
  "tags": {
    "addr:city": "Manhartsbrunn",
    "addr:postcode": "2203",
    "landuse": "cemetery",
    "name": "Friedhof Manhartsbrunn",
    "religion": "christian"
  }
},
{
  "type": "way",
  "id": 8652372,
  "center": {
    "lat": 48.2603802,
    "lon": 16.3466695
  },
  "nodes": [
    61672621,
    2015366289,
    61672622,
    13009340777,
    2015366294,
    3505380735,
    2015366299,
    61672623,
    2015366295,
    61672624,
    2015366290,
    61672625,
    61672626,
    12271392901,
    2015366282,
    2015366283,
    3505380746,
    11897606085,
    2015366285,
    2015366286,
    2015366287,
    61672627,
    3505380734,
    3505380732,
    3505380733,
    61672628,
    13009340774,
    61672629,
    13009340775,
    2015366288,
    13009340776,
    61672621
  ],
  "tags": {
    "alt_name": "Friedhof Heiligenstadt",
    "landuse": "cemetery",
    "name": "Heiligenstädter Friedhof",
    "religion": "christian",
    "website": "https://www.friedhoefewien.at/friedhof-heiligenstadt",
    "wikidata": "Q1595231"
  }
},
{
  "type": "way",
  "id": 8653218,
  "center": {
    "lat": 48.2836705,
    "lon": 16.4068695
  },
  "nodes": [
    347025745,
    347025959,
    1741203218,
    61685173,
    61685174,
    1741203223,
    61685175,
    4223800643,
    61685176,
    61685177,
    4223800642,
    6283478959,
    61685179,
    1741203214,
    61685180,
    10870135881,
    6283478977,
    10870135882,
    61685182,
    347025745
  ],
  "tags": {
    "barrier": "fence",
    "landuse": "cemetery",
    "name": "Groß-Jedlersdorfer Friedhof",
    "wikidata": "Q1315537"
  }
},
{
  "type": "way",
  "id": 8653269,
  "center": {
    "lat": 48.2537685,
    "lon": 16.4501735
  },
  "nodes": [
    322764481,
    322764701,
    61687839,
    322764702,
    2697761604,
    4948585204,
    322764703,
    61687840,
    61687841,
    61687834,
    4080737837,
    3989744997,
    3989744999,
    4080749378,
    61687835,
    61687836,
    322764481
  ],
  "tags": {
    "landuse": "cemetery",
    "name": "Kagraner Friedhof",
    "wikidata": "Q1241475"
  }
},
{
  "type": "way",
  "id": 8658109,
  "center": {
    "lat": 48.1392505,
    "lon": 16.4057124
  },
  "nodes": [
    61772111,
    7643047559,
    7643047562,
    61772148,
    3325737295,
    3325737301,
    3325737323,
    61772149,
    61772150,
    7643047561,
    7643047560,
    61772119,
    61772118,
    321924417,
    61772117,
    61772116,
    61772114,
    61772113,
    61772112,
    61772111
  ],
  "tags": {
    "landuse": "cemetery",
    "name": "Friedhof Oberlaa",
    "religion": "christian",
    "wikidata": "Q1121352",
    "wikimedia_commons": "Category:Friedhof Oberlaa",
    "wikipedia": "de:Friedhof Oberlaa"
  }
},
{
  "type": "way",
  "id": 8674159,
  "center": {
    "lat": 48.2270753,
    "lon": 16.3176769
  },
  "nodes": [
    301656687,
    301656688,
    301656689,
    12186070194,
    301656690,
    12186070195,
    2846535696,
    61931428,
    6661663479,
    2846535697,
    6661663478,
    2846535698,
    2846535700,
    1759955429,
    2846542203,
    2846542205,
    2846542204,
    2846542206,
    2846542207,
    301656065,
    3604849099,
    3604849211,
    2846542214,
    12186070196,
    3604849700,
    2846542217,
    301656156,
    2846542218,
    2846542220,
    2846542222,
    2846542226,
    2846542225,
    301656066,
    2846542224,
    2846542221,
    10795909708,
    1759955435,
    61931431,
    10284039473,
    12186070197,
    289864912,
    289864910,
    4841364174,
    301658717,
    1557407513,
    12186086802,
    12186086801,
    12186070200,
    301658320,
    3604870330,
    3604847475,
    1557407511,
    1557407502,
    3604847431,
    12186086817,
    12186086818,
    12186086819,
    12186086810,
    12186086804,
    12186086803,
    12186086814,
    12186086813,
    12186086805,
    12186086806,
    12186086812,
    12186086811,
    12186086807,
    12186086808,
    12186086809,
    3604870333,
    12186086816,
    12186086815,
    3604847432,
    3604870317,
    3604847421,
    3604847409,
    10699961154,
    61931425,
    4067483869,
    3604844778,
    3604844790,
    3604847399,
    3604847412,
    12178190810,
    12178190809,
    12178190808,
    10699962765,
    10699962766,
    12178190807,
    12178190806,
    5014731005,
    12178190805,
    5014731007,
    12178190811,
    5014731006,
    301657446,
    12926524295,
    10699961167,
    301657729,
    12178190812,
    61931426,
    12186086880,
    12186086882,
    12186086889,
    12186086883,
    12186086884,
    61931427,
    2846535667,
    2846535670,
    1759955422,
    2846535671,
    2846535672,
    2846535674,
    301657139,
    10795056104,
    2846535683,
    2846535684,
    2846535685,
    2846535690,
    10795056073,
    12186070192,
    10795909738,
    1759955427,
    2846535695,
    301656687
  ],
  "tags": {
    "landuse": "cemetery",
    "name": "Hernalser Friedhof",
    "religion": "christian",
    "wikidata": "Q1495592"
  }
},
{
  "type": "way",
  "id": 8731801,
  "center": {
    "lat": 48.1784605,
    "lon": 16.3604970
  },
  "nodes": [
    62592072,
    939300343,
    797335892,
    794040767,
    797335883,
    62592073,
    994561594,
    12900261210,
    10223851502,
    10085066584,
    795148645,
    994561716,
    12900236103,
    3706456012,
    806896939,
    795148959,
    10138114081,
    795148953,
    10138114048,
    10138114065,
    62592077,
    11181024014,
    62592080,
    6665537847,
    6665537848,
    6665537835,
    6665537836,
    12900202523,
    12900202584,
    292379015,
    12900202591,
    12900202592,
    12900202596,
    12900202582,
    2598968356,
    12900202590,
    12900202589,
    6665537822,
    6665537824,
    12900202588,
    6665537825,
    6665537823,
    795317115,
    814172954,
    6665537826,
    62592072
  ],
  "tags": {
    "barrier": "fence",
    "denomination": "protestant",
    "landuse": "cemetery",
    "name": "Evangelischer Friedhof Matzleinsdorf",
    "religion": "christian",
    "wikidata": "Q666587"
  }
},
{
  "type": "way",
  "id": 8756836,
  "center": {
    "lat": 48.1765142,
    "lon": 16.3000150
  },
  "nodes": [
    62907784,
    1216353665,
    1216166115,
    62907785,
    1538309964,
    671836037,
    62907786,
    1216166168,
    1216166180,
    1216166182,
    62907787,
    1216166185,
    62907788,
    1216165898,
    62907789,
    1216130148,
    1216130161,
    1216130163,
    1216130157,
    1538309970,
    1538309969,
    293180009,
    293179963,
    1871751977,
    293180010,
    293179965,
    1871752034,
    1871752036,
    293179476,
    62907792,
    293179744,
    293179745,
    62907784
  ],
  "tags": {
    "barrier": "wall",
    "landuse": "cemetery",
    "name": "Friedhof Hietzing",
    "religion": "christian",
    "url": "http://www.friedhoefewien.at/eportal/ep/channelView.do/channelId/-26749/pageTypeId/13572",
    "wikidata": "Q2718154",
    "wikipedia": "de:Hietzinger Friedhof"
  }
},
{
  "type": "way",
  "id": 8877329,
  "center": {
    "lat": 48.3196893,
    "lon": 16.3106074
  },
  "nodes": [
    64690563,
    10911314940,
    1731742202,
    2530471323,
    1731742232,
    1731742266,
    10911314946,
    10911314947,
    64690564,
    64690565,
    64690566,
    179729101,
    294537739,
    2530471311,
    10911314950,
    1731742170,
    64690563
  ],
  "tags": {
    "alt_name": "Unterer Stadtfriedhof, Klosterneuburg",
    "barrier": "wall",
    "landuse": "cemetery",
    "name": "Martinsfriedhof",
    "wikidata": "Q127638099"
  }
},
{
  "type": "way",
  "id": 9064070,
  "center": {
    "lat": 48.2386394,
    "lon": 16.3279236
  },
  "nodes": [
    66832481,
    1849941029,
    12752485541,
    66832485,
    12752485540,
    66832487,
    12752485539,
    1234103607,
    12752485536,
    1849941015,
    12752485537,
    1234103603,
    12752485538,
    66832490,
    66832492,
    1849940993,
    6755990468,
    6755990469,
    6755990465,
    66832494,
    6757168574,
    6757168571,
    828941247,
    6757168567,
    6757161033,
    4058158817,
    6757161034,
    66832499,
    66832501,
    1849941032,
    66832481
  ],
  "tags": {
    "landuse": "cemetery",
    "name": "Döblinger Friedhof",
    "religion": "christian",
    "wikidata": "Q1270909"
  }
},
{
  "type": "way",
  "id": 9064503,
  "center": {
    "lat": 48.2543737,
    "lon": 16.3356731
  },
  "nodes": [
    66836570,
    2042181027,
    3928527122,
    11769328701,
    10860074651,
    11769459277,
    11769459278,
    66836573,
    66836574,
    2021240003,
    2021239986,
    2021239958,
    3623935774,
    3623935767,
    66836576,
    2010696309,
    2010696330,
    66836578,
    2010696368,
    2010696381,
    2010696394,
    66836580,
    2010696422,
    66836581,
    66836582,
    66836584,
    11140912774,
    10860139764,
    11140912775,
    10860139773,
    10860139768,
    11140912776,
    2042181026,
    11386830706,
    11140912777,
    10860139767,
    2010901238,
    66836585,
    2010901264,
    66836586,
    66836570
  ],
  "tags": {
    "alt_name": "Grinzinger Friedhof",
    "landuse": "cemetery",
    "name": "Friedhof Grinzing",
    "religion": "christian",
    "wikidata": "Q1546996"
  }
},
{
  "type": "way",
  "id": 9064628,
  "center": {
    "lat": 48.2485201,
    "lon": 16.3206348
  },
  "nodes": [
    66837670,
    1517061567,
    1517061578,
    1517061583,
    1517061605,
    1517061609,
    1154459818,
    1517061652,
    1892328374,
    1517061679,
    1517061683,
    1892328397,
    1892328389,
    1892328385,
    1892328380,
    1892328379,
    1892328376,
    1892328378,
    1154459783,
    66837673,
    1892337154,
    1892337150,
    66837674,
    1892337139,
    66837675,
    11646314571,
    66837676,
    1890462298,
    1890462301,
    66837677,
    66837670
  ],
  "tags": {
    "barrier": "fence",
    "denomination": "catholic",
    "landuse": "cemetery",
    "name": "Friedhof Sievering",
    "religion": "christian"
  }
},
{
  "type": "way",
  "id": 9167478,
  "center": {
    "lat": 48.2134876,
    "lon": 16.2967866
  },
  "nodes": [
    68182236,
    840579436,
    840579457,
    68182238,
    1851918783,
    13089007505,
    840579366,
    13088947300,
    13089007501,
    68182239,
    13088947297,
    1851918774,
    1851918772,
    13088947298,
    1851918769,
    840579403,
    13089007502,
    1851918765,
    68182241,
    13089007503,
    1851918764,
    13088947294,
    840579543,
    1336668264,
    13056997411,
    68182242,
    1851918761,
    1754235033,
    1851918763,
    68182243,
    1754235034,
    840579584,
    1754235035,
    68182244,
    68182245,
    4067597745,
    1404860598,
    1747383193,
    1747383194,
    68182247,
    1747383195,
    1747383196,
    1747383197,
    1747383203,
    68182249,
    999305947,
    1747383212,
    1747383209,
    999305972,
    999305965,
    1754235092,
    1851918799,
    11328032681,
    3913119448,
    1851918809,
    999305978,
    999305967,
    5661078048,
    840579633,
    5661078047,
    2451391205,
    2451391209,
    999305970,
    1754235186,
    1754235193,
    68182252,
    1754235196,
    1754235198,
    11328037180,
    68182254,
    68182255,
    1754235201,
    1754235202,
    8561338637,
    8561338641,
    1754235199,
    8561338640,
    8561338639,
    8561338638,
    68182257,
    1754235195,
    1754235194,
    1754235191,
    68182258,
    68182260,
    1754235185,
    1754235192,
    1851918817,
    1851918823,
    1851918830,
    1851918836,
    1851918832,
    1851918833,
    1851918838,
    1851918834,
    1851918825,
    1851918822,
    1754235190,
    1754235187,
    1851918819,
    1851918818,
    1851918820,
    11328037176,
    11328037175,
    11328037177,
    68182236
  ],
  "tags": {
    "addr:city": "Wien",
    "addr:country": "AT",
    "addr:housenumber": "5",
    "addr:postcode": "1160",
    "addr:street": "Gallitzinstraße",
    "landuse": "cemetery",
    "name": "Ottakringer Friedhof",
    "religion": "christian",
    "source": "wien.at",
    "wikidata": "Q2037309",
    "wikimedia_commons": "Category:Ottakringer Friedhof",
    "wikipedia": "de:Ottakringer Friedhof"
  }
},
{
  "type": "way",
  "id": 9651010,
  "center": {
    "lat": 48.2204540,
    "lon": 16.4565392
  },
  "nodes": [
    75493429,
    2487493265,
    2487493262,
    2485645727,
    75493431,
    75493433,
    1875083590,
    2485645733,
    11281631981,
    75493435,
    75493442,
    2183120306,
    2485645793,
    1875083595,
    75493429
  ],
  "tags": {
    "height": "3",
    "landuse": "cemetery",
    "name": "Friedhof Stadlau",
    "wikidata": "Q1495770",
    "wikimedia_commons": "Category:Stadlauer Friedhof",
    "wikipedia": "de:Stadlauer Friedhof"
  }
},
{
  "type": "way",
  "id": 9760054,
  "center": {
    "lat": 48.1825810,
    "lon": 16.4018930
  },
  "nodes": [
    77510869,
    4795272162,
    4795272166,
    77510870,
    12244910684,
    11969546207,
    2437181012,
    11969546214,
    2752906893,
    77510872,
    2752906895,
    2752906892,
    1268637427,
    77510873,
    1268637425,
    12244910652,
    1268637391,
    77510874,
    77510876,
    1920681498,
    11686627027,
    2752906809,
    11686627026,
    77510877,
    77510878,
    77510879,
    2752906660,
    77510880,
    5441359146,
    77510881,
    77510882,
    77510869
  ],
  "tags": {
    "addr:city": "Wien",
    "addr:country": "AT",
    "addr:housenumber": "6-8",
    "addr:postcode": "1030",
    "addr:street": "Leberstraße",
    "amenity": "grave_yard",
    "barrier": "wall",
    "name": "Sankt Marxer Friedhof",
    "start_date": "1784",
    "website": "https://www.wien.gv.at/umwelt/parks/anlagen/friedhof-st-marx.html",
    "wikidata": "Q695321",
    "wikipedia": "de:Sankt Marxer Friedhof"
  }
},
{
  "type": "way",
  "id": 9825975,
  "center": {
    "lat": 48.1708446,
    "lon": 16.4236522
  },
  "nodes": [
    78493886,
    12751855632,
    3234614167,
    12751855635,
    2137568418,
    2137568426,
    12751882222,
    3234613026,
    2137568433,
    2137568384,
    3234613024,
    3234613023,
    3234613020,
    3234613019,
    3234613021,
    3234613018,
    3234613017,
    3234613016,
    3234613015,
    3234613013,
    3234613010,
    3234613011,
    2598799839,
    3234613005,
    8913235658,
    8913235659,
    3234613004,
    3234613003,
    3234613006,
    78493887,
    78493888,
    3234613030,
    1992468781,
    3234613035,
    1992468782,
    3234613037,
    1992468783,
    3234613041,
    1992468785,
    3234613043,
    1992468786,
    3234613048,
    1992468788,
    3234613051,
    1992468789,
    3234613049,
    1992468787,
    3234613054,
    78493889,
    3234614168,
    3234614169,
    3234614170,
    3234614172,
    2137568380,
    13171793749,
    6750772241,
    78493890,
    78493891,
    13171793737,
    1992468803,
    13171793742,
    1992468802,
    1992468801,
    78493892,
    3234614178,
    3234614179,
    3234614177,
    3234614176,
    3234614175,
    3234614174,
    78493886
  ],
  "tags": {
    "landuse": "cemetery",
    "name": "Friedhof Simmering",
    "religion": "christian",
    "wikidata": "Q2287236"
  }
},
{
  "type": "way",
  "id": 10040185,
  "center": {
    "lat": 48.2730802,
    "lon": 16.3823723
  },
  "nodes": [
    82457159,
    10144864086,
    10144864091,
    10144864110,
    10144864101,
    10144864104,
    10144864106,
    10144864109,
    10144874017,
    10144864112,
    82457160,
    967784692,
    82457161,
    10147770010,
    10147770013,
    11212744209,
    82457162,
    82457164,
    5781126402,
    2258156843,
    10144864065,
    5781126403,
    11298946696,
    82457165,
    4066305635,
    10144864069,
    82457166,
    10144864075,
    10144864073,
    10144864079,
    82457159
  ],
  "tags": {
    "landuse": "cemetery",
    "name": "Jedleseer Friedhof",
    "wikidata": "Q1686165"
  }
},
{
  "type": "way",
  "id": 10198065,
  "center": {
    "lat": 48.1537016,
    "lon": 16.2743539
  },
  "nodes": [
    84301047,
    1492209882,
    1492209852,
    84301048,
    4312502587,
    84301049,
    1492209898,
    84301050,
    84301051,
    84301052,
    84301053,
    4312502580,
    84301054,
    84301055,
    4312502581,
    4312502582,
    8033237996,
    84301056,
    8033237997,
    8033237994,
    84301057,
    1424958475,
    4312502586,
    4312502585,
    4312502584,
    4312502583,
    1424958473,
    2197769374,
    4312502588,
    1424958482,
    4312503190,
    4312503189,
    4312503191,
    4312503192,
    1424958478,
    8945087473,
    10022711981,
    84301047
  ],
  "tags": {
    "barrier": "fence",
    "landuse": "cemetery",
    "name": "Friedhof Mauer",
    "wikidata": "Q1457371",
    "wikipedia": "de:Friedhof Mauer"
  }
},
{
  "type": "way",
  "id": 10198573,
  "center": {
    "lat": 48.1173486,
    "lon": 16.2758128
  },
  "nodes": [
    84306990,
    3163747983,
    582456603,
    3163747975,
    3163747968,
    9423179101,
    3352631181,
    84306991,
    3163747343,
    9423179106,
    84306992,
    3163747358,
    8583313623,
    84306993,
    4866670124,
    4866670123,
    84306990
  ],
  "tags": {
    "barrier": "wall",
    "landuse": "cemetery",
    "name": "Friedhof Perchtoldsdorf",
    "start_date": "1877"
  }
},
{
  "type": "way",
  "id": 10228014,
  "center": {
    "lat": 48.1422421,
    "lon": 16.3005506
  },
  "nodes": [
    12127731688,
    11479006854,
    11479006853,
    9456622899,
    12127731691,
    11479006851,
    11479006850,
    11479006861,
    11479006862,
    12127731693,
    11479006863,
    11479006864,
    12127731694,
    11479006865,
    11479006866,
    11479006867,
    11479006868,
    12127731695,
    3539822265,
    9264634992,
    12133433363,
    11479006859,
    11479006855,
    84762156,
    84762159,
    9466782172,
    9466782171,
    12127731676,
    12127731688
  ],
  "tags": {
    "addr:city": "Wien",
    "addr:country": "AT",
    "addr:postcode": "1230",
    "addr:street": "Reklewskigasse",
    "landuse": "cemetery",
    "name": "Atzgersdorfer Friedhof",
    "wikidata": "Q758337"
  }
},
{
  "type": "way",
  "id": 10228894,
  "center": {
    "lat": 48.1450307,
    "lon": 16.3490055
  },
  "nodes": [
    3707938675,
    13201636489,
    13110853325,
    5823991075,
    1135929862,
    84766891,
    13201636494,
    1255616500,
    278815273,
    278815274,
    2205064068,
    13201636441,
    13201636442,
    13201636449,
    13201636450,
    84766893,
    8342511608,
    3707909058,
    3707909036,
    12212654847,
    3707909031,
    3707907912,
    3707907911,
    3707907913,
    3707909053,
    3707938758,
    84766894,
    3707938760,
    3707938759,
    5823991093,
    2205064072,
    2205064074,
    2701233454,
    3496984960,
    3496984958,
    3496984959,
    3496984953,
    3496984952,
    3496984951,
    2205064071,
    2205064070,
    2205064069,
    3707938674,
    7302313570,
    3707938675
  ],
  "tags": {
    "landuse": "cemetery",
    "name": "Inzersdorfer Friedhof",
    "wikidata": "Q1525601"
  }
},
{
  "type": "way",
  "id": 10505646,
  "center": {
    "lat": 48.3995252,
    "lon": 16.4412903
  },
  "nodes": [
    90377094,
    90377095,
    90377096,
    1221348615,
    90377097,
    90377094
  ],
  "tags": {
    "amenity": "grave_yard",
    "denomination": "catholic",
    "landuse": "cemetery",
    "religion": "christian"
  }
},
{
  "type": "way",
  "id": 10592808,
  "center": {
    "lat": 48.2967371,
    "lon": 16.5676837
  },
  "nodes": [
    92395077,
    92395078,
    10555039568,
    1661166504,
    92395079,
    92395081,
    92395077
  ],
  "tags": {
    "denomination": "catholic",
    "landuse": "cemetery",
    "religion": "christian"
  }
},
{
  "type": "way",
  "id": 10597543,
  "center": {
    "lat": 48.3307729,
    "lon": 16.0598383
  },
  "nodes": [
    92632676,
    1373973012,
    1373973017,
    92632677,
    1373973010,
    92632678,
    92632679,
    92632680,
    1382098359,
    4002856894,
    4002856898,
    92632681,
    1392958157,
    1392958151,
    1854078785,
    3958134895,
    92632676
  ],
  "tags": {
    "barrier": "wall",
    "landuse": "cemetery"
  }
},
{
  "type": "way",
  "id": 10739012,
  "center": {
    "lat": 48.2939916,
    "lon": 16.4366974
  },
  "nodes": [
    95614025,
    2768843312,
    95614026,
    2768843307,
    95614027,
    1659367318,
    95614028,
    3985780799,
    3985762724,
    11193833275,
    2768843308,
    2768843309,
    95614030,
    3985762717,
    95614031,
    3985771842,
    95614032,
    1660271325,
    95614033,
    2768843375,
    1660271323,
    2768843371,
    1782861719,
    1660271330,
    2768843342,
    2768843357,
    2768843359,
    2768843355,
    2768843353,
    2768843351,
    1782861713,
    1782861715,
    2768843361,
    2768843365,
    2768843367,
    1782861722,
    2768843370,
    2768843373,
    2768843372,
    2768843368,
    1782861725,
    2768843364,
    2768843362,
    1782861716,
    1782861717,
    1782861718,
    1782861721,
    2768843363,
    2768843366,
    1782863422,
    2768843374,
    2768843376,
    1660271327,
    1660271328,
    95614035,
    95614036,
    2768843333,
    1660271331,
    2768843320,
    1782811543,
    95614025
  ],
  "tags": {
    "alt_name": "Stammersdorfer Zentralfriedhof",
    "barrier": "wall",
    "denomination": "catholic",
    "landuse": "cemetery",
    "name": "Stammersdorf-Zentral",
    "religion": "christian",
    "wikidata": "Q2329575",
    "wikimedia_commons": "Category:Stammersdorfer Zentralfriedhof",
    "wikipedia:de": "Stammersdorfer Zentralfriedhof"
  }
},
{
  "type": "way",
  "id": 11334737,
  "center": {
    "lat": 48.2305272,
    "lon": 16.3179045
  },
  "nodes": [
    10982350318,
    10982350317,
    10982350319,
    10982350320,
    318204130,
    10982350321,
    10982350322,
    10982350323,
    100842556,
    10982350324,
    10982350326,
    1938189350,
    10982350327,
    10982350325,
    1557429201,
    10982350328,
    10982350329,
    10795079515,
    100842557,
    100842558,
    10982350315,
    10982350314,
    10982350310,
    10982350311,
    10982350312,
    1486915087,
    10982350313,
    10982350316,
    10982350318
  ],
  "tags": {
    "barrier": "fence",
    "landuse": "cemetery",
    "name": "Gersthofer Friedhof",
    "religion": "christian",
    "wikidata": "Q1515097"
  }
},
{
  "type": "way",
  "id": 11338941,
  "center": {
    "lat": 48.2610019,
    "lon": 16.3580371
  },
  "nodes": [
    100871796,
    1902214842,
    100871797,
    100871798,
    100871799,
    100871800,
    100871801,
    100871802,
    1902214808,
    1902214788,
    1902214790,
    1902214786,
    1902214795,
    1902214789,
    1902214802,
    1902214756,
    1902214784,
    1902214787,
    10976709439,
    10976709436,
    100871796
  ],
  "tags": {
    "denomination": "roman_catholic",
    "landuse": "cemetery",
    "name": "Pfarrfriedhof Nussdorf",
    "old_name": "Nußdorfer Friedhof",
    "religion": "christian",
    "wikidata": "Q2082430",
    "wikipedia": "de:Pfarrfriedhof Nussdorf"
  }
},
{
  "type": "way",
  "id": 13693134,
  "center": {
    "lat": 48.1430644,
    "lon": 16.4694206
  },
  "nodes": [
    126248593,
    3429292500,
    126248597,
    126248598,
    1641746992,
    1643640547,
    126248600,
    126248602,
    5057706453,
    126248593
  ],
  "tags": {
    "barrier": "wall",
    "denomination": "roman_catholic",
    "landuse": "cemetery",
    "name": "Pfarrfriedhof",
    "religion": "christian"
  }
},
{
  "type": "way",
  "id": 13745388,
  "center": {
    "lat": 48.1584299,
    "lon": 16.4521061
  },
  "nodes": [
    127362356,
    127362360,
    5494144864,
    1502738583,
    5494144863,
    1502738585,
    11833752543,
    127362361,
    127362362,
    11833752538,
    127362363,
    1502738590,
    5494144860,
    127362365,
    5494144861,
    5494144847,
    5494144850,
    127362367,
    11833761874,
    5494144848,
    127362368,
    127362356
  ],
  "tags": {
    "landuse": "cemetery",
    "name": "Friedhof Kaiserebersdorf",
    "wikidata": "Q1721633"
  }
},
{
  "type": "way",
  "id": 13756338,
  "center": {
    "lat": 48.1342219,
    "lon": 16.2698007
  },
  "nodes": [
    127617749,
    3709835921,
    127617751,
    3709842050,
    127617753,
    9374528716,
    127617754,
    127617757,
    3709842029,
    127617749
  ],
  "tags": {
    "addr:city": "Wien",
    "addr:housenumber": "1",
    "addr:postcode": "1230",
    "addr:street": "Leinmüllergasse",
    "denomination": "catholic",
    "landuse": "cemetery",
    "name": "Friedhof Rodaun",
    "opening_hours": "Nov 03-Feb 29 08:00-17:00; Mar 07:00-18:00; Oct 01-Nov 02: 07:00-18:00; Apr-Sep 07:00-19:00; May-Aug Th 07:00-20:00",
    "religion": "christian",
    "website": "https://www.friedhoefewien.at/friedhof-rodaun/",
    "wikidata": "Q1457413"
  }
},
{
  "type": "way",
  "id": 13757243,
  "center": {
    "lat": 48.1315852,
    "lon": 16.2937813
  },
  "nodes": [
    127633591,
    423739816,
    2178406594,
    12615723001,
    423739788,
    10127898939,
    4807195050,
    3210907547,
    3210907546,
    423739662,
    3212343790,
    127633593,
    6900095988,
    127633594,
    127633591
  ],
  "tags": {
    "landuse": "cemetery",
    "name": "Friedhof Liesing",
    "website": "https://www.friedhoefewien.at/friedhof-liesing",
    "wikidata": "Q1457363",
    "wikipedia": "de:Friedhof Liesing"
  }
},
{
  "type": "way",
  "id": 13767374,
  "center": {
    "lat": 48.2156064,
    "lon": 16.4792841
  },
  "nodes": [
    322005372,
    5906217296,
    2823845052,
    5906217295,
    5906217297,
    4985995576,
    4985995577,
    127797844,
    127797847,
    11802590016,
    127797848,
    1834962353,
    616275079,
    127797851,
    2823845696,
    2823845684,
    322005111,
    2823845631,
    1834949902,
    11802657973,
    2823845654,
    322005376,
    322005377,
    11802658001,
    3833078092,
    322005372
  ],
  "tags": {
    "barrier": "wall",
    "landuse": "cemetery",
    "name": "Friedhof Aspern",
    "religion": "christian",
    "wikidata": "Q736650",
    "wikimedia_commons": "Category:Asperner Friedhof",
    "wikipedia": "de:Asperner Friedhof"
  }
},
{
  "type": "way",
  "id": 13836906,
  "center": {
    "lat": 48.1258986,
    "lon": 16.3420990
  },
  "nodes": [
    129560992,
    5827919518,
    1929140978,
    1929141028,
    1929141024,
    1929140984,
    1929140980,
    8228292995,
    309896328,
    7556855135,
    309896329,
    1929140985,
    309897422,
    5735131987,
    5735131988,
    129560993,
    5827919517,
    129560995,
    129560989,
    1929140983,
    129560992
  ],
  "tags": {
    "denomination": "catholic",
    "landuse": "cemetery",
    "name": "Friedhof Vösendorf",
    "religion": "christian",
    "smoking": "no",
    "wikidata": "Q83809956",
    "wikimedia_commons": "File:Cemetery Vösendorf, Lower Austria, Austria PNr°0741.jpg"
  }
},
{
  "type": "way",
  "id": 13853886,
  "center": {
    "lat": 48.1068257,
    "lon": 16.2914611
  },
  "nodes": [
    129941319,
    6392098010,
    498761084,
    498758797,
    129941316,
    498758793,
    129941317,
    129941318,
    3023157443,
    3023157441,
    3035126036,
    3035126035,
    3035126034,
    498758810,
    498758806,
    498758802,
    498758799,
    3332476137,
    498761177,
    3461496157,
    3461496158,
    3251358909,
    129941319
  ],
  "tags": {
    "barrier": "fence",
    "denomination": "catholic",
    "landuse": "cemetery",
    "name": "Friedhof Brunn/Gebirge",
    "religion": "christian"
  }
},
{
  "type": "way",
  "id": 14290943,
  "center": {
    "lat": 48.3269330,
    "lon": 16.1778380
  },
  "nodes": [
    137196344,
    9543427086,
    137196346,
    250662362,
    250662363,
    250662364,
    137196348,
    250662365,
    250662366,
    2121681719,
    250662367,
    250662368,
    137196344
  ],
  "tags": {
    "landuse": "cemetery"
  }
},
{
  "type": "way",
  "id": 14445662,
  "center": {
    "lat": 48.1956410,
    "lon": 16.3015976
  },
  "nodes": [
    141618594,
    3527555009,
    7590400949,
    141618595,
    3338811601,
    1469855248,
    141618596,
    7515617516,
    7532961380,
    7468481805,
    141618597,
    291546167,
    7590400947,
    7590400948,
    3527555008,
    141618594
  ],
  "tags": {
    "denomination": "roman_catholic",
    "landuse": "cemetery",
    "name": "Pfarrfriedhof Penzing",
    "religion": "christian",
    "wikidata": "Q113165088"
  }
},
{
  "type": "way",
  "id": 15242232,
  "center": {
    "lat": 48.0303192,
    "lon": 16.7749949
  },
  "nodes": [
    8886635844,
    8886635843,
    8886635842,
    8886635841,
    12431055793,
    12431055792,
    8886635838,
    1845670571,
    1845670568,
    8886635837,
    12431055794,
    8886635839,
    12431055795,
    2981377837,
    2981377846,
    151005236,
    2981377864,
    151005237,
    266624225,
    2981377878,
    2981377898,
    2981377906,
    151005238,
    12431055789,
    8886635847,
    8886635846,
    9456736141,
    8886635845,
    12723397609,
    8886635844
  ],
  "tags": {
    "landuse": "cemetery",
    "name": "Friedhof Bruck an der Leitha",
    "religion": "christian"
  }
},
{
  "type": "way",
  "id": 15387589,
  "center": {
    "lat": 48.2155818,
    "lon": 16.5327766
  },
  "nodes": [
    152511154,
    11200199030,
    11200199031,
    3327406621,
    11200199032,
    152511155,
    152511157,
    3327406897,
    3327406898,
    152511158,
    3327406620,
    152511160,
    3523185719,
    3523185718,
    3523185717,
    3523185716,
    152511161,
    3327406640,
    3327406641,
    152511165,
    152511167,
    3327406629,
    322241767,
    152511154
  ],
  "tags": {
    "landuse": "cemetery",
    "name": "Friedhof Eßling",
    "religion": "christian",
    "wikidata": "Q1368929",
    "wikipedia": "de:Esslinger Friedhof"
  }
},
{
  "type": "way",
  "id": 15550278,
  "center": {
    "lat": 48.0558492,
    "lon": 16.7409685
  },
  "nodes": [
    155167621,
    3335644447,
    155167623,
    3335644448,
    155167621
  ],
  "tags": {
    "barrier": "wall",
    "landuse": "cemetery"
  }
},
{
  "type": "way",
  "id": 16057753,
  "center": {
    "lat": 48.2527963,
    "lon": 16.1688337
  },
  "nodes": [
    161353447,
    161353448,
    2385667394,
    161353450,
    442011429,
    442011428,
    161353451,
    442011426,
    161353452,
    6083204925,
    6083204921,
    6083204930,
    6083204943,
    6083204923,
    2385667393,
    12394078523,
    161353453,
    2385667392,
    12394078520,
    12394078519,
    12394078518,
    8019219920,
    12394078517,
    6083204928,
    161353447
  ],
  "tags": {
    "landuse": "cemetery"
  }
},
{
  "type": "way",
  "id": 16083620,
  "center": {
    "lat": 48.1781946,
    "lon": 16.0015731
  },
  "nodes": [
    161780390,
    7236396896,
    161780391,
    161780392,
    161780394,
    161780395,
    161780396,
    161780390
  ],
  "tags": {
    "landuse": "cemetery",
    "name": "Friedhof Eichgraben",
    "religion": "christian"
  }
},
{
  "type": "way",
  "id": 16273155,
  "center": {
    "lat": 48.3067363,
    "lon": 16.2723135
  },
  "nodes": [
    165850653,
    165850654,
    165850655,
    2532370814,
    165850656,
    165850657,
    1052124147,
    165850658,
    1052124001,
    299972417,
    165850653
  ],
  "tags": {
    "amenity": "grave_yard",
    "barrier": "fence",
    "name": "Friedhof Kierling"
  }
},
{
  "type": "way",
  "id": 16766478,
  "center": {
    "lat": 48.0576367,
    "lon": 16.0838625
  },
  "nodes": [
    173344758,
    173344761,
    3811386516,
    1238721481,
    173344764,
    3811386484,
    173344767,
    173344769,
    12361912681,
    717709455,
    173344758
  ],
  "tags": {
    "landuse": "cemetery",
    "wikidata": "Q126908061"
  }
},
{
  "type": "way",
  "id": 16917452,
  "center": {
    "lat": 48.3047728,
    "lon": 16.4118930
  },
  "nodes": [
    175447213,
    1653514513,
    357525939,
    175447215,
    175447217,
    175447218,
    175447219,
    11832244974,
    175447220,
    269547070,
    1653514503,
    357525941,
    357525943,
    175447213
  ],
  "tags": {
    "addr:city": "Wien",
    "addr:country": "AT",
    "addr:housenumber": "6",
    "addr:postcode": "1210",
    "addr:street": "Am oberen Kirchberg",
    "landuse": "cemetery",
    "name": "Friedhof Stammersdorf-Ort",
    "website": "https://www.friedhoefewien.at/friedhof-stammersdorf-ort",
    "wikidata": "Q1457427",
    "wikimedia_commons": "Category:Friedhof Stammersdorf-Ort",
    "wikipedia": "de:Friedhof Stammersdorf-Ort"
  }
},
{
  "type": "way",
  "id": 18618880,
  "center": {
    "lat": 48.2925925,
    "lon": 16.4706190
  },
  "nodes": [
    192082608,
    192082609,
    3234833080,
    192082610,
    4523727819,
    192082611,
    192082612,
    192082608
  ],
  "tags": {
    "denomination": "catholic",
    "landuse": "cemetery",
    "religion": "christian"
  }
},
{
  "type": "way",
  "id": 20434837,
  "center": {
    "lat": 48.1653671,
    "lon": 16.3270775
  },
  "nodes": [
    218113215,
    8734332836,
    8734332850,
    8734332837,
    1512747883,
    8734332838,
    8734332841,
    8734332840,
    8734332839,
    218113217,
    297050417,
    1512747885,
    8331809731,
    218113222,
    1512747900,
    218113215
  ],
  "tags": {
    "barrier": "fence",
    "landuse": "cemetery",
    "name": "Friedhof Altmannsdorf",
    "wikidata": "Q442555",
    "wikipedia": "de:Altmannsdorfer Friedhof"
  }
},
{
  "type": "way",
  "id": 22381773,
  "center": {
    "lat": 48.0184841,
    "lon": 16.7911972
  },
  "nodes": [
    240659880,
    6065568536,
    6993700927,
    6065568887,
    6993700928,
    6065568895,
    240659884,
    6065568902,
    8836656310,
    240659887,
    240659891,
    8836656311,
    1457006378,
    240659880
  ],
  "tags": {
    "denomination": "roman_catholic",
    "landuse": "cemetery",
    "name": "Friedhof Bruckneudorf",
    "religion": "christian",
    "wikidata": "Q107250473"
  }
},
{
  "type": "way",
  "id": 23175961,
  "center": {
    "lat": 48.3050074,
    "lon": 16.1512498
  },
  "nodes": [
    250591342,
    250700973,
    3017611010,
    250591343,
    3017610999,
    250591344,
    250591345,
    3017610981,
    3017610975,
    3017610964,
    250591342
  ],
  "tags": {
    "addr:city": "Königstetten",
    "addr:country": "AT",
    "addr:housenumber": "9",
    "addr:postcode": "3433",
    "addr:street": "Friedhofstraße",
    "at_bev:addr_date": "2025-04-01",
    "barrier": "wall",
    "denomination": "catholic",
    "landuse": "cemetery",
    "name": "Neuer Friedhof",
    "religion": "christian",
    "source": "geoimage.at"
  }
},
{
  "type": "way",
  "id": 23203175,
  "center": {
    "lat": 48.3245441,
    "lon": 16.1976805
  },
  "nodes": [
    250965668,
    2850259531,
    250965669,
    7552810217,
    250965670,
    7552810216,
    250965671,
    6374079996,
    250965673,
    2449109614,
    2850259516,
    2449109656,
    6718731198,
    250965674,
    6718728087,
    2449109692,
    250965675,
    250965676,
    2336544939,
    250965677,
    250965668
  ],
  "tags": {
    "landuse": "cemetery"
  }
},
{
  "type": "way",
  "id": 23232140,
  "center": {
    "lat": 48.3669929,
    "lon": 16.3857739
  },
  "nodes": [
    251344720,
    251344721,
    251344722,
    251344723,
    5636115804,
    5636115803,
    251344724,
    251344725,
    251344726,
    251344727,
    5636115805,
    5636115802,
    5636115801,
    251344720
  ],
  "tags": {
    "denomination": "roman_catholic",
    "landuse": "cemetery",
    "name": "Friedhof Stetten",
    "religion": "christian"
  }
},
{
  "type": "way",
  "id": 23386041,
  "center": {
    "lat": 48.2056965,
    "lon": 16.1696885
  },
  "nodes": [
    253211970,
    1958597830,
    1958597831,
    253211971,
    1694957744,
    1958597833,
    9738365900,
    1958597834,
    241942645,
    1958597835,
    241942644,
    253211974,
    5178244036,
    253211975,
    253211976,
    253211977,
    253211978,
    253211970
  ],
  "tags": {
    "alt_name": "Purkersdorfer Friedhof",
    "barrier": "wall",
    "denomination": "catholic",
    "landuse": "cemetery",
    "name": "Friedhof Purkersdorf",
    "religion": "christian"
  }
},
{
  "type": "way",
  "id": 23398926,
  "center": {
    "lat": 48.1460905,
    "lon": 16.9488518
  },
  "nodes": [
    2576857060,
    253333947,
    1345658688,
    1345658687,
    253333944,
    3455276858,
    1490340407,
    1490340408,
    253333945,
    1482049576,
    253333946,
    3455277914,
    3455276857,
    2576857060
  ],
  "tags": {
    "barrier": "wall",
    "landuse": "cemetery",
    "name": "Friedhof Hainburg"
  }
},
{
  "type": "way",
  "id": 23445145,
  "center": {
    "lat": 48.5576677,
    "lon": 16.0898168
  },
  "nodes": [
    253905063,
    11956597173,
    1921900124,
    11956587851,
    253905064,
    1163076699,
    253905065,
    1163076656,
    1163076693,
    1163076667,
    7308424005,
    1168389290,
    1168389117,
    11697085711,
    280088646,
    1163076713,
    1895220685,
    1895220692,
    1895220681,
    1895220689,
    1175282307,
    11956597179,
    253905063
  ],
  "tags": {
    "barrier": "wall",
    "landuse": "cemetery"
  }
},
{
  "type": "way",
  "id": 24301232,
  "center": {
    "lat": 48.4166239,
    "lon": 16.4695967
  },
  "nodes": [
    263261255,
    7490255535,
    448161920,
    263261256,
    6790930194,
    263261257,
    6790930195,
    263261258,
    263261255
  ],
  "tags": {
    "landuse": "cemetery",
    "name": "Friedhof Schleinbach",
    "religion": "christian"
  }
},
{
  "type": "way",
  "id": 24316245,
  "center": {
    "lat": 48.3948560,
    "lon": 16.4917912
  },
  "nodes": [
    263646199,
    1400098626,
    263646201,
    263646202,
    2748627742,
    263646203,
    263646199
  ],
  "tags": {
    "addr:city": "Ulrichskirchen",
    "addr:country": "AT",
    "landuse": "cemetery",
    "religion": "christian",
    "wikidata": "Q128791927"
  }
},
{
  "type": "way",
  "id": 24412372,
  "center": {
    "lat": 48.5450853,
    "lon": 16.5344455
  },
  "nodes": [
    265040352,
    1037600637,
    265040353,
    8060439240,
    253028595,
    1161201518,
    265040355,
    265040352
  ],
  "tags": {
    "addr:city": "Paasdorf",
    "addr:country": "AT",
    "addr:postcode": "2130",
    "landuse": "cemetery"
  }
},
{
  "type": "way",
  "id": 24731163,
  "center": {
    "lat": 48.3989682,
    "lon": 16.2091765
  },
  "nodes": [
    268795262,
    268795263,
    268795264,
    268795265,
    268795262
  ],
  "tags": {
    "alt_name": "Jüdischer Friedhof",
    "heritage": "2",
    "heritage:operator": "bda",
    "landuse": "cemetery",
    "name": "Friedhof der Israelitischen Kultusgemeinde",
    "ref:at:bda": "115028",
    "religion": "jewish",
    "wikidata": "Q37773247",
    "wikimedia_commons": "File:Stockerau_Israelitischer_Friedhof.jpg",
    "wikipedia": "de:Jüdischer Friedhof Stockerau"
  }
},
{
  "type": "way",
  "id": 24731182,
  "center": {
    "lat": 48.3986310,
    "lon": 16.2061099
  },
  "nodes": [
    268795545,
    5040108339,
    268795546,
    5040108337,
    268795547,
    268795548,
    268795549,
    6578428748,
    6578428747,
    6578428589,
    268795550,
    5040108340,
    5040108341,
    5040108342,
    5040108343,
    1005806275,
    1005806583,
    268795545
  ],
  "tags": {
    "landuse": "cemetery",
    "name": "Friedhof Stockerau",
    "religion": "christian",
    "wikidata": "Q110490272",
    "wikimedia_commons": "Category:Stockerau, cemetery"
  }
},
{
  "type": "way",
  "id": 24854439,
  "center": {
    "lat": 48.1700041,
    "lon": 16.3050902
  },
  "nodes": [
    2084003177,
    2084003172,
    13138430731,
    2084003167,
    13138430733,
    2084003166,
    13138430734,
    290494310,
    13138421866,
    2084003135,
    13138421874,
    13138421876,
    2084003114,
    13138430723,
    13138430726,
    270055806,
    2084003088,
    13138430728,
    13138430706,
    2084003084,
    270055807,
    270055808,
    270055809,
    270055810,
    2084003174,
    2084003177
  ],
  "tags": {
    "landuse": "cemetery",
    "name": "Friedhof Hetzendorf",
    "wikidata": "Q1616332"
  }
},
{
  "type": "way",
  "id": 25062878,
  "center": {
    "lat": 48.9042142,
    "lon": 16.8152670
  },
  "nodes": [
    272694612,
    272694613,
    272694614,
    272694616,
    272694612
  ],
  "tags": {
    "landuse": "cemetery"
  }
},
{
  "type": "way",
  "id": 25317499,
  "center": {
    "lat": 48.3864465,
    "lon": 16.2520821
  },
  "nodes": [
    275816014,
    275816015,
    275816016,
    275816018,
    275816014
  ],
  "tags": {
    "landuse": "cemetery",
    "name": "Friedhof Spillern"
  }
},
{
  "type": "way",
  "id": 25576940,
  "center": {
    "lat": 48.2481980,
    "lon": 16.2993602
  },
  "nodes": [
    278803072,
    11348122554,
    11348122556,
    11348122537,
    11348122538,
    11348122539,
    2404753710,
    278803073,
    3613919429,
    298075822,
    3613919428,
    278803074,
    278803075,
    7389672133,
    4059467477,
    11348122534,
    278803077,
    11348122536,
    11348122535,
    2404753798,
    11348122533,
    11348122532,
    11348122531,
    11348122530,
    11348122529,
    11348122528,
    11348122527,
    11348122526,
    278803078,
    11348122525,
    11348122524,
    278803079,
    11348122523,
    3862452245,
    11348122522,
    11348122521,
    11348122520,
    11348122519,
    11348122518,
    278803080,
    11348122517,
    11348122600,
    11348122516,
    11348122601,
    11348122515,
    278803081,
    11348122602,
    278803082,
    301937960,
    10979136928,
    2407316529,
    2407316524,
    10979136927,
    278803083,
    2407316507,
    2407316508,
    324446212,
    324446207,
    10979099313,
    11348122658,
    11348122561,
    278803084,
    11348122562,
    11348122657,
    11348122565,
    11348122564,
    11348122563,
    278803085,
    11348122566,
    11348122567,
    11348122568,
    11348122569,
    11348122570,
    8932997196,
    8932997195,
    11348122560,
    11348122559,
    11348122558,
    8932997194,
    8932997193,
    8932997192,
    278803086,
    10979092280,
    11348122557,
    11348122555,
    278803072
  ],
  "tags": {
    "landuse": "cemetery",
    "name": "Neustifter Friedhof",
    "religion": "christian",
    "wikidata": "Q1981721"
  }
},
{
  "type": "way",
  "id": 25901368,
  "center": {
    "lat": 48.0799929,
    "lon": 16.3443216
  },
  "nodes": [
    2208727564,
    2208727563,
    9256913166,
    9256913167,
    3048072193,
    282540805,
    282540806,
    282540801,
    3493103148,
    3493103144,
    282540802,
    2208727564
  ],
  "tags": {
    "addr:postcode": "2362",
    "denomination": "catholic",
    "landuse": "cemetery",
    "name": "Friedhof Biedermannsdorf",
    "religion": "christian"
  }
},
{
  "type": "way",
  "id": 26209490,
  "center": {
    "lat": 48.2075819,
    "lon": 16.2339186
  },
  "nodes": [
    286994558,
    1648361811,
    1648361809,
    286994559,
    286994560,
    286994561,
    286994562,
    286994563,
    286994564,
    286994558
  ],
  "tags": {
    "alt_name": "Friedhof Hadersdorf-Weidlingau",
    "barrier": "wall",
    "denomination": "catholic",
    "image": "http://commons.wikimedia.org/wiki/File:Friedhof_Hadersdorf-Weidlingau_02_.jpg",
    "landuse": "cemetery",
    "name": "Hadersdorfer Friedhof",
    "religion": "christian",
    "wikidata": "Q1457335",
    "wikipedia": "de:Friedhof Hadersdorf-Weidlingau"
  }
},
{
  "type": "way",
  "id": 26262291,
  "center": {
    "lat": 48.3356596,
    "lon": 16.7079809
  },
  "nodes": [
    287632635,
    1116674511,
    9844536725,
    1562528776,
    1562528773,
    9844536765,
    9844536764,
    287632640,
    287632641,
    1708826082,
    287632642,
    9844536726,
    287632635
  ],
  "tags": {
    "denomination": "catholic",
    "landuse": "cemetery",
    "name": "katholischer Friedhof Gänserndorf",
    "religion": "christian",
    "wikidata": "Q128791935"
  }
},
{
  "type": "way",
  "id": 26365281,
  "center": {
    "lat": 48.2441423,
    "lon": 16.3088483
  },
  "nodes": [
    288859428,
    288859429,
    288859430,
    288859433,
    2338206938,
    2338206953,
    292255419,
    2338206966,
    2338206973,
    288859434,
    1579804979,
    1579804981,
    288859435,
    288859432,
    1064597914,
    1579804892,
    1579804918,
    288859431,
    288859428
  ],
  "tags": {
    "landuse": "cemetery",
    "name": "Pötzleinsdorfer Friedhof",
    "religion": "christian"
  }
},
{
  "type": "way",
  "id": 26406364,
  "center": {
    "lat": 48.1400936,
    "lon": 16.2566195
  },
  "nodes": [
    289303351,
    1619564899,
    1619564898,
    1738858797,
    289303438,
    2441963527,
    289303353,
    289303354,
    1738858812,
    289303530,
    289303527,
    289303351
  ],
  "tags": {
    "barrier": "wall",
    "landuse": "cemetery",
    "name": "Friedhof Kalksburg"
  }
},
{
  "type": "way",
  "id": 26410396,
  "center": {
    "lat": 48.5783936,
    "lon": 16.5625689
  },
  "nodes": [
    289352593,
    1539712440,
    1539712443,
    5757235147,
    1539712446,
    289352593
  ],
  "tags": {
    "barrier": "fence",
    "landuse": "cemetery",
    "name": "Sowjetischer Friedhof"
  }
},
{
  "type": "way",
  "id": 26450372,
  "center": {
    "lat": 48.2280809,
    "lon": 16.3120616
  },
  "nodes": [
    61931424,
    301658941,
    1806157195,
    1557407844,
    1557407848,
    1806157199,
    1806157198,
    1557407879,
    419114018,
    1557407760,
    4841364189,
    1806157187,
    1806157185,
    1557407682,
    1806157183,
    1557407675,
    1806157182,
    301658943,
    11329721765,
    4841364194,
    4841364193,
    12855850517,
    12855850516,
    4841364197,
    4841364198,
    289864913,
    1806157207,
    1557408335,
    289864905,
    301659640,
    11329775672,
    1806157216,
    1806157210,
    301659641,
    301659642,
    10797437478,
    1806157208,
    301659643,
    6661663430,
    6661663429,
    6661663420,
    301659644,
    5696105771,
    1806157217,
    5696504213,
    5696105776,
    61931424
  ],
  "tags": {
    "addr:city": "Wien",
    "addr:country": "AT",
    "addr:housenumber": "28",
    "addr:postcode": "1170",
    "addr:street": "Alszeile",
    "landuse": "cemetery",
    "name": "Dornbacher Friedhof",
    "religion": "christian",
    "wikidata": "Q1245599"
  }
},
{
  "type": "way",
  "id": 26606573,
  "center": {
    "lat": 48.2711739,
    "lon": 16.3462653
  },
  "nodes": [
    291784400,
    1833765539,
    3178361743,
    291784401,
    4639537317,
    291784402,
    291784404,
    291784405,
    319998552,
    291784400
  ],
  "tags": {
    "barrier": "wall",
    "denomination": "roman_catholic",
    "landuse": "cemetery",
    "name": "Pfarrfriedhof Kahlenbergerdorf",
    "religion": "christian",
    "source": "wien.at",
    "wikidata": "Q1499476",
    "wikipedia": "de:Pfarrfriedhof Kahlenbergerdorf"
  }
},
{
  "type": "way",
  "id": 26935456,
  "center": {
    "lat": 48.7927837,
    "lon": 16.9793431
  },
  "nodes": [
    295148223,
    3439910850,
    3439910845,
    3439910859,
    3439910849,
    3439910761,
    295148221,
    295148226,
    295148225,
    295148223
  ],
  "tags": {
    "landuse": "cemetery"
  }
},
{
  "type": "way",
  "id": 27439786,
  "center": {
    "lat": 48.0397071,
    "lon": 16.2827998
  },
  "nodes": [
    301280599,
    301280600,
    9142606781,
    301280601,
    9142606773,
    301280599
  ],
  "tags": {
    "denomination": "catholic",
    "landuse": "cemetery",
    "religion": "christian"
  }
},
{
  "type": "way",
  "id": 27488316,
  "center": {
    "lat": 48.1453886,
    "lon": 16.3638134
  },
  "nodes": [
    301780884,
    7640685603,
    7640685602,
    2012181122,
    7642871377,
    7640685604,
    301780888,
    301780896,
    7640732956,
    7640732946,
    7640732945,
    2012181121,
    301781027,
    7640732981,
    7642871368,
    7640743162,
    7640743141,
    2012181113,
    7642930688,
    301781028,
    7640743140,
    7640732947,
    130022866,
    301780884
  ],
  "tags": {
    "email": "friedhof-wien@derislam.at",
    "landuse": "cemetery",
    "mobile": "+43 676 47 06 920",
    "name": "Islamischer Friedhof Wien",
    "opening_hours": "Mo-Fr 07:30-16:30; Sa-Su 07:00-17:00",
    "operator": "Islamische Glaubensgemeinschaft in Österreich",
    "religion": "muslim",
    "wikidata": "Q1674159"
  }
},
{
  "type": "way",
  "id": 27576421,
  "center": {
    "lat": 48.4513459,
    "lon": 16.3034843
  },
  "nodes": [
    302781200,
    1442068058,
    302781201,
    1442068048,
    302781202,
    1442068040,
    1442068042,
    302781203,
    5338944417,
    5338944411,
    302781200
  ],
  "tags": {
    "denomination": "roman_catholic",
    "landuse": "cemetery",
    "name": "Friedhof Niederhollabrunn",
    "religion": "christian"
  }
},
{
  "type": "way",
  "id": 27769531,
  "center": {
    "lat": 48.3050991,
    "lon": 16.5629111
  },
  "nodes": [
    304922895,
    304922896,
    304922897,
    304922678,
    304922895
  ],
  "tags": {
    "alt_name": "Friedhof israelitisch",
    "disused": "yes",
    "heritage": "2",
    "heritage:operator": "bda",
    "landuse": "cemetery",
    "name": "Israelitischer Friedhof Deutsch Wagram",
    "name:en": "jewish cemetery Deutsch Wagram",
    "ref:at:bda": "114988",
    "religion": "jewish",
    "wikidata": "Q37773076",
    "wikimedia_commons": "Category:Jüdischer Friedhof Deutsch-Wagram",
    "wikipedia": "de:Jüdischer Friedhof Deutsch-Wagram"
  }
},
{
  "type": "way",
  "id": 27796039,
  "center": {
    "lat": 48.0877299,
    "lon": 16.2382744
  },
  "nodes": [
    2595719576,
    9347501291,
    7544705933,
    7544705934,
    305192044,
    2595719570,
    2595719569,
    2595719568,
    1099986132,
    1099986126,
    305192046,
    7544705935,
    7544705936,
    2595719576
  ],
  "tags": {
    "heritage": "2",
    "heritage:operator": "bda",
    "historic": "yes",
    "image": "https://commons.wikimedia.org/wiki/File:Friedhof-Hinterbr%C3%BChl_5376.jpg",
    "landuse": "cemetery",
    "name": "Friedhof Hinterbrühl",
    "ref:at:bda": "126267",
    "start_date": "1840",
    "wikidata": "Q37813389"
  }
},
{
  "type": "way",
  "id": 27818216,
  "center": {
    "lat": 48.0024329,
    "lon": 16.5638225
  },
  "nodes": [
    5570390490,
    9382640603,
    9383326738,
    9382640599,
    9382640605,
    8148707661,
    9383311034,
    9477106513,
    305445794,
    5570390489,
    9383855093,
    9383326323,
    5570390490
  ],
  "tags": {
    "landuse": "cemetery",
    "name": "Friedhof Pischelsdorf",
    "wikidata": "Q128800486"
  }
},
{
  "type": "way",
  "id": 27841759,
  "center": {
    "lat": 48.0737682,
    "lon": 16.3586480
  },
  "nodes": [
    305675062,
    305675063,
    2374407564,
    305675064,
    305675066,
    305675067,
    2698095405,
    305675062
  ],
  "tags": {
    "addr:postcode": "2361",
    "denomination": "catholic",
    "heritage": "2",
    "heritage:operator": "bda",
    "landuse": "cemetery",
    "name": "Friedhof Laxenburg",
    "ref:at:bda": "112636",
    "religion": "christian",
    "wikidata": "Q37769108"
  }
},
{
  "type": "way",
  "id": 27997711,
  "center": {
    "lat": 48.5441437,
    "lon": 16.0554035
  },
  "nodes": [
    307438136,
    307438137,
    6283002769,
    307438138,
    307438139,
    307438136
  ],
  "tags": {
    "landuse": "cemetery",
    "source": "geoimage.at"
  }
},
{
  "type": "way",
  "id": 28436485,
  "center": {
    "lat": 48.1014675,
    "lon": 16.4258283
  },
  "nodes": [
    312427593,
    5768802809,
    12802633298,
    312427594,
    312427595,
    312427596,
    312427597,
    312427598,
    312427599,
    312427593
  ],
  "tags": {
    "landuse": "cemetery",
    "name": "Friedhof Maria Lanzendorf"
  }
},
{
  "type": "way",
  "id": 28505478,
  "center": {
    "lat": 48.2701227,
    "lon": 16.4166953
  },
  "nodes": [
    313142388,
    9212668031,
    9212668030,
    313142389,
    346284789,
    313142392,
    7701853032,
    7701853031,
    313142388
  ],
  "tags": {
    "amenity": "grave_yard",
    "heritage": "2",
    "heritage:operator": "bda",
    "name": "Jüdischer Friedhof Floridsdorf",
    "ref:at:bda": "1143",
    "religion": "jewish",
    "wikidata": "Q1273681",
    "wikimedia_commons": "Category:Jüdischer Friedhof Floridsdorf",
    "wikipedia": "de:Jüdischer Friedhof Floridsdorf"
  }
},
{
  "type": "way",
  "id": 29013079,
  "center": {
    "lat": 48.3028424,
    "lon": 16.1514139
  },
  "nodes": [
    319075525,
    319075526,
    319075527,
    501807070,
    501807067,
    501807068,
    501807039,
    501807040,
    319075525
  ],
  "tags": {
    "denomination": "catholic",
    "landuse": "cemetery",
    "name": "Alter Friedhof",
    "religion": "christian",
    "source": "geoimage.at"
  }
},
{
  "type": "way",
  "id": 29184623,
  "center": {
    "lat": 48.1264195,
    "lon": 16.3120778
  },
  "nodes": [
    320943277,
    320943278,
    320943279,
    320943280,
    320943281,
    320943282,
    320943284,
    320943285,
    320943286,
    9416144571,
    320943287,
    3327313394,
    320943277
  ],
  "tags": {
    "landuse": "cemetery",
    "name": "Friedhof Siebenhirten",
    "religion": "christian",
    "wikidata": "Q1457422"
  }
},
{
  "type": "way",
  "id": 29200031,
  "center": {
    "lat": 48.1413315,
    "lon": 16.3143564
  },
  "nodes": [
    321191536,
    3139034230,
    3139034229,
    3139033427,
    3139033426,
    3139033428,
    321191537,
    3138998009,
    3138998018,
    3138999035,
    321191538,
    321191539,
    321191540,
    3139034250,
    321191541,
    3139034245,
    3139034234,
    321191668,
    321191536
  ],
  "tags": {
    "barrier": "wall",
    "landuse": "cemetery",
    "name": "Friedhof Erlaa",
    "religion": "christian",
    "source": "Stadt Wien - data.wien.gv.at",
    "start_date": "1867",
    "wikidata": "Q1355201"
  }
},
{
  "type": "way",
  "id": 29265159,
  "center": {
    "lat": 48.2625203,
    "lon": 16.4412550
  },
  "nodes": [
    321822113,
    4086827009,
    321822114,
    2139304107,
    321822117,
    321822119,
    321822113
  ],
  "tags": {
    "landuse": "cemetery",
    "name": "Friedhof Leopoldau"
  }
},
{
  "type": "way",
  "id": 29279120,
  "center": {
    "lat": 48.2359533,
    "lon": 16.4697612
  },
  "nodes": [
    321983175,
    4052511943,
    2460439825,
    11802386550,
    11802386547,
    321983176,
    2460439823,
    2460439827,
    2460439826,
    2460439828,
    2460439829,
    321983177,
    11802386531,
    321983178,
    11802386517,
    2460439851,
    321983179,
    321983175
  ],
  "tags": {
    "landuse": "cemetery",
    "name": "Friedhof Hirschstetten",
    "religion": "christian",
    "wikidata": "Q1457343"
  }
},
{
  "type": "way",
  "id": 29279447,
  "center": {
    "lat": 48.2526043,
    "lon": 16.4930306
  },
  "nodes": [
    321986552,
    11626528762,
    11626528763,
    3071146446,
    321986555,
    3327371715,
    321986554,
    321986553,
    11626528761,
    3327371716,
    11626528760,
    3071146438,
    321986552
  ],
  "tags": {
    "addr:city": "Wien",
    "addr:country": "AT",
    "addr:housenumber": "231",
    "addr:postcode": "1220",
    "addr:street": "Breitenleer Straße",
    "denomination": "catholic",
    "landuse": "cemetery",
    "name": "Friedhof Breitenlee",
    "opening_hours": "Nov 03-Feb 29 08:00-17:00; Mar 07:00-18:00; Oct 01-Nov 02 07:00-18:00; Apr-Sep 07:00-19:00; May-Aug 07:00-18:00; May-Aug Th 07:00-20:00",
    "religion": "christian",
    "wikidata": "Q38110538"
  }
},
{
  "type": "way",
  "id": 29314211,
  "center": {
    "lat": 48.2325379,
    "lon": 16.3518898
  },
  "nodes": [
    60736040,
    1381353470,
    322515722,
    60736042,
    3610734568,
    3610734569,
    3610734566,
    3610734570,
    3610734567,
    60736043,
    1943182257,
    60736044,
    60736045,
    2710736540,
    60736046,
    1943182305,
    1943182307,
    60736047,
    1438152713,
    60736049,
    1438152761,
    60736050,
    10614572093,
    60736040
  ],
  "tags": {
    "access": "no",
    "amenity": "grave_yard",
    "barrier": "wall",
    "heritage": "2",
    "heritage:operator": "bda",
    "name": "Jüdischer Friedhof Währing",
    "ref:at:bda": "52352",
    "religion": "jewish",
    "start_date": "1784",
    "wall": "brick",
    "wikidata": "Q872769",
    "wikimedia_commons": "Category:Israelitischer Friedhof Währing",
    "wikipedia": "de:Jüdischer Friedhof Währing"
  }
},
{
  "type": "way",
  "id": 29436147,
  "center": {
    "lat": 48.3617845,
    "lon": 16.6068219
  },
  "nodes": [
    324417728,
    1924840790,
    330329031,
    324417732,
    324417737,
    324417740,
    324417728
  ],
  "tags": {
    "landuse": "cemetery",
    "source": "plan.at 2008",
    "wikidata": "Q128791936"
  }
},
{
  "type": "way",
  "id": 29436148,
  "center": {
    "lat": 48.3563616,
    "lon": 16.5691345
  },
  "nodes": [
    324417750,
    3736555292,
    3736555280,
    3736555315,
    1691590826,
    1691590825,
    324417755,
    371696750,
    324417759,
    959849532,
    959849249,
    959849604,
    959849315,
    3736555317,
    324417750
  ],
  "tags": {
    "addr:city": "Groß-Engersdorf",
    "landuse": "cemetery",
    "source": "plan.at 2008",
    "wikidata": "Q37900901"
  }
},
{
  "type": "way",
  "id": 29436149,
  "center": {
    "lat": 48.3693357,
    "lon": 16.5211908
  },
  "nodes": [
    324417764,
    324417765,
    2721787662,
    324417767,
    2721829467,
    324417768,
    324452772,
    324417764
  ],
  "tags": {
    "addr:city": "Obersdorf",
    "addr:postcode": "2120",
    "barrier": "wall",
    "landuse": "cemetery",
    "source": "plan.at 2008"
  }
},
{
  "type": "way",
  "id": 29436150,
  "center": {
    "lat": 48.3604288,
    "lon": 16.5397677
  },
  "nodes": [
    324417769,
    324417770,
    324417771,
    2849276944,
    324417772,
    2886084218,
    324417769
  ],
  "tags": {
    "landuse": "cemetery",
    "source": "plan.at 2008",
    "wikidata": "Q128791931"
  }
},
{
  "type": "way",
  "id": 29436151,
  "center": {
    "lat": 48.4752114,
    "lon": 16.6337815
  },
  "nodes": [
    324414854,
    3678777057,
    3334352628,
    324417774,
    324417775,
    324417776,
    324414854
  ],
  "tags": {
    "landuse": "cemetery"
  }
},
{
  "type": "way",
  "id": 29436153,
  "center": {
    "lat": 48.4899705,
    "lon": 16.5546279
  },
  "nodes": [
    324417781,
    324417782,
    324417783,
    324417784,
    324417781
  ],
  "tags": {
    "landuse": "cemetery"
  }
},
{
  "type": "way",
  "id": 29436154,
  "center": {
    "lat": 48.4806299,
    "lon": 16.5111354
  },
  "nodes": [
    324417785,
    324417786,
    324417787,
    324417789,
    324417785
  ],
  "tags": {
    "landuse": "cemetery"
  }
},
{
  "type": "way",
  "id": 29436155,
  "center": {
    "lat": 48.4949247,
    "lon": 16.5136006
  },
  "nodes": [
    324417790,
    324417792,
    324417793,
    324417794,
    324417790
  ],
  "tags": {
    "landuse": "cemetery"
  }
},
{
  "type": "way",
  "id": 29436159,
  "center": {
    "lat": 48.4798692,
    "lon": 16.4405035
  },
  "nodes": [
    324417825,
    324417827,
    3219276853,
    2464154820,
    3219276846,
    324417828,
    324417829,
    3219276868,
    324417825
  ],
  "tags": {
    "landuse": "cemetery",
    "name:signed": "no"
  }
},
{
  "type": "way",
  "id": 29436160,
  "center": {
    "lat": 48.4762752,
    "lon": 16.4754247
  },
  "nodes": [
    324417831,
    324417832,
    3230112770,
    3230112768,
    3230112767,
    324417833,
    324417834,
    324417831
  ],
  "tags": {
    "landuse": "cemetery"
  }
},
{
  "type": "way",
  "id": 29436161,
  "center": {
    "lat": 48.4800102,
    "lon": 16.5817846
  },
  "nodes": [
    324414990,
    1605351170,
    1605266402,
    1605351506,
    324417835,
    1605351345,
    6230952552,
    6230952551,
    324417836,
    324414991,
    1605351603,
    324414990
  ],
  "tags": {
    "landuse": "cemetery",
    "name": "Friedhof Gaweinstal"
  }
},
{
  "type": "way",
  "id": 29436162,
  "center": {
    "lat": 48.4329638,
    "lon": 16.4727618
  },
  "nodes": [
    324417838,
    324417839,
    324417840,
    324417843,
    324417838
  ],
  "tags": {
    "landuse": "cemetery",
    "religion": "christian"
  }
},
{
  "type": "way",
  "id": 29436163,
  "center": {
    "lat": 48.3857315,
    "lon": 16.5242754
  },
  "nodes": [
    324554146,
    1149007924,
    324554147,
    1149007227,
    1149008145,
    2754858231,
    414101759,
    324417848,
    324417849,
    2754892047,
    1149007039,
    324554146
  ],
  "tags": {
    "landuse": "cemetery",
    "name": "Friedhof Wolkersdorf",
    "religion": "christian",
    "source:geometry": "geoimage.at",
    "wikidata": "Q129176172"
  }
},
{
  "type": "way",
  "id": 29436167,
  "center": {
    "lat": 48.6211357,
    "lon": 16.6458910
  },
  "nodes": [
    324417856,
    324417857,
    324417858,
    324417859,
    324417856
  ],
  "tags": {
    "landuse": "cemetery"
  }
},
{
  "type": "way",
  "id": 29436169,
  "center": {
    "lat": 48.6225177,
    "lon": 16.8308009
  },
  "nodes": [
    324417860,
    324417861,
    4352596804,
    324417862,
    324417863,
    324417860
  ],
  "tags": {
    "landuse": "cemetery",
    "source": "plan.at 2008,bing"
  }
},
{
  "type": "way",
  "id": 29436171,
  "center": {
    "lat": 48.5908513,
    "lon": 16.6441052
  },
  "nodes": [
    324417864,
    324417865,
    324417866,
    324417867,
    324417864
  ],
  "tags": {
    "landuse": "cemetery"
  }
},
{
  "type": "way",
  "id": 29436173,
  "center": {
    "lat": 48.5958843,
    "lon": 16.6631105
  },
  "nodes": [
    324417868,
    1193702393,
    324417870,
    324417871,
    324417868
  ],
  "tags": {
    "landuse": "cemetery",
    "source": "plan.at 2008"
  }
},
{
  "type": "way",
  "id": 29436174,
  "center": {
    "lat": 48.5942996,
    "lon": 16.6012988
  },
  "nodes": [
    324417872,
    324417873,
    2535403186,
    324417874,
    2134075393,
    324417875,
    324417872
  ],
  "tags": {
    "landuse": "cemetery"
  }
},
{
  "type": "way",
  "id": 29436175,
  "center": {
    "lat": 48.5274730,
    "lon": 16.4231779
  },
  "nodes": [
    324417876,
    324417877,
    324417878,
    324417879,
    324417876
  ],
  "tags": {
    "landuse": "cemetery"
  }
},
{
  "type": "way",
  "id": 29436176,
  "center": {
    "lat": 48.5378708,
    "lon": 16.4042114
  },
  "nodes": [
    324417880,
    324417881,
    324417882,
    324417884,
    324417880
  ],
  "tags": {
    "landuse": "cemetery"
  }
},
{
  "type": "way",
  "id": 29436177,
  "center": {
    "lat": 48.5380930,
    "lon": 16.4861121
  },
  "nodes": [
    324417885,
    1372546723,
    1049297439,
    1372546726,
    324417886,
    1372546715,
    324417887,
    1049297349,
    324417888,
    324417885
  ],
  "tags": {
    "landuse": "cemetery"
  }
},
{
  "type": "way",
  "id": 29436178,
  "center": {
    "lat": 48.5419750,
    "lon": 16.5322800
  },
  "nodes": [
    324417889,
    324417890,
    324417891,
    2225039771,
    324417892,
    324417889
  ],
  "tags": {
    "landuse": "cemetery",
    "name": "Cholerafriedhof",
    "wikidata": "Q18411108",
    "wikipedia": "de:Cholerafriedhof Paasdorf"
  }
},
{
  "type": "way",
  "id": 29436180,
  "center": {
    "lat": 48.5449923,
    "lon": 16.4023625
  },
  "nodes": [
    324417895,
    2296158437,
    324417896,
    324417899,
    324417900,
    324417895
  ],
  "tags": {
    "landuse": "cemetery"
  }
},
{
  "type": "way",
  "id": 29436181,
  "center": {
    "lat": 48.5836765,
    "lon": 16.4895443
  },
  "nodes": [
    324417902,
    324417904,
    324417905,
    324417907,
    3011369256,
    3011369255,
    324417902
  ],
  "tags": {
    "landuse": "cemetery",
    "religion": "christian",
    "wikidata": "Q126917615"
  }
},
{
  "type": "way",
  "id": 29436182,
  "center": {
    "lat": 48.6074399,
    "lon": 16.5440155
  },
  "nodes": [
    324417909,
    324417911,
    324417912,
    324417914,
    1152500723,
    324417909
  ],
  "tags": {
    "landuse": "cemetery",
    "source": "plan.at 2008, geoimage.at"
  }
},
{
  "type": "way",
  "id": 29436183,
  "center": {
    "lat": 48.6123957,
    "lon": 16.4188648
  },
  "nodes": [
    324417916,
    324417917,
    324417918,
    324417919,
    324417916
  ],
  "tags": {
    "landuse": "cemetery",
    "religion": "christian"
  }
},
{
  "type": "way",
  "id": 29436184,
  "center": {
    "lat": 48.6197286,
    "lon": 16.3537764
  },
  "nodes": [
    324417921,
    1085482593,
    324417922,
    324417923,
    4090719559,
    324417925,
    324417926,
    324417921
  ],
  "tags": {
    "landuse": "cemetery"
  }
},
{
  "type": "way",
  "id": 29436186,
  "center": {
    "lat": 48.5821318,
    "lon": 16.5675102
  },
  "nodes": [
    324417930,
    324417931,
    324417933,
    1363519755,
    1363519756,
    324417934,
    1363519757,
    324417930
  ],
  "tags": {
    "alt_name": "Jüdischer Friedhof",
    "description": "Der Friedhof kann besichtigt werden. Der Schlüssel für die etwas versteckte Tür wird bei Herrn Martin Jäger, Waldstraße 117 (gegenüber Waldstraße 122) verwahrt.",
    "end_date": "1938",
    "heritage": "2",
    "heritage:operator": "bda",
    "landuse": "cemetery",
    "name": "Israelitischer Friedhof",
    "ref:at:bda": "21999",
    "religion": "jewish",
    "source:description": "Wikipedia",
    "start_date": "1900",
    "wikidata": "Q1674735",
    "wikimedia_commons": "Category:Israelitischer Friedhof Mistelbach",
    "wikipedia": "de:Israelitischer Friedhof Mistelbach"
  }
},
{
  "type": "way",
  "id": 29436189,
  "center": {
    "lat": 48.6486141,
    "lon": 16.8979946
  },
  "nodes": [
    324417951,
    324417952,
    324417953,
    324417955,
    324417951
  ],
  "tags": {
    "landuse": "cemetery"
  }
},
{
  "type": "way",
  "id": 29436191,
  "center": {
    "lat": 48.6858639,
    "lon": 16.8760044
  },
  "nodes": [
    324417959,
    324417960,
    324417961,
    324417962,
    1426475893,
    324417959
  ],
  "tags": {
    "landuse": "cemetery",
    "name": "Friedhof Bernhardsthal",
    "religion": "christian"
  }
},
{
  "type": "way",
  "id": 29436192,
  "center": {
    "lat": 48.7190609,
    "lon": 16.6228852
  },
  "nodes": [
    324417963,
    1123178800,
    1123178687,
    324417964,
    324417965,
    324417966,
    324417963
  ],
  "tags": {
    "addr:city": "Poysbrunn",
    "landuse": "cemetery",
    "source": "plan.at 2008"
  }
},
{
  "type": "way",
  "id": 29436193,
  "center": {
    "lat": 48.6502522,
    "lon": 16.7944486
  },
  "nodes": [
    324417970,
    324417971,
    324417972,
    324417974,
    324417970
  ],
  "tags": {
    "landuse": "cemetery",
    "name": "Friedhof Altlichtenwarth",
    "religion": "christian"
  }
},
{
  "type": "way",
  "id": 29436196,
  "center": {
    "lat": 48.6490247,
    "lon": 16.6526541
  },
  "nodes": [
    324417980,
    324417981,
    324417983,
    324417984,
    324417980
  ],
  "tags": {
    "denomination": "roman_catholic",
    "landuse": "cemetery",
    "name": "Friedhof Ketzelsdorf",
    "religion": "christian"
  }
},
{
  "type": "way",
  "id": 29436197,
  "center": {
    "lat": 48.6662177,
    "lon": 16.6368258
  },
  "nodes": [
    324554311,
    324554305,
    324417988,
    324554307,
    1168593627,
    6689654561,
    6689654560,
    11091813186,
    324554310,
    324554311
  ],
  "tags": {
    "landuse": "cemetery",
    "name": "Friedhof Poysdorf",
    "religion": "christian"
  }
},
{
  "type": "way",
  "id": 29436198,
  "center": {
    "lat": 48.6695761,
    "lon": 16.5885368
  },
  "nodes": [
    324417992,
    324417993,
    324417995,
    526732359,
    1085764761,
    324417992
  ],
  "tags": {
    "landuse": "cemetery",
    "name": "Friedhof Kleinhadersdorf"
  }
},
{
  "type": "way",
  "id": 29436199,
  "center": {
    "lat": 48.6994760,
    "lon": 16.6787722
  },
  "nodes": [
    324417997,
    324554318,
    324418002,
    5011791671,
    5011791672,
    324418004,
    2127563991,
    324417997
  ],
  "tags": {
    "landuse": "cemetery"
  }
},
{
  "type": "way",
  "id": 29436200,
  "center": {
    "lat": 48.7029788,
    "lon": 16.7823677
  },
  "nodes": [
    324418010,
    324418012,
    324418017,
    324418018,
    2120363826,
    324418010
  ],
  "tags": {
    "landuse": "cemetery",
    "name": "Friedhof Katzelsdorf",
    "religion": "christian",
    "source": "plan.at 2008",
    "wikidata": "Q37760358"
  }
},
{
  "type": "way",
  "id": 29436201,
  "center": {
    "lat": 48.7195190,
    "lon": 16.7155781
  },
  "nodes": [
    324418021,
    324418023,
    324418025,
    324418027,
    324418021
  ],
  "tags": {
    "landuse": "cemetery"
  }
},
{
  "type": "way",
  "id": 29436203,
  "center": {
    "lat": 48.6364128,
    "lon": 16.4520311
  },
  "nodes": [
    324418050,
    1183518351,
    2069455252,
    324418054,
    324418056,
    324418060,
    324418050
  ],
  "tags": {
    "landuse": "cemetery"
  }
},
{
  "type": "way",
  "id": 29436204,
  "center": {
    "lat": 48.6435701,
    "lon": 16.5020835
  },
  "nodes": [
    324418062,
    340388185,
    324418064,
    324418067,
    4471742219,
    2719526515,
    324418069,
    1369935962,
    1369935964,
    324418062
  ],
  "tags": {
    "landuse": "cemetery"
  }
},
{
  "type": "way",
  "id": 29436207,
  "center": {
    "lat": 48.6689777,
    "lon": 16.3480498
  },
  "nodes": [
    324418107,
    324418108,
    324418110,
    324418111,
    324418112,
    324418107
  ],
  "tags": {
    "landuse": "cemetery",
    "name": "Friedhof Unterstinkenbrunn",
    "religion": "christian",
    "source": "plan.at 2008"
  }
},
{
  "type": "way",
  "id": 29436210,
  "center": {
    "lat": 48.7176077,
    "lon": 16.4987652
  },
  "nodes": [
    324418132,
    324418143,
    324418146,
    324418150,
    324418132
  ],
  "tags": {
    "landuse": "cemetery"
  }
},
{
  "type": "way",
  "id": 29436212,
  "center": {
    "lat": 48.7159561,
    "lon": 16.5352515
  },
  "nodes": [
    324418175,
    8994246089,
    8994246090,
    1197132718,
    8994246091,
    8994246092,
    3445222230,
    8994246088,
    324418179,
    2039755243,
    324418175
  ],
  "tags": {
    "barrier": "wall",
    "landuse": "cemetery",
    "religion": "christian"
  }
},
{
  "type": "way",
  "id": 29436214,
  "center": {
    "lat": 48.6945660,
    "lon": 16.5503191
  },
  "nodes": [
    324418195,
    1196752426,
    1196753190,
    324418205,
    324418195
  ],
  "tags": {
    "landuse": "cemetery",
    "name": "Friedhof Altruppersdorf",
    "source": "plan.at 2008,geoimage.at"
  }
},
{
  "type": "way",
  "id": 29436215,
  "center": {
    "lat": 48.6724369,
    "lon": 16.5314829
  },
  "nodes": [
    27518052,
    324418214,
    324418218,
    324418222,
    27518052
  ],
  "tags": {
    "landuse": "cemetery"
  }
},
{
  "type": "way",
  "id": 29436216,
  "center": {
    "lat": 48.7083875,
    "lon": 16.3627513
  },
  "nodes": [
    324418230,
    1491737883,
    1491737881,
    2908333262,
    324418233,
    324418236,
    324418243,
    324418230
  ],
  "tags": {
    "landuse": "cemetery"
  }
},
{
  "type": "way",
  "id": 29436217,
  "center": {
    "lat": 48.6975753,
    "lon": 16.4579638
  },
  "nodes": [
    2074062699,
    324418258,
    324418262,
    324418265,
    2074062699
  ],
  "tags": {
    "landuse": "cemetery"
  }
},
{
  "type": "way",
  "id": 29436219,
  "center": {
    "lat": 48.7326699,
    "lon": 16.4009863
  },
  "nodes": [
    324418273,
    1482255524,
    1482255527,
    1482255526,
    1482255525,
    324418275,
    324418277,
    1063773257,
    324418279,
    324418273
  ],
  "tags": {
    "landuse": "cemetery",
    "wikidata": "Q127706610",
    "wikimedia_commons": "Category:Friedhof Laa an der Thaya"
  }
},
{
  "type": "way",
  "id": 29436223,
  "center": {
    "lat": 48.6446052,
    "lon": 16.3024719
  },
  "nodes": [
    324418291,
    324418293,
    3927380212,
    324418295,
    324418298,
    324418301,
    1104881554,
    3927380213,
    324418291
  ],
  "tags": {
    "landuse": "cemetery",
    "name": "Friedhof Stronsdorf",
    "wikidata": "Q114337845"
  }
},
{
  "type": "way",
  "id": 29436225,
  "center": {
    "lat": 48.7150202,
    "lon": 16.3000914
  },
  "nodes": [
    324418307,
    324418313,
    324418315,
    324418317,
    324418307
  ],
  "tags": {
    "landuse": "cemetery"
  }
},
{
  "type": "way",
  "id": 29436229,
  "center": {
    "lat": 48.6366796,
    "lon": 16.2840627
  },
  "nodes": [
    324418318,
    324418319,
    3971645656,
    324418321,
    324418322,
    2678526953,
    3971647364,
    3971647363,
    324418318
  ],
  "tags": {
    "landuse": "cemetery",
    "name": "Friedhof Patzmannsdorf",
    "wikidata": "Q114423372"
  }
},
{
  "type": "way",
  "id": 29436233,
  "center": {
    "lat": 48.7554198,
    "lon": 16.6438006
  },
  "nodes": [
    324418324,
    324418326,
    1470545106,
    1470545105,
    324418329,
    324418331,
    1470545104,
    324418324
  ],
  "tags": {
    "landuse": "cemetery",
    "name": "Friedhof Drasenhofen",
    "source": "plan.at 2008,geoimage.at",
    "wikidata": "Q38172160"
  }
},
{
  "type": "way",
  "id": 29436237,
  "center": {
    "lat": 48.7586901,
    "lon": 16.5045427
  },
  "nodes": [
    324418351,
    324418355,
    324418360,
    324418362,
    324418366,
    324418369,
    324418351
  ],
  "tags": {
    "landuse": "cemetery"
  }
},
{
  "type": "way",
  "id": 29655617,
  "center": {
    "lat": 48.0628730,
    "lon": 16.7069063
  },
  "nodes": [
    179620576,
    6851646090,
    326361262,
    326361263,
    4787995524,
    326361289,
    4787995526,
    6851646089,
    179620576
  ],
  "tags": {
    "landuse": "cemetery",
    "wikidata": "Q37767042"
  }
},
{
  "type": "way",
  "id": 29656469,
  "center": {
    "lat": 48.0742884,
    "lon": 16.9000619
  },
  "nodes": [
    326367894,
    9267804672,
    326367898,
    326367902,
    326367905,
    326367894
  ],
  "tags": {
    "landuse": "cemetery",
    "source": "plan.at 2009,geoimage.at"
  }
},
{
  "type": "way",
  "id": 29658358,
  "center": {
    "lat": 48.1377477,
    "lon": 16.9082999
  },
  "nodes": [
    326381596,
    1801057604,
    1801057616,
    326381605,
    326381609,
    5404007134,
    1482214979,
    5845547639,
    1012547673,
    1482214971,
    1012547675,
    1200967891,
    1200967888,
    1801057617,
    326381596
  ],
  "tags": {
    "barrier": "wall",
    "landuse": "cemetery",
    "wikidata": "Q126910222"
  }
},
{
  "type": "way",
  "id": 29658592,
  "center": {
    "lat": 48.1149103,
    "lon": 16.8691344
  },
  "nodes": [
    29743105,
    326382921,
    1472024154,
    1911435371,
    1472024160,
    1472024159,
    1472024161,
    326382928,
    1911435372,
    29743105
  ],
  "tags": {
    "addr:postcode": "2404",
    "landuse": "cemetery",
    "wikidata": "Q37773888"
  }
},
{
  "type": "way",
  "id": 30200363,
  "center": {
    "lat": 48.2227572,
    "lon": 16.9044703
  },
  "nodes": [
    332814738,
    332814740,
    3397681352,
    332814742,
    3397681351,
    332814744,
    3397681350,
    1572842625,
    3397681349,
    332814746,
    1572842626,
    1572842627,
    332814748,
    332814754,
    332814756,
    332814758,
    332814760,
    332814738
  ],
  "tags": {
    "addr:postcode": "2294",
    "landuse": "cemetery",
    "name": "Friedhof Groißenbrunn",
    "source": "plan.at 2009,geoimage.at",
    "wikidata": "Q128791258"
  }
},
{
  "type": "way",
  "id": 30200450,
  "center": {
    "lat": 48.1485231,
    "lon": 16.8809859
  },
  "nodes": [
    332815641,
    332815643,
    10208214265,
    332815645,
    332815647,
    10208214256,
    10208214278,
    3499183159,
    10208214255,
    3499183155,
    10208214246,
    332815649,
    10208214280,
    10208214276,
    10208214279,
    332815641
  ],
  "tags": {
    "amenity": "grave_yard",
    "source": "plan.at 2009,geoimage.at",
    "wikidata": "Q128791254"
  }
},
{
  "type": "way",
  "id": 30200658,
  "center": {
    "lat": 48.3929536,
    "lon": 16.8058484
  },
  "nodes": [
    332817046,
    332817047,
    1015716322,
    332817049,
    332817046
  ],
  "tags": {
    "barrier": "fence",
    "denomination": "catholic",
    "landuse": "cemetery",
    "name": "Friedhof Ollersdorf",
    "religion": "christian"
  }
},
{
  "type": "way",
  "id": 30200749,
  "center": {
    "lat": 48.4138791,
    "lon": 16.8378763
  },
  "nodes": [
    1091833498,
    3880878737,
    332817415,
    332817416,
    3880879561,
    332817417,
    1091833614,
    1091864738,
    1091833732,
    3880878734,
    332817418,
    332817419,
    332817420,
    332817421,
    3880878735,
    332817422,
    3880878736,
    332817423,
    1091833498
  ],
  "tags": {
    "addr:postcode": "2262",
    "landuse": "cemetery",
    "name": "Friedhof Stillfried",
    "source": "plan.at 2009,bing"
  }
},
{
  "type": "way",
  "id": 30200809,
  "center": {
    "lat": 48.3781152,
    "lon": 16.8276386
  },
  "nodes": [
    332817715,
    10188335107,
    10188335108,
    30778430,
    4041455385,
    2082968278,
    332817716,
    332817717,
    10188335101,
    332817715
  ],
  "tags": {
    "barrier": "wall",
    "landuse": "cemetery"
  }
},
{
  "type": "way",
  "id": 30200926,
  "center": {
    "lat": 48.2494299,
    "lon": 16.5593834
  },
  "nodes": [
    332818326,
    1672103895,
    1672103899,
    1672103908,
    1672103910,
    334224194,
    332818332,
    332818333,
    332818326
  ],
  "tags": {
    "addr:city": "Raasdorf",
    "addr:country": "AT",
    "addr:postcode": "2281",
    "landuse": "cemetery",
    "name": "Friedhof Raasdorf",
    "source": "plan.at 2009,geoimage.at"
  }
},
{
  "type": "way",
  "id": 30201010,
  "center": {
    "lat": 48.1956623,
    "lon": 16.9485631
  },
  "nodes": [
    176588340,
    332819168,
    332819169,
    332819170,
    176588340
  ],
  "tags": {
    "landuse": "cemetery",
    "name": "Friedhof Markthof",
    "religion": "christian"
  }
},
{
  "type": "way",
  "id": 30201011,
  "center": {
    "lat": 48.1842107,
    "lon": 16.8797573
  },
  "nodes": [
    332819171,
    5157043725,
    4176317484,
    8428800898,
    332819172,
    332819173,
    332819174,
    5157043724,
    332819171
  ],
  "tags": {
    "landuse": "cemetery",
    "name": "Friedhof Engelhartstetten",
    "religion": "christian"
  }
},
{
  "type": "way",
  "id": 30201012,
  "center": {
    "lat": 48.1746350,
    "lon": 16.8548519
  },
  "nodes": [
    332819176,
    332819177,
    332819178,
    332819179,
    332819176
  ],
  "tags": {
    "landuse": "cemetery",
    "name": "Friedhof Loimersdorf",
    "religion": "christian"
  }
},
{
  "type": "way",
  "id": 30201013,
  "center": {
    "lat": 48.1831646,
    "lon": 16.7344739
  },
  "nodes": [
    332819180,
    332819181,
    332819182,
    1151663863,
    332819180
  ],
  "tags": {
    "landuse": "cemetery",
    "source": "plan.at 2009,geoimage.at"
  }
},
{
  "type": "way",
  "id": 30201014,
  "center": {
    "lat": 48.1982943,
    "lon": 16.7458459
  },
  "nodes": [
    332819183,
    332819184,
    332819185,
    332819186,
    332819183
  ],
  "tags": {
    "landuse": "cemetery",
    "source": "plan.at 2009"
  }
},
{
  "type": "way",
  "id": 30201015,
  "center": {
    "lat": 48.1511209,
    "lon": 16.6587981
  },
  "nodes": [
    332819187,
    332819188,
    332819189,
    332819190,
    332819187
  ],
  "tags": {
    "landuse": "cemetery"
  }
},
{
  "type": "way",
  "id": 30201016,
  "center": {
    "lat": 48.1652492,
    "lon": 16.8142902
  },
  "nodes": [
    332819191,
    332819192,
    332819193,
    4180820344,
    4180820348,
    4180820349,
    4180820346,
    4180820347,
    4180820345,
    4180820350,
    332819194,
    332819191
  ],
  "tags": {
    "landuse": "cemetery"
  }
},
{
  "type": "way",
  "id": 30201017,
  "center": {
    "lat": 48.1418285,
    "lon": 16.7960434
  },
  "nodes": [
    332819196,
    332819197,
    1634510371,
    332819198,
    332819199,
    332819196
  ],
  "tags": {
    "amenity": "grave_yard",
    "source": "plan.at 2009"
  }
},
{
  "type": "way",
  "id": 30201018,
  "center": {
    "lat": 48.1969659,
    "lon": 16.7777103
  },
  "nodes": [
    332819201,
    332819202,
    332819203,
    332819204,
    332819201
  ],
  "tags": {
    "landuse": "cemetery"
  }
},
{
  "type": "way",
  "id": 30201019,
  "center": {
    "lat": 48.1488504,
    "lon": 16.7041360
  },
  "nodes": [
    332819205,
    332819206,
    1006795260,
    1931808899,
    1718995444,
    1718995445,
    332819207,
    332819208,
    332819209,
    1718995428,
    1718995427,
    1718995432,
    332819210,
    1931808902,
    332819211,
    1556110094,
    332819205
  ],
  "tags": {
    "landuse": "cemetery",
    "name": "Friedhof Orth",
    "religion": "christian",
    "source": "plan.at 2009,bing"
  }
},
{
  "type": "way",
  "id": 30201020,
  "center": {
    "lat": 48.2218943,
    "lon": 16.6882399
  },
  "nodes": [
    332819212,
    332819213,
    332819214,
    1962900715,
    1962900830,
    332819215,
    332819212
  ],
  "tags": {
    "landuse": "cemetery",
    "source": "plan.at 2009,bing"
  }
},
{
  "type": "way",
  "id": 30201022,
  "center": {
    "lat": 48.1465776,
    "lon": 16.6150395
  },
  "nodes": [
    332819217,
    332819218,
    332819219,
    332819220,
    332819217
  ],
  "tags": {
    "landuse": "cemetery",
    "name": "Friedhof Schönau",
    "source": "plan.at 2009"
  }
},
{
  "type": "way",
  "id": 30201024,
  "center": {
    "lat": 48.1694598,
    "lon": 16.6122941
  },
  "nodes": [
    332819224,
    332819225,
    332819226,
    332819227,
    332819224
  ],
  "tags": {
    "landuse": "cemetery",
    "name": "Friedhof Probstdorf",
    "source": "plan.at 2009"
  }
},
{
  "type": "way",
  "id": 30201026,
  "center": {
    "lat": 48.1912851,
    "lon": 16.6404299
  },
  "nodes": [
    332819228,
    4936116214,
    332819230,
    332819231,
    332819232,
    332819234,
    4936116211,
    1665910487,
    332819236,
    840877220,
    332819228
  ],
  "tags": {
    "landuse": "cemetery"
  }
},
{
  "type": "way",
  "id": 30201027,
  "center": {
    "lat": 48.1836335,
    "lon": 16.5927860
  },
  "nodes": [
    332819238,
    332819240,
    332819241,
    332819242,
    332819238
  ],
  "tags": {
    "landuse": "cemetery",
    "name": "Friedhof Wittau",
    "source": "plan.at 2009"
  }
},
{
  "type": "way",
  "id": 30201028,
  "center": {
    "lat": 48.1776250,
    "lon": 16.5791579
  },
  "nodes": [
    332819244,
    332819246,
    332819247,
    332819248,
    332819244
  ],
  "tags": {
    "landuse": "cemetery",
    "name": "Friedhof Oberhausen",
    "source": "plan.at 2009"
  }
},
{
  "type": "way",
  "id": 30201029,
  "center": {
    "lat": 48.1758122,
    "lon": 16.5645842
  },
  "nodes": [
    332819250,
    332819251,
    7537965176,
    7537965172,
    7537965173,
    332819253,
    7537965175,
    7537965167,
    7537965168,
    7537965169,
    332819254,
    332819250
  ],
  "tags": {
    "landuse": "cemetery",
    "name": "Friedhof Mühlleiten",
    "source": "plan.at 2009"
  }
},
{
  "type": "way",
  "id": 30201030,
  "center": {
    "lat": 48.1957549,
    "lon": 16.5479329
  },
  "nodes": [
    332819256,
    338488712,
    332819257,
    338488724,
    332819258,
    332819260,
    332819261,
    338488644,
    338488645,
    332819262,
    332819264,
    2609387769,
    2609387766,
    2609387763,
    332819256
  ],
  "tags": {
    "landuse": "cemetery",
    "name": "Friedhof Groß-Enzersdorf",
    "source": "plan.at 2009"
  }
},
{
  "type": "way",
  "id": 30201032,
  "center": {
    "lat": 48.1968039,
    "lon": 16.5715618
  },
  "nodes": [
    332819266,
    332819267,
    332819268,
    332819269,
    332819266
  ],
  "tags": {
    "alt_name": "Friedhof israelitisch",
    "heritage": "2",
    "heritage:operator": "bda",
    "landuse": "cemetery",
    "name": "Friedhof der israelitischen Kultusgemeinde",
    "ref:at:bda": "114997",
    "religion": "jewish",
    "source": "plan.at 2009",
    "start_date": "1889",
    "wikidata": "Q37773120",
    "wikipedia": "de:Jüdischer Friedhof Groß-Enzersdorf"
  }
},
{
  "type": "way",
  "id": 30201033,
  "center": {
    "lat": 48.2746566,
    "lon": 16.9138316
  },
  "nodes": [
    332819272,
    3443506706,
    332819274,
    332819275,
    3443506705,
    332819276,
    332819272
  ],
  "tags": {
    "landuse": "cemetery",
    "name": "Friedhof Marchegg",
    "source": "plan.at 2009,geoimage.at"
  }
},
{
  "type": "way",
  "id": 30201034,
  "center": {
    "lat": 48.3411730,
    "lon": 16.8335692
  },
  "nodes": [
    332819278,
    332819280,
    332819282,
    332819286,
    332819278
  ],
  "tags": {
    "landuse": "cemetery",
    "name": "Friedhof Zwerndorf",
    "source": "geoimage.at"
  }
},
{
  "type": "way",
  "id": 30201035,
  "center": {
    "lat": 48.2572000,
    "lon": 16.7451339
  },
  "nodes": [
    332819288,
    1739491938,
    1739491937,
    9264955591,
    332819289,
    1739491932,
    9264952215,
    1739491930,
    1739491929,
    1739491931,
    332819291,
    1739491934,
    332819292,
    9264952214,
    332819288
  ],
  "tags": {
    "barrier": "wall",
    "landuse": "cemetery",
    "name": "Friedhof Untersiebenbrunn",
    "religion": "christian",
    "wikidata": "Q38063262"
  }
},
{
  "type": "way",
  "id": 30201037,
  "center": {
    "lat": 48.3725747,
    "lon": 16.6819361
  },
  "nodes": [
    332819298,
    4809947039,
    332819300,
    332819301,
    332819302,
    332819298
  ],
  "tags": {
    "barrier": "wall",
    "landuse": "cemetery",
    "source": "geoimage.at",
    "wikidata": "Q128791939"
  }
},
{
  "type": "way",
  "id": 30201038,
  "center": {
    "lat": 48.3616113,
    "lon": 16.7039952
  },
  "nodes": [
    332819304,
    332819305,
    332819307,
    332819308,
    332819304
  ],
  "tags": {
    "landuse": "cemetery",
    "name": "Friedhof Schönkirchen",
    "wikidata": "Q128791940"
  }
},
{
  "type": "way",
  "id": 30201039,
  "center": {
    "lat": 48.3713532,
    "lon": 16.6351041
  },
  "nodes": [
    332819310,
    398818888,
    332819311,
    4362075928,
    3807481176,
    332819312,
    332819314,
    332819310
  ],
  "tags": {
    "landuse": "cemetery",
    "name": "Friedhof Auersthal",
    "source": "plan.at 2009",
    "wikidata": "Q128791937"
  }
},
{
  "type": "way",
  "id": 30201041,
  "center": {
    "lat": 48.3411405,
    "lon": 16.7925759
  },
  "nodes": [
    332819315,
    332819316,
    10121104301,
    1639018806,
    1639018807,
    10121104302,
    332819317,
    332819318,
    332819315
  ],
  "tags": {
    "landuse": "cemetery",
    "source": "plan.at 2009,geoimage.at"
  }
},
{
  "type": "way",
  "id": 30201043,
  "center": {
    "lat": 48.3108493,
    "lon": 16.8219141
  },
  "nodes": [
    332819319,
    332819320,
    8497123806,
    332819321,
    332819326,
    332819319
  ],
  "tags": {
    "denomination": "roman_catholic",
    "landuse": "cemetery",
    "name": "Friedhof Oberweiden",
    "religion": "christian",
    "source": "plan.at 2009,geoimage.at"
  }
},
{
  "type": "way",
  "id": 30201044,
  "center": {
    "lat": 48.2634628,
    "lon": 16.8032789
  },
  "nodes": [
    332819327,
    332819328,
    332819331,
    332819332,
    332819327
  ],
  "tags": {
    "landuse": "cemetery",
    "name": "Friedhof Schönfeld im Marchfeld",
    "source": "plan.at 2009,geoimage.at",
    "wikidata": "Q128791261"
  }
},
{
  "type": "way",
  "id": 30201045,
  "center": {
    "lat": 48.2627659,
    "lon": 16.7124848
  },
  "nodes": [
    332819333,
    1714323216,
    332896608,
    1714323214,
    1714323189,
    332819334,
    332819335,
    332819336,
    332819333
  ],
  "tags": {
    "barrier": "wall",
    "landuse": "cemetery",
    "source": "plan.at 2009,bing"
  }
},
{
  "type": "way",
  "id": 30201047,
  "center": {
    "lat": 48.3333904,
    "lon": 16.7048353
  },
  "nodes": [
    8513061729,
    1589734937,
    332819341,
    332819342,
    332819343,
    332819344,
    1085367073,
    1589734936,
    8513061730,
    5749731641,
    5749731642,
    8513061729
  ],
  "tags": {
    "alt_name": "israelitischer Friedhof",
    "barrier": "wall",
    "heritage": "2",
    "heritage:operator": "bda",
    "landuse": "cemetery",
    "name": "jüdischer Friedhof",
    "ref:at:bda": "6696",
    "religion": "jewish",
    "source": "geoimage.at",
    "wikidata": "Q22814813",
    "wikimedia_commons": "Category:Jewish cemetery in Gänserndorf",
    "wikipedia": "de:Jüdischer Friedhof Gänserndorf"
  }
},
{
  "type": "way",
  "id": 30201048,
  "center": {
    "lat": 48.3061079,
    "lon": 16.6358581
  },
  "nodes": [
    332819345,
    260028251,
    260028252,
    332819348,
    1770629587,
    1770629592,
    332819345
  ],
  "tags": {
    "landuse": "cemetery",
    "name": "Friedhof der Marktgemeinde Strasshof an der Nordbahn"
  }
},
{
  "type": "way",
  "id": 30201051,
  "center": {
    "lat": 48.3942178,
    "lon": 16.8378109
  },
  "nodes": [
    332819356,
    332819357,
    332819358,
    332819359,
    332819356
  ],
  "tags": {
    "landuse": "cemetery",
    "name": "Friedhof Mannersdorf",
    "source": "plan.at 2009,geoimage.at"
  }
},
{
  "type": "way",
  "id": 30201052,
  "center": {
    "lat": 48.4962690,
    "lon": 16.8688796
  },
  "nodes": [
    332819360,
    332819361,
    332819362,
    332819363,
    332819360
  ],
  "tags": {
    "landuse": "cemetery"
  }
},
{
  "type": "way",
  "id": 30201053,
  "center": {
    "lat": 48.4724359,
    "lon": 16.8423642
  },
  "nodes": [
    332819364,
    9456736139,
    1018787570,
    332819365,
    332819366,
    332819367,
    332819368,
    332819369,
    332819364
  ],
  "tags": {
    "denomination": "catholic",
    "landuse": "cemetery",
    "religion": "christian",
    "source": "plan.at 2009",
    "wikidata": "Q111576145"
  }
},
{
  "type": "way",
  "id": 30201054,
  "center": {
    "lat": 48.4138966,
    "lon": 16.6296782
  },
  "nodes": [
    332819375,
    332819371,
    6435900379,
    332819372,
    332819373,
    332819375
  ],
  "tags": {
    "landuse": "cemetery",
    "religion": "christian",
    "source": "plan.at 2009,geoimage.at"
  }
},
{
  "type": "way",
  "id": 30201055,
  "center": {
    "lat": 48.3885511,
    "lon": 16.7439245
  },
  "nodes": [
    357222793,
    8656762569,
    290940267,
    8656762540,
    8656762568,
    8656762541,
    8656762546,
    8656762567,
    8656762547,
    8656762551,
    8656861589,
    8656861588,
    357222936,
    8656861592,
    357222946,
    8656861590,
    357222952,
    332819377,
    8656762558,
    357222793
  ],
  "tags": {
    "denomination": "catholic",
    "landuse": "cemetery",
    "religion": "christian",
    "source": "plan.at 2009"
  }
},
{
  "type": "way",
  "id": 30201056,
  "center": {
    "lat": 48.4370694,
    "lon": 16.7964505
  },
  "nodes": [
    332819379,
    332819380,
    332819381,
    332819382,
    332819383,
    332819384,
    332819379
  ],
  "tags": {
    "landuse": "cemetery",
    "name": "Friedhof Ebenthal",
    "religion": "christian",
    "source": "plan.at 2009,geoimage.at"
  }
},
{
  "type": "way",
  "id": 30201057,
  "center": {
    "lat": 48.4567896,
    "lon": 16.5988228
  },
  "nodes": [
    246738727,
    1641829703,
    5595064733,
    332819386,
    1641829933,
    332819387,
    5732661200,
    332819388,
    5595064731,
    1641829928,
    5732661199,
    332819389,
    5595064726,
    246738727
  ],
  "tags": {
    "denomination": "roman_catholic",
    "landuse": "cemetery",
    "religion": "christian"
  }
},
{
  "type": "way",
  "id": 30201059,
  "center": {
    "lat": 48.4614782,
    "lon": 16.6600304
  },
  "nodes": [
    332819391,
    3175840177,
    332819392,
    3175840178,
    332819393,
    332819394,
    332819391
  ],
  "tags": {
    "landuse": "cemetery",
    "religion": "christian"
  }
},
{
  "type": "way",
  "id": 30201060,
  "center": {
    "lat": 48.4629511,
    "lon": 16.6303815
  },
  "nodes": [
    332819395,
    1109389551,
    332819396,
    332819397,
    3331729589,
    3331729588,
    332819398,
    332819395
  ],
  "tags": {
    "landuse": "cemetery"
  }
},
{
  "type": "way",
  "id": 30201061,
  "center": {
    "lat": 48.4667543,
    "lon": 16.7438691
  },
  "nodes": [
    332819399,
    332819400,
    332819401,
    6907330878,
    332819399
  ],
  "tags": {
    "landuse": "cemetery",
    "name": "Friedhof Spannberg",
    "religion": "christian",
    "source": "plan.at 2009"
  }
},
{
  "type": "way",
  "id": 30201062,
  "center": {
    "lat": 48.4668390,
    "lon": 16.8183881
  },
  "nodes": [
    332819403,
    1636741721,
    273984487,
    332819405,
    332819406,
    332819403
  ],
  "tags": {
    "landuse": "cemetery"
  }
},
{
  "type": "way",
  "id": 30201063,
  "center": {
    "lat": 48.4871557,
    "lon": 16.6793468
  },
  "nodes": [
    332819407,
    332819408,
    332819409,
    332819411,
    332819407
  ],
  "tags": {
    "barrier": "wall",
    "landuse": "cemetery",
    "religion": "christian"
  }
},
{
  "type": "way",
  "id": 30201064,
  "center": {
    "lat": 48.6107890,
    "lon": 16.9039795
  },
  "nodes": [
    332819412,
    332819413,
    332819414,
    332819416,
    332819412
  ],
  "tags": {
    "landuse": "cemetery",
    "name": "Friedhof Hohenau/March",
    "religion": "christian",
    "wikidata": "Q38071049"
  }
},
{
  "type": "way",
  "id": 30201068,
  "center": {
    "lat": 48.5628736,
    "lon": 16.8518433
  },
  "nodes": [
    332819432,
    342943308,
    342943312,
    332819433,
    332819432
  ],
  "tags": {
    "landuse": "cemetery",
    "name": "Friedhof Niederabsdorf",
    "religion": "christian"
  }
},