{
  "version": 0.6,
  "generator": "Overpass API 0.7.62.8 e802775f",
  "osm3s": {
    "timestamp_osm_base": "2025-11-02T22:55:22Z",
    "copyright": "The data included in this document is from www.openstreetmap.org. The data is made available under ODbL."
  },
  "elements": [

{
  "type": "way",
  "id": 4040179,
  "center": {
    "lat": 53.0942431,
    "lon": 8.8589209
  },
  "nodes": [
    251928978,
    2847385445,
    2847385462,
    251928981,
    21384182,
    2191765147,
    2191765146,
    2191765148,
    2191765149,
    308043649,
    308043648,
    21384183,
    1659769084,
    1659769086,
    21384184,
    1912317895,
    21384185,
    2850608010,
    21384187,
    2850608043,
    2850608044,
    2850608046,
    21384188,
    2850608053,
    2850608058,
    2850608059,
    2850608062,
    21384189,
    1659758305,
    1659758351,
    1659758393,
    251929928,
    2850608068,
    2850608069,
    2850608071,
    21384190,
    1659758498,
    2850608082,
    1659758545,
    21384191,
    2850608087,
    21384192,
    2850608091,
    21384193,
    21384194,
    21384195,
    2850608076,
    1816986275,
    21384196,
    1903263246,
    2850608041,
    2850608040,
    2850608039,
    2191765153,
    2850608009,
    2191765151,
    2849503245,
    255511086,
    21384201,
    2849503236,
    2849503238,
    2849503235,
    2849503232,
    2849503229,
    2849503223,
    2849503221,
    2849503225,
    2849503222,
    2849503219,
    2849503216,
    338310522,
    2849503206,
    2849503204,
    257770688,
    338310529,
    2849503090,
    338310594,
    2850607755,
    2849503038,
    2849503026,
    2850607732,
    338310606,
    2849503008,
    338310613,
    2849502894,
    338310639,
    2849502882,
    338310662,
    338310691,
    2849502811,
    2849502803,
    2849502796,
    2850606897,
    251928978
  ],
  "tags": {
    "landuse": "cemetery",
    "name": "Riensberger Friedhof",
    "operator": "Umweltbetrieb Bremen",
    "operator:type": "public",
    "website": "https://www.umweltbetrieb-bremen.de/friedhoefe/unsere-staedtischen-friedhoefe/friedhof-riensberg-2575",
    "wikidata": "Q2152268",
    "wikipedia": "de:Riensberger Friedhof"
  }
},
{
  "type": "way",
  "id": 4804309,
  "center": {
    "lat": 53.0531880,
    "lon": 8.8311187
  },
  "nodes": [
    30831755,
    3391533417,
    3391533415,
    3391533411,
    3391533408,
    3391533403,
    3391533397,
    3391533389,
    3391533396,
    3391533398,
    3391533363,
    3391533345,
    2498348851,
    8399915009,
    8399915010,
    30831758,
    8399915011,
    7756175605,
    534665288,
    30831759,
    516348198,
    516348352,
    516348193,
    30831750,
    30831751,
    30831774,
    30831752,
    5524986035,
    415784887,
    5524986033,
    5524986034,
    516246992,
    2498349539,
    30831753,
    516246994,
    2498349329,
    1417171063,
    1417171089,
    516246997,
    30831755
  ],
  "tags": {
    "landuse": "cemetery",
    "name": "Friedhof Huckelriede",
    "operator": "Umweltbetrieb Bremen",
    "operator:type": "public",
    "website": "https://www.umweltbetrieb-bremen.de/friedhoefe/unsere_staedtischen_friedhoefe/friedhof___huckelriede-2566"
  }
},
{
  "type": "way",
  "id": 8040929,
  "center": {
    "lat": 53.9138093,
    "lon": 8.5001206
  },
  "nodes": [
    6797095532,
    6797095533,
    6797095534,
    6797095521,
    6797095522,
    6797095523,
    6797095524,
    6797095525,
    6797095526,
    6797095527,
    6797095528,
    6797095529,
    6797095530,
    6797095531,
    6797095532
  ],
  "tags": {
    "amenity": "grave_yard",
    "name": "Friedhof der Namenlosen",
    "website": "https://leuchtturmneuwerk.de/sehenswuerdigkeiten/die-insel-neuwerk/friedhof-der-namenlosen/",
    "wikidata": "Q21205543"
  }
},
{
  "type": "way",
  "id": 10372578,
  "center": {
    "lat": 53.1548912,
    "lon": 8.1970151
  },
  "nodes": [
    88210725,
    4943937490,
    4943937489,
    4943937488,
    2639434672,
    4943937486,
    10705195188,
    10705195190,
    10705195189,
    4943937485,
    10705195169,
    304583646,
    88210619,
    88210631,
    88210644,
    10705195159,
    1024766304,
    88210647,
    12972864987,
    4943937483,
    88210654,
    1024766319,
    2842163852,
    88210668,
    88210743,
    88210676,
    317765569,
    88210710,
    317765570,
    90510622,
    88210722,
    90510668,
    90510627,
    90510639,
    90510631,
    1024766292,
    90510657,
    12683942330,
    12683942329,
    1024766314,
    4943937492,
    4943937491,
    88210725
  ],
  "tags": {
    "denomination": "lutheran",
    "landuse": "cemetery",
    "name": "Neuer Friedhof",
    "religion": "christian",
    "website": "https://kirchengemeinde-oldenburg.de/der-neue-friedhof-2/"
  }
},
{
  "type": "way",
  "id": 20626437,
  "center": {
    "lat": 53.1597629,
    "lon": 8.2305361
  },
  "nodes": [
    221442906,
    296496600,
    114459323,
    3706227130,
    296496635,
    3706227129,
    111485553,
    2892412101,
    221412018,
    296496614,
    296496618,
    3706233840,
    3706233837,
    296503969,
    296503965,
    269036579,
    3857152051,
    3857152052,
    3857152053,
    3857152054,
    235246316,
    221410927,
    296503858,
    221411662,
    221412078,
    221411937,
    221411923,
    221412086,
    221411947,
    12698725271,
    221412102,
    296496642,
    221442920,
    221442906
  ],
  "tags": {
    "landuse": "cemetery",
    "name": "Friedhof Donnerschwee",
    "wheelchair": "yes"
  }
},
{
  "type": "way",
  "id": 21724479,
  "center": {
    "lat": 53.1350568,
    "lon": 8.1860415
  },
  "nodes": [
    10263486811,
    412948927,
    10263486812,
    412948926,
    412948902,
    412948912,
    10263429108,
    412948892,
    10264525436,
    10264525433,
    10264525421,
    10264525420,
    297411081,
    234150364,
    297410641,
    313517995,
    10263429093,
    10263429094,
    234150371,
    234150377,
    234150383,
    234150388,
    234150369,
    1240279888,
    10263486811
  ],
  "tags": {
    "denomination": "lutheran",
    "landuse": "cemetery",
    "name": "Friedhof Eversten",
    "religion": "christian",
    "website": "https://www.eversten.kirche-oldenburg.de/gesamtkirchengemeinde/friedhof",
    "wikidata": "Q61990989"
  }
},
{
  "type": "way",
  "id": 22661117,
  "center": {
    "lat": 53.1680168,
    "lon": 8.2453044
  },
  "nodes": [
    10051230643,
    10051230644,
    10051230645,
    243050636,
    10051230646,
    10051230647,
    10051230648,
    10051230649,
    10051230650,
    10051230643
  ],
  "tags": {
    "landuse": "cemetery",
    "name": "Friedhof Ohmstede"
  }
},
{
  "type": "way",
  "id": 23147491,
  "center": {
    "lat": 53.5403597,
    "lon": 8.0751238
  },
  "nodes": [
    250053333,
    250053405,
    12865538851,
    561467010,
    250053344,
    250053345,
    250053346,
    250053348,
    250053349,
    250053326,
    252904039,
    250053328,
    250053332,
    250053406,
    250053333
  ],
  "tags": {
    "landuse": "cemetery",
    "name": "Friedhof Aldenburg",
    "wikidata": "Q111030835"
  }
},
{
  "type": "way",
  "id": 23232377,
  "center": {
    "lat": 53.1700122,
    "lon": 8.6526292
  },
  "nodes": [
    11275764193,
    11275764185,
    11275764187,
    11275764192,
    11275764188,
    11275764191,
    11275764190,
    11275764194,
    11275764196,
    11275764186,
    11275764189,
    11275764193
  ],
  "tags": {
    "description": "Friedhof mit evangelischem und katholischen Teil",
    "landuse": "cemetery",
    "name": "Grohner Friedhof",
    "religion": "christian",
    "website": "https://www.kirche-bremen.de/gemeinden/61_grohn/61_grohn_friedhof.php"
  }
},
{
  "type": "way",
  "id": 23240487,
  "center": {
    "lat": 53.0371264,
    "lon": 8.7294107
  },
  "nodes": [
    3146607249,
    251456786,
    3146607221,
    251456787,
    251456780,
    3146606826,
    3039912700,
    3146606650,
    3146606688,
    3146606701,
    3039912703,
    7449578849,
    251456783,
    2277885474,
    251456784,
    2277885475,
    251456795,
    2277885482,
    3146607238,
    3146607240,
    3146607241,
    3146607246,
    3146607249
  ],
  "tags": {
    "landuse": "cemetery",
    "name": "Friedhof Huchting",
    "operator": "Umweltbetrieb Bremen",
    "operator:type": "public",
    "website": "https://www.umweltbetrieb-bremen.de/friedhoefe/unsere-staedtischen-friedhoefe/friedhof-huchting-2563",
    "wikidata": "Q112972246"
  }
},
{
  "type": "way",
  "id": 23316014,
  "center": {
    "lat": 53.0318151,
    "lon": 8.9479512
  },
  "nodes": [
    252435545,
    252435546,
    252435547,
    252435551,
    2549564878,
    252435552,
    252435554,
    252435555,
    252435556,
    252435558,
    252435559,
    252435560,
    252435561,
    252435563,
    252435545
  ],
  "tags": {
    "landuse": "cemetery",
    "name": "Friedhof Mahndorf",
    "operator": "Umweltbetrieb Bremen",
    "operator:type": "public",
    "website": "https://www.umweltbetrieb-bremen.de/friedhoefe/unsere-staedtischen-friedhoefe/friedhof-mahndorf-2569",
    "wikidata": "Q113026387"
  }
},
{
  "type": "way",
  "id": 23316097,
  "center": {
    "lat": 53.0457244,
    "lon": 8.8914041
  },
  "nodes": [
    3749780392,
    252437509,
    252437510,
    2946389555,
    2946389559,
    3749779024,
    252437514,
    3749780394,
    3749780395,
    3749780389,
    3749780390,
    252437515,
    3747744744,
    3759935221,
    3759935220,
    3759935219,
    3747744747,
    3759135714,
    3747744748,
    3749780392
  ],
  "tags": {
    "landuse": "cemetery",
    "name": "Friedhof Hemelingen",
    "operator": "Umweltbetrieb Bremen",
    "operator:type": "public",
    "website": "https://www.umweltbetrieb-bremen.de/friedhoefe/unsere_staedtischen_friedhoefe/friedhof___hemelingen-2560",
    "wikidata": "Q113006128"
  }
},
{
  "type": "way",
  "id": 23370833,
  "center": {
    "lat": 53.1195748,
    "lon": 8.7537885
  },
  "nodes": [
    253052643,
    253052644,
    2279810925,
    2279810924,
    2445268332,
    2578908979,
    253052645,
    253052646,
    2578908958,
    2279810896,
    253052647,
    2445268384,
    253052648,
    2445268383,
    253052649,
    253052643
  ],
  "tags": {
    "landuse": "cemetery",
    "name": "Friedhof Gröpelingen",
    "operator": "Umweltbetrieb Bremen",
    "operator:type": "public",
    "website": "https://www.umweltbetrieb-bremen.de/friedhoefe/unsere_staedtischen_friedhoefe/friedhof___groepelingen-2554",
    "wikidata": "Q113079211"
  }
},
{
  "type": "way",
  "id": 23418356,
  "center": {
    "lat": 53.1257306,
    "lon": 8.9051874
  },
  "nodes": [
    253602132,
    318654005,
    253602133,
    253602134,
    253602135,
    2674041569,
    1727618041,
    2674041590,
    1043167952,
    1727618051,
    253602138,
    1727618043,
    1376137399,
    253602139,
    253602132
  ],
  "tags": {
    "denomination": "protestant",
    "landuse": "cemetery",
    "name": "Borgfelder Friedhof",
    "religion": "christian",
    "website": "https://www.kirche-bremen.de/gemeinden/42_borgfeld/42_borgfeld_friedhof.php"
  }
},
{
  "type": "way",
  "id": 23443468,
  "center": {
    "lat": 53.1337699,
    "lon": 8.7379691
  },
  "nodes": [
    253887032,
    253887033,
    253887034,
    253887035,
    253887036,
    253887037,
    253887038,
    2523643182,
    1014217162,
    253887032
  ],
  "tags": {
    "denomination": "protestant",
    "landuse": "cemetery",
    "name": "Oslebshauser Friedhof",
    "religion": "christian",
    "website": "https://www.kirche-bremen.de/gemeinden/11_groepelingen_oslebshausen/11_groepelingen_oslebshausen_friedhof.php"
  }
},
{
  "type": "way",
  "id": 23773365,
  "center": {
    "lat": 53.5294239,
    "lon": 8.0874337
  },
  "nodes": [
    286662143,
    286662142,
    257577846,
    2901388610,
    2901388608,
    2901388615,
    257577847,
    2901388617,
    257577848,
    286662143
  ],
  "tags": {
    "landuse": "cemetery",
    "name": "Heilig Land"
  }
},
{
  "type": "way",
  "id": 23899516,
  "center": {
    "lat": 53.1950357,
    "lon": 8.5342552
  },
  "nodes": [
    259042766,
    259042767,
    3273690512,
    3273690520,
    259042769,
    259042770,
    259042771,
    3058217746,
    259042772,
    259042773,
    3058217728,
    259042774,
    3058217721,
    2895846226,
    259042775,
    259042766
  ],
  "tags": {
    "denomination": "reformed",
    "landuse": "cemetery",
    "name": "Friedhof Rönnebeck",
    "operator": "Ev.-ref. Gemeinde Rönnebeck-Farge",
    "religion": "christian",
    "source": "yahoo"
  }
},
{
  "type": "way",
  "id": 24586712,
  "center": {
    "lat": 53.1183208,
    "lon": 8.2168929
  },
  "nodes": [
    267281878,
    267281875,
    267281876,
    1337328969,
    267281877,
    1337329985,
    267281878
  ],
  "tags": {
    "denomination": "lutheran",
    "landuse": "cemetery",
    "name": "Neuer Osternburger Friedhof",
    "religion": "christian"
  }
},
{
  "type": "way",
  "id": 24620667,
  "center": {
    "lat": 53.1714921,
    "lon": 8.6914064
  },
  "nodes": [
    267638217,
    683353441,
    2445150293,
    267638218,
    294787258,
    267638219,
    292518005,
    292518011,
    267638220,
    267638221,
    3058217430,
    267638222,
    3058217431,
    3058217436,
    267638223,
    267638224,
    294725875,
    292518002,
    267638225,
    267638226,
    292517963,
    267638227,
    292517968,
    292518034,
    2445150307,
    267638217
  ],
  "tags": {
    "addr:city": "Bremen",
    "addr:country": "DE",
    "addr:housenumber": "2",
    "addr:postcode": "28717",
    "addr:street": "Bördestraße",
    "denomination": "lutheran",
    "landuse": "cemetery",
    "name": "Friedhof Lesum",
    "operator": "Ev. St. Martini-Gemeinde Lesum",
    "religion": "christian",
    "website": "https://www.kirche-bremen.de/gemeinden/64_st_martini_leesum/64_st_martini_lesum_friedhof.php"
  }
},
{
  "type": "way",
  "id": 24660448,
  "center": {
    "lat": 53.2253963,
    "lon": 8.7913889
  },
  "nodes": [
    1283677649,
    1283677891,
    1283677189,
    3755076700,
    3755076696,
    1287843818,
    1287843666,
    268036862,
    268036863,
    448615828,
    268036864,
    2607743985,
    2607743984,
    3799306683,
    1283677649
  ],
  "tags": {
    "his:1831-:landuse": "cemetery",
    "landuse": "cemetery",
    "operator": "St.-Willehadi-Gemeinde",
    "religion": "christian"
  }
},
{
  "type": "way",
  "id": 24660470,
  "center": {
    "lat": 53.2261338,
    "lon": 8.8061807
  },
  "nodes": [
    268037031,
    268037032,
    268037033,
    268037034,
    268037035,
    268037031
  ],
  "tags": {
    "his:1768-:landuse": "cemetery",
    "landuse": "cemetery",
    "operator": "Kirchengemeinde St. Marien",
    "religion": "christian"
  }
},
{
  "type": "way",
  "id": 24667960,
  "center": {
    "lat": 53.2540824,
    "lon": 8.8203202
  },
  "nodes": [
    268120881,
    268120882,
    441567102,
    268120878,
    8933516835,
    8933516832,
    8933516824,
    3103289377,
    268120881
  ],
  "tags": {
    "his:1966-:landuse": "cemetery",
    "landuse": "cemetery",
    "operator": "Stadt Osterholz-Scharmbeck"
  }
},
{
  "type": "way",
  "id": 24705380,
  "center": {
    "lat": 53.1816117,
    "lon": 8.7496323
  },
  "nodes": [
    268523128,
    272236061,
    268523117,
    268523116,
    3474255578,
    268523115,
    268523114,
    268523128
  ],
  "tags": {
    "landuse": "cemetery",
    "name": "Neuer Friedhof",
    "religion": "christian"
  }
},
{
  "type": "way",
  "id": 24705450,
  "center": {
    "lat": 53.1811376,
    "lon": 8.7512869
  },
  "nodes": [
    268523971,
    268523972,
    268523909,
    1374540053,
    268523910,
    3474255576,
    3474255582,
    268523973,
    3474255590,
    3474255589,
    3474255587,
    268523971
  ],
  "tags": {
    "landuse": "cemetery",
    "name": "Alter Friedhof",
    "religion": "christian"
  }
},
{
  "type": "way",
  "id": 24709774,
  "center": {
    "lat": 53.2077748,
    "lon": 8.7251512
  },
  "nodes": [
    7449896602,
    7449896629,
    7449896606,
    3638076208,
    7449906140,
    268568471,
    268568470,
    3638076161,
    3638076162,
    3638076173,
    848410640,
    7455430340,
    7449896602
  ],
  "tags": {
    "landuse": "cemetery",
    "religion": "christian"
  }
},
{
  "type": "way",
  "id": 24741864,
  "center": {
    "lat": 53.3296146,
    "lon": 8.4723682
  },
  "nodes": [
    268891582,
    268891583,
    268891584,
    268891585,
    268891586,
    2349270119,
    268891587,
    268891588,
    268891589,
    268891590,
    268891591,
    268891592,
    268891593,
    268891594,
    268891595,
    268891596,
    268891597,
    268891598,
    268891599,
    268891582
  ],
  "tags": {
    "landuse": "cemetery",
    "name": "Friedhof-Mitte"
  }
},
{
  "type": "way",
  "id": 24741877,
  "center": {
    "lat": 53.3051432,
    "lon": 8.4861321
  },
  "nodes": [
    268891635,
    3616244874,
    3616244877,
    268891636,
    268891637,
    3616244888,
    3616244890,
    3616244892,
    268891638,
    3616248995,
    268891639,
    3616248994,
    3616248993,
    3616244891,
    268891640,
    3616244886,
    3616244883,
    268891641,
    268891642,
    3616244848,
    268891643,
    3616244835,
    268891644,
    2352192681,
    268891645,
    268628015,
    2352094556,
    268891646,
    268891647,
    268891648,
    268891635
  ],
  "tags": {
    "landuse": "cemetery",
    "religion": "christian"
  }
},
{
  "type": "way",
  "id": 24820242,
  "center": {
    "lat": 53.2208032,
    "lon": 8.7940912
  },
  "nodes": [
    3799306521,
    269648672,
    3799306518,
    3799306512,
    3799306513,
    3799306521
  ],
  "tags": {
    "landuse": "cemetery",
    "religion": "jewish"
  }
},
{
  "type": "way",
  "id": 24824018,
  "center": {
    "lat": 53.0961028,
    "lon": 8.5353605
  },
  "nodes": [
    269688415,
    2288311725,
    10254680133,
    269688416,
    269688417,
    269688418,
    2955733305,
    269688419,
    10254766143,
    269688421,
    2280954361,
    3121896620,
    3121896621,
    3121896617,
    269688415
  ],
  "tags": {
    "landuse": "cemetery"
  }
},
{
  "type": "way",
  "id": 24849518,
  "center": {
    "lat": 53.1061855,
    "lon": 8.7703608
  },
  "nodes": [
    2393469507,
    251609324,
    251609325,
    9642790059,
    2115097770,
    251609326,
    2115097774,
    251609327,
    251609408,
    2724457693,
    2724457658,
    251609328,
    5130574958,
    2724457580,
    5130574950,
    251609329,
    251609401,
    2724457454,
    251609411,
    2724457382,
    9434060601,
    2724457330,
    251609412,
    251609330,
    2005090081,
    2005090080,
    2005090074,
    251609402,
    2279809771,
    251609403,
    2279809794,
    251609331,
    2279809841,
    251609332,
    2279809883,
    251609333,
    251609334,
    255433165,
    3181584233,
    9633813692,
    9633813693,
    1569967003,
    1569967007,
    5353184822,
    1569967019,
    2724458073,
    1569967036,
    2724458099,
    1569967025,
    2724458224,
    2724458222,
    1569967042,
    2578908536,
    3729391218,
    251609321,
    251609323,
    2393469519,
    9642786264,
    2393469521,
    3739792292,
    3739792293,
    2393469511,
    2393469508,
    2393469507
  ],
  "tags": {
    "addr:city": "Bremen",
    "addr:country": "DE",
    "addr:housenumber": "32",
    "addr:postcode": "28219",
    "addr:street": "Im Freien Meer",
    "barrier": "wall",
    "contact:phone": "+49 421 3618513",
    "contact:website": "https://www.umweltbetrieb-bremen.de/friedhoefe/unsere-staedtischen-friedhoefe/friedhof-walle-2578",
    "landuse": "cemetery",
    "name": "Waller Friedhof",
    "operator": "Umweltbetrieb Bremen",
    "operator:type": "public",
    "start_date": "1875",
    "toilets": "yes",
    "wikidata": "Q2542714",
    "wikipedia": "de:Waller Friedhof"
  }
},
{
  "type": "way",
  "id": 24871891,
  "center": {
    "lat": 53.1302245,
    "lon": 8.2226676
  },
  "nodes": [
    2306520712,
    2306520710,
    1944973322,
    249179739,
    249179750,
    1944973317,
    249179762,
    315510642,
    318018004,
    296229272,
    12437658340,
    2306520714,
    2306520719,
    246524882,
    2306520716,
    2306520712
  ],
  "tags": {
    "landuse": "cemetery",
    "name": "Alter Osternburger Friedhof"
  }
},
{
  "type": "way",
  "id": 24876687,
  "center": {
    "lat": 53.2847697,
    "lon": 8.7055877
  },
  "nodes": [
    9499079638,
    9499079637,
    270321226,
    270321227,
    9499079638
  ],
  "tags": {
    "his:1936-:landuse": "cemetery",
    "his:1936-:name": "Friedhof Garlstedt",
    "landuse": "cemetery",
    "name": "Friedhof Garlstedt",
    "operator": "Stadt Osterholz-Scharmbeck"
  }
},
{
  "type": "way",
  "id": 24879995,
  "center": {
    "lat": 53.3072800,
    "lon": 8.8254978
  },
  "nodes": [
    270355090,
    270355091,
    3211196072,
    270355092,
    3211194772,
    270355093,
    270355090
  ],
  "tags": {
    "barrier": "hedge",
    "landuse": "cemetery",
    "name": "Friedhof",
    "religion": "christian"
  }
},
{
  "type": "way",
  "id": 24896572,
  "center": {
    "lat": 53.3098737,
    "lon": 8.7624457
  },
  "nodes": [
    270504703,
    270504704,
    12145911899,
    3105368954,
    12145911900,
    270504705,
    270504706,
    270504707,
    270504708,
    270504709,
    270504710,
    270504703
  ],
  "tags": {
    "landuse": "cemetery",
    "name": "Friedhof Ohlenstedt",
    "operator": "Stadt Osterholz-Scharmbeck"
  }
},
{
  "type": "way",
  "id": 25075559,
  "center": {
    "lat": 53.3174092,
    "lon": 8.8850012
  },
  "nodes": [
    272859904,
    272859905,
    272859906,
    272859907,
    272859904
  ],
  "tags": {
    "landuse": "cemetery",
    "religion": "christian"
  }
},
{
  "type": "way",
  "id": 25108809,
  "center": {
    "lat": 53.5410758,
    "lon": 8.1173744
  },
  "nodes": [
    273339917,
    273476887,
    8907207755,
    273339919,
    273339920,
    273339923,
    291697883,
    273339925,
    273339927,
    3112652651,
    273339929,
    3112652635,
    273339933,
    291697881,
    273339934,
    273339943,
    273339944,
    12282722595,
    12282722596,
    12282722597,
    273410972,
    3300864119,
    273339948,
    273339950,
    273339961,
    273339963,
    273339964,
    273339966,
    3706732740,
    273339968,
    273339969,
    273339971,
    273339973,
    273339975,
    273339976,
    273340026,
    273339978,
    273339917
  ],
  "tags": {
    "landuse": "cemetery",
    "name": "Friedhof Friedenstraße",
    "wikidata": "Q111030855"
  }
},
{
  "type": "way",
  "id": 25108811,
  "center": {
    "lat": 53.5283092,
    "lon": 8.1357169
  },
  "nodes": [
    273340031,
    273340033,
    10116381771,
    10116381772,
    10116381773,
    10116381774,
    273340035,
    10116381789,
    10116381792,
    10116381791,
    10116381766,
    358503506,
    358503503,
    1334541037,
    12469506851,
    358503500,
    12469506849,
    358503498,
    12469506850,
    358503513,
    358503510,
    358503508,
    10116381793,
    10116381790,
    1334539628,
    273340036,
    273340038,
    273340040,
    273340031
  ],
  "tags": {
    "landuse": "cemetery",
    "name": "Heppenser Friedhof"
  }
},
{
  "type": "way",
  "id": 25108812,
  "center": {
    "lat": 53.5297781,
    "lon": 8.1379323
  },
  "nodes": [
    273340042,
    273340043,
    273340045,
    273340047,
    273340042
  ],
  "tags": {
    "landuse": "cemetery",
    "name": "Friedhof Heppens"
  }
},
{
  "type": "way",
  "id": 25108815,
  "center": {
    "lat": 53.5317343,
    "lon": 8.0902933
  },
  "nodes": [
    273340078,
    273340081,
    273340082,
    1941988092,
    273340084,
    1941988091,
    305606608,
    273340086,
    280131364,
    273340088,
    273340089,
    273340078
  ],
  "tags": {
    "landuse": "cemetery",
    "name": "Neuender Kirchhof"
  }
},
{
  "type": "way",
  "id": 25136963,
  "center": {
    "lat": 53.5464417,
    "lon": 8.1023977
  },
  "nodes": [
    273905334,
    273905337,
    273905342,
    273905379,
    273905385,
    273905388,
    4329228609,
    273905400,
    273905425,
    273905431,
    273905433,
    273905438,
    273905442,
    273905447,
    273905451,
    273905479,
    273905484,
    273905489,
    273905498,
    273905502,
    2954369722,
    273905334
  ],
  "tags": {
    "heritage": "4",
    "heritage:operator": "nld",
    "landuse": "cemetery",
    "name": "Ehren-Friedhof",
    "wikidata": "Q1300082",
    "wikipedia": "de:Ehrenfriedhof (Wilhelmshaven)"
  }
},
{
  "type": "way",
  "id": 25423218,
  "center": {
    "lat": 53.2847433,
    "lon": 8.1639760
  },
  "nodes": [
    277073687,
    277073688,
    277073689,
    277073690,
    2802205728,
    277073693,
    1512052870,
    277073698,
    277073702,
    277073687
  ],
  "tags": {
    "denomination": "lutheran",
    "landuse": "cemetery",
    "name": "Friedhof in Hahn-Lehmden",
    "religion": "christian"
  }
},
{
  "type": "way",
  "id": 25454666,
  "center": {
    "lat": 53.2458936,
    "lon": 8.2004124
  },
  "nodes": [
    277391452,
    277391453,
    1134125320,
    958071251,
    1114666132,
    3563436503,
    277391455,
    277391457,
    277391458,
    277391452
  ],
  "tags": {
    "landuse": "cemetery",
    "name": "St.-Ulrichs-Friedhof",
    "wikidata": "Q69904060"
  }
},
{
  "type": "way",
  "id": 25460229,
  "center": {
    "lat": 53.1496170,
    "lon": 8.2147125
  },
  "nodes": [
    277442823,
    2144983082,
    4098363212,
    2144983083,
    2144983080,
    2143523883,
    246849162,
    277442824,
    246849305,
    277442825,
    277442826,
    277442829,
    277442830,
    277442827,
    277442831,
    277442823
  ],
  "tags": {
    "barrier": "wall",
    "denomination": "lutheran",
    "landuse": "cemetery",
    "name": "Gertrudenfriedhof",
    "opening_hours": "Mo-Su 06:00-20:00",
    "religion": "christian",
    "website": "https://kirchengemeinde-oldenburg.de/der-st-gertrudenkirchhof-2/",
    "wikidata": "Q1500121",
    "wikipedia": "de:Gertrudenfriedhof (Oldenburg)"
  }
},
{
  "type": "way",
  "id": 25534952,
  "center": {
    "lat": 53.2198239,
    "lon": 8.9233269
  },
  "nodes": [
    278296092,
    3009534870,
    285181862,
    294003221,
    4125781746,
    294003220,
    278296093,
    3009534880,
    278296094,
    3009534876,
    3009534871,
    3009534869,
    3009534867,
    3009534868,
    278296095,
    294001457,
    278296096,
    278296097,
    278296098,
    278296099,
    278296092
  ],
  "tags": {
    "landuse": "cemetery",
    "noname": "yes",
    "religion": "christian"
  }
},
{
  "type": "way",
  "id": 25621570,
  "center": {
    "lat": 53.0360109,
    "lon": 8.5482989
  },
  "nodes": [
    279244121,
    279244177,
    279244178,
    279244179,
    2292263586,
    1672702616,
    279244038,
    2292263604,
    2292263609,
    279244122,
    2292263690,
    387804507,
    387804508,
    32626604,
    279244180,
    2146933862,
    2292263570,
    2292263530,
    279244121
  ],
  "tags": {
    "landuse": "cemetery",
    "name": "Friedhof Ganderkesee",
    "religion": "christian"
  }
},
{
  "type": "way",
  "id": 25649624,
  "center": {
    "lat": 53.5626917,
    "lon": 8.0405716
  },
  "nodes": [
    279601681,
    279601682,
    279601683,
    279601684,
    279601681
  ],
  "tags": {
    "landuse": "cemetery"
  }
},
{
  "type": "way",
  "id": 25749632,
  "center": {
    "lat": 53.1734103,
    "lon": 8.6293002
  },
  "nodes": [
    1409419601,
    3371124658,
    3371124641,
    3371124620,
    280814048,
    3371124598,
    3371124600,
    3371124604,
    3371124599,
    1409419688,
    1409419588,
    1409419637,
    1409419667,
    1409419627,
    3271383402,
    3050611856,
    3377346427,
    3377346399,
    3377346426,
    3377346400,
    1409419601
  ],
  "tags": {
    "denomination": "lutheran",
    "landuse": "cemetery",
    "name": "Friedhof Alt-Aumund",
    "operator": "Ev. Kirchengemeinde Alt-Aumund",
    "religion": "christian",
    "website": "https://www.kirche-bremen.de/gemeinden/70_aumund_lutherisch/70_aumund_lutherisch_friedhof.php"
  }
},
{
  "type": "way",
  "id": 25752139,
  "center": {
    "lat": 53.2349680,
    "lon": 8.5968410
  },
  "nodes": [
    280849753,
    2295108476,
    3724931835,
    3724931829,
    3724931828,
    3724931833,
    280849754,
    3614971697,
    280849755,
    2295108528,
    2295108588,
    2295108625,
    280849756,
    280849757,
    2295108557,
    2295108526,
    2295108531,
    2295108541,
    2295108535,
    280849759,
    280849753
  ],
  "tags": {
    "landuse": "cemetery",
    "religion": "christian"
  }
},
{
  "type": "way",
  "id": 25763690,
  "center": {
    "lat": 53.1790325,
    "lon": 8.5969287
  },
  "nodes": [
    280981443,
    280981444,
    1301126301,
    1301126318,
    280981445,
    2713273621,
    280981443
  ],
  "tags": {
    "denomination": "protestant",
    "landuse": "cemetery",
    "name": "Vegesacker Friedhof",
    "operator": "ev. Kirchengemeinde Vegesack",
    "religion": "christian",
    "website": "https://www.vegesacker-Friedhof.de",
    "wikidata": "Q52161678"
  }
},
{
  "type": "way",
  "id": 25783723,
  "center": {
    "lat": 53.2347639,
    "lon": 8.5143877
  },
  "nodes": [
    281224380,
    281224381,
    281224382,
    2295108477,
    281224383,
    2295108497,
    281224384,
    281224385,
    281224386,
    2295108510,
    281224387,
    2295108487,
    281224380
  ],
  "tags": {
    "landuse": "cemetery",
    "religion": "christian"
  }
},
{
  "type": "way",
  "id": 25830006,
  "center": {
    "lat": 53.0570441,
    "lon": 8.6205360
  },
  "nodes": [
    281740082,
    281741186,
    292832189,
    281741184,
    281737701,
    2718203087,
    281740082
  ],
  "tags": {
    "denomination": "catholic",
    "landuse": "cemetery",
    "religion": "christian",
    "website": "http://www.friedhoefe-delmenhorst.de/seiten/friedhoefe/schanzenstrasse.php"
  }
},
{
  "type": "way",
  "id": 25945372,
  "center": {
    "lat": 53.0737618,
    "lon": 8.6358573
  },
  "nodes": [
    283033824,
    283033825,
    283033826,
    2292267740,
    2292267742,
    2292267736,
    283033827,
    283033828,
    283033829,
    283033830,
    12105182895,
    12105182893,
    12105182892,
    12105182894,
    283033831,
    283033832,
    283033833,
    2292267774,
    283033824
  ],
  "tags": {
    "landuse": "cemetery",
    "name": "Städtischer Friedhof Bungerhof",
    "wikidata": "Q114137405"
  }
},
{
  "type": "way",
  "id": 25945754,
  "center": {
    "lat": 53.0475266,
    "lon": 8.5961438
  },
  "nodes": [
    283038070,
    1229814838,
    283038057,
    1229814805,
    1229814783,
    283038275,
    1229814809,
    1229814758,
    1229814778,
    1229814779,
    1229814817,
    1229814814,
    1229814785,
    283038059,
    2292264280,
    2292264290,
    2292264301,
    283038060,
    2292264321,
    283038072,
    2292264338,
    283038073,
    2292264315,
    2292264332,
    283038063,
    283038074,
    2292264347,
    283038065,
    1156510697,
    2292264330,
    283038066,
    283038050,
    1229814787,
    1229814780,
    283038070
  ],
  "tags": {
    "denomination": "protestant",
    "landuse": "cemetery",
    "name": "Neuer evangelischer Friedhof",
    "religion": "christian"
  }
},
{
  "type": "way",
  "id": 25945876,
  "center": {
    "lat": 53.0483106,
    "lon": 8.5915130
  },
  "nodes": [
    283039225,
    2292264322,
    2292264310,
    283039018,
    283039226,
    283039020,
    2292264297,
    283039229,
    2967470884,
    283039022,
    283039225
  ],
  "tags": {
    "denomination": "catholic",
    "landuse": "cemetery",
    "name": "Neuer katholischer Friedhof",
    "religion": "christian"
  }
},
{
  "type": "way",
  "id": 25956098,
  "center": {
    "lat": 53.0782387,
    "lon": 8.6710506
  },
  "nodes": [
    283164901,
    283164902,
    283164903,
    2533503736,
    283164904,
    283164905,
    283164906,
    1240390029,
    283164907,
    283164901
  ],
  "tags": {
    "landuse": "cemetery"
  }
},
{
  "type": "way",
  "id": 26009058,
  "center": {
    "lat": 53.1782386,
    "lon": 8.9867900
  },
  "nodes": [
    283810876,
    283810878,
    283810880,
    1123933022,
    1356830031,
    1123933023,
    1570043480,
    1123933028,
    1356830032,
    283810882,
    283810884,
    5311888041,
    283810887,
    283810876
  ],
  "tags": {
    "denomination": "lutheran",
    "landuse": "cemetery",
    "religion": "christian"
  }
},
{
  "type": "way",
  "id": 26013777,
  "center": {
    "lat": 53.1471758,
    "lon": 8.9136224
  },
  "nodes": [
    283848261,
    283849612,
    804266160,
    283848263,
    283849589,
    283848264,
    283848261
  ],
  "tags": {
    "landuse": "cemetery",
    "name": "Friedhof Falkenberger Landstraße",
    "operator": "Ev.-luth. Kirchengemeinde St. Marien",
    "religion": "christian"
  }
},
{
  "type": "way",
  "id": 26556425,
  "center": {
    "lat": 53.2572244,
    "lon": 8.1140698
  },
  "nodes": [
    291094118,
    291094119,
    2272511079,
    2272511077,
    291094120,
    291094121,
    291094122,
    291094123,
    291094124,
    291094125,
    291094126,
    2272511066,
    2272511069,
    291094127,
    291094128,
    291094129,
    291094104,
    291094131,
    2272511082,
    291094118
  ],
  "tags": {
    "denomination": "lutheran",
    "landuse": "cemetery",
    "name": "Friedhof Wiefelstede",
    "religion": "christian"
  }
},
{
  "type": "way",
  "id": 26557451,
  "center": {
    "lat": 53.0653509,
    "lon": 8.1902983
  },
  "nodes": [
    291110178,
    11414407622,
    1611123781,
    5119866326,
    9954451863,
    291110184,
    11425110995,
    291110186,
    1611123780,
    1611123779,
    291110189,
    11425111000,
    11425111001,
    1611123778,
    291110195,
    11425110997,
    291110198,
    9954451862,
    291110200,
    291110178
  ],
  "tags": {
    "amenity": "grave_yard"
  }
},
{
  "type": "way",
  "id": 26663008,
  "center": {
    "lat": 53.3613841,
    "lon": 8.6402155
  },
  "nodes": [
    292445327,
    292445394,
    292443915,
    11352595168,
    292445327
  ],
  "tags": {
    "landuse": "cemetery"
  }
},
{
  "type": "way",
  "id": 26798212,
  "center": {
    "lat": 53.3338108,
    "lon": 8.7064644
  },
  "nodes": [
    293978133,
    2206368669,
    293977354,
    2206368694,
    293978133
  ],
  "tags": {
    "landuse": "cemetery",
    "religion": "christian"
  }
},
{
  "type": "way",
  "id": 26838788,
  "center": {
    "lat": 53.1565645,
    "lon": 8.8983953
  },
  "nodes": [
    294746242,
    294744531,
    294746243,
    8908356855,
    8908356854,
    8908356858,
    294744533,
    8908356859,
    2993259777,
    8908356860,
    2993259779,
    8908356865,
    2993259784,
    8908345233,
    294746242
  ],
  "tags": {
    "landuse": "cemetery",
    "name": "Friedhof Klosterweide",
    "religion": "christian"
  }
},
{
  "type": "way",
  "id": 26841984,
  "center": {
    "lat": 53.3937653,
    "lon": 8.7714059
  },
  "nodes": [
    2156171393,
    3687350610,
    2156171398,
    3687350611,
    294830663,
    294830656,
    2156171387,
    294830658,
    3687350616,
    2156171393
  ],
  "tags": {
    "landuse": "cemetery",
    "name": "Friedhof Bokel",
    "religion": "christian"
  }
},
{
  "type": "way",
  "id": 26952555,
  "center": {
    "lat": 53.1939366,
    "lon": 8.5797745
  },
  "nodes": [
    289319835,
    295335518,
    295335519,
    295335520,
    7731434774,
    289319835
  ],
  "tags": {
    "contact:email": "friedhoefe.blumenthal@kirche-bremen.de",
    "contact:phone": "+49 421 517027-22",
    "contact:website": "https://www.kirche-bremen.de/ev-kirchengemeinde-bremen-blumenthal/friedhof-godenweg/",
    "denomination": "lutheran",
    "landuse": "cemetery",
    "name": "Friedhof Godenweg",
    "operator": "Ev.-luth. Kirchengemeinde Blumenthal",
    "religion": "christian"
  }
},
{
  "type": "way",
  "id": 27056420,
  "center": {
    "lat": 53.1664726,
    "lon": 8.6024488
  },
  "nodes": [
    296870649,
    280807870,
    296870652,
    282473328,
    296870649
  ],
  "tags": {
    "landuse": "cemetery",
    "religion": "christian"
  }
},
{
  "type": "way",
  "id": 27062858,
  "center": {
    "lat": 53.0318671,
    "lon": 8.8525485
  },
  "nodes": [
    296928667,
    296928644,
    7426551008,
    296928544,
    1749706964,
    7426551018,
    1749706971,
    1749706972,
    296928545,
    296928546,
    1704185041,
    296928547,
    296928548,
    296928646,
    296928668,
    3393338940,
    296928650,
    7359888127,
    1363392896,
    296928667
  ],
  "tags": {
    "denomination": "protestant",
    "landuse": "cemetery",
    "name": "Arster Friedhof",
    "religion": "christian",
    "website": "https://www.kirche-bremen.de/gemeinden/40_st_johannes_arsten/40_st_johannes_arsten_friedhof.php",
    "wikidata": "Q120599274"
  }
},
{
  "type": "way",
  "id": 27159817,
  "center": {
    "lat": 53.1708201,
    "lon": 8.1459054
  },
  "nodes": [
    297987106,
    297987101,
    297987097,
    297987130,
    297987133,
    297987144,
    1245304975,
    1245305057,
    297987150,
    1245305068,
    1245305049,
    297987154,
    1245304974,
    1245304972,
    297987106
  ],
  "tags": {
    "denomination": "protestant",
    "landuse": "cemetery",
    "name": "Friedhof Ofen (ev.-luth.)",
    "source": "Bing"
  }
},
{
  "type": "way",
  "id": 27183903,
  "center": {
    "lat": 53.2720930,
    "lon": 8.5945596
  },
  "nodes": [
    298276132,
    2935450858,
    2935450859,
    2935450857,
    2935450856,
    298276133,
    298276134,
    298276135,
    2935450851,
    2935450852,
    2935450853,
    2935450854,
    2935450850,
    2935450855,
    6268265088,
    298276136,
    298276132
  ],
  "tags": {
    "landuse": "cemetery",
    "name": "Friedhof",
    "religion": "christian"
  }
},
{
  "type": "way",
  "id": 27191329,
  "center": {
    "lat": 53.3275412,
    "lon": 8.5316889
  },
  "nodes": [
    3140574235,
    298375965,
    298376093,
    3140574242,
    3140574239,
    3140574235
  ],
  "tags": {
    "landuse": "cemetery",
    "religion": "christian"
  }
},
{
  "type": "way",
  "id": 27225146,
  "center": {
    "lat": 53.3518761,
    "lon": 8.4649771
  },
  "nodes": [
    298786718,
    298786719,
    298786722,
    298786723,
    298786718
  ],
  "tags": {
    "landuse": "cemetery",
    "name": "Friedhof Golzwarden",
    "religion": "christian"
  }
},
{
  "type": "way",
  "id": 27252032,
  "center": {
    "lat": 53.2543903,
    "lon": 8.5684928
  },
  "nodes": [
    9362620939,
    9362620938,
    299100830,
    299101247,
    466107111,
    466107127,
    9362620939
  ],
  "tags": {
    "landuse": "cemetery",
    "name": "Friedhof",
    "religion": "christian"
  }
},
{
  "type": "way",
  "id": 27311579,
  "center": {
    "lat": 53.2439227,
    "lon": 8.5962358
  },
  "nodes": [
    299799043,
    299798536,
    299798680,
    299798817,
    299798538,
    299799003,
    299798681,
    299798541,
    299799043
  ],
  "tags": {
    "landuse": "cemetery",
    "name": "Friedhof am Spreeken",
    "operator": "ev.-luth. Kirchengemeinde",
    "religion": "christian"
  }
},
{
  "type": "way",
  "id": 27367295,
  "center": {
    "lat": 53.1830044,
    "lon": 8.5837724
  },
  "nodes": [
    3271384188,
    2528592398,
    2528592438,
    300437442,
    2528592490,
    2528592492,
    2528592517,
    300437443,
    2528592528,
    2528592519,
    2528592522,
    300437444,
    2528592550,
    2528592557,
    2528592576,
    300437445,
    2528592577,
    2528592579,
    300437446,
    300437447,
    300437448,
    300437438,
    2528592415,
    300437439,
    2528592412,
    3271384209,
    300437440,
    3271384206,
    3271384218,
    3271384207,
    3271384208,
    3271384200,
    3271384203,
    3271384195,
    3271384188
  ],
  "tags": {
    "denomination": "reformed",
    "landuse": "cemetery",
    "name": "Friedhof Blumenthal",
    "operator": "Ev.-ref. Gemeinde Blumenthal",
    "religion": "christian",
    "website": "https://refo-blumenthal.de/wir-ueber-uns/friedhof/"
  }
},
{
  "type": "way",
  "id": 27436080,
  "center": {
    "lat": 53.0647734,
    "lon": 8.8673083
  },
  "nodes": [
    301229588,
    301229590,
    301229594,
    301229595,
    3273656191,
    301229598,
    301229601,
    301229602,
    301229603,
    2024741005,
    2024741015,
    301229604,
    301229605,
    301229588
  ],
  "tags": {
    "landuse": "cemetery",
    "name": "Friedhof Hastedt",
    "operator": "Umweltbetrieb Bremen",
    "operator:type": "public",
    "website": "https://www.umweltbetrieb-bremen.de/friedhoefe/unsere-staedtischen-friedhoefe/friedhof-hastedt-2557",
    "wikidata": "Q113004539"
  }
},
{
  "type": "way",
  "id": 27469339,
  "center": {
    "lat": 53.8011772,
    "lon": 8.7598145
  },
  "nodes": [
    301615007,
    301615008,
    301615009,
    1109557067,
    1109557245,
    1107682619,
    301615007
  ],
  "tags": {
    "denomination": "lutheran",
    "landuse": "cemetery",
    "name": "Friedhof Lüdingworth",
    "religion": "christian"
  }
},
{
  "type": "way",
  "id": 27515806,
  "center": {
    "lat": 53.0921622,
    "lon": 8.9393064
  },
  "nodes": [
    302072100,
    2414399102,
    2414399100,
    1828060161,
    302072101,
    302072102,
    693312694,
    1732039284,
    2192522693,
    2414391136,
    2192522697,
    2192522703,
    2192522705,
    4629395062,
    2192522707,
    4629395054,
    4629395061,
    1732039294,
    2414391139,
    302074776,
    302072104,
    302072105,
    302072106,
    10763682924,
    302072107,
    302072108,
    302072111,
    1828060181,
    2414399104,
    2414399103,
    302072100
  ],
  "tags": {
    "denomination": "protestant",
    "landuse": "cemetery",
    "name": "Friedhof Oberneuland",
    "religion": "christian",
    "website": "https://www.kirche-bremen.de/gemeinden/49_oberneuland/49_oberneuland_friedhof.php"
  }
},
{
  "type": "way",
  "id": 27645931,
  "center": {
    "lat": 53.1275787,
    "lon": 8.6233785
  },
  "nodes": [
    303627670,
    303627671,
    2141092699,
    2141092698,
    2141092697,
    2141092696,
    303627672,
    303627673,
    303627674,
    303627670
  ],
  "tags": {
    "landuse": "cemetery",
    "religion": "christian"
  }
},
{
  "type": "way",
  "id": 28247835,
  "center": {
    "lat": 53.4080758,
    "lon": 8.7883567
  },
  "nodes": [
    2685677126,
    2685677113,
    2685677091,
    310237516,
    1272621647,
    1272621646,
    310237517,
    310237518,
    2685677126
  ],
  "tags": {
    "barrier": "hedge",
    "landuse": "cemetery",
    "religion": "christian"
  }
},
{
  "type": "way",
  "id": 28249834,
  "center": {
    "lat": 53.4289931,
    "lon": 8.8211196
  },
  "nodes": [
    310255771,
    310256392,
    310255772,
    310255774,
    310255776,
    310255777,
    310255779,
    310255782,
    310255784,
    310255787,
    310255790,
    310255771
  ],
  "tags": {
    "landuse": "cemetery",
    "religion": "christian"
  }
},
{
  "type": "way",
  "id": 28267934,
  "center": {
    "lat": 53.5711178,
    "lon": 8.6259225
  },
  "nodes": [
    8710817328,
    8710796592,
    11645601738,
    8710796591,
    304114103,
    1894331897,
    2116900695,
    12490273456,
    8710817328
  ],
  "tags": {
    "denomination": "protestant",
    "landuse": "cemetery",
    "name": "Friedhof Spaden",
    "religion": "multifaith"
  }
},
{
  "type": "way",
  "id": 28290269,
  "center": {
    "lat": 53.5334717,
    "lon": 8.5300760
  },
  "nodes": [
    310663605,
    310663608,
    310663609,
    310663611,
    310663605
  ],
  "tags": {
    "barrier": "wall",
    "landuse": "cemetery",
    "name": "Friedhof II",
    "operator": "Ev. Kirchengemeinde",
    "religion": "christian"
  }
},
{
  "type": "way",
  "id": 28290550,
  "center": {
    "lat": 53.5320394,
    "lon": 8.5372325
  },
  "nodes": [
    310666482,
    1794980590,
    310666483,
    310666484,
    310666485,
    310666487,
    310666488,
    310666482
  ],
  "tags": {
    "landuse": "cemetery",
    "operator": "Ev. Kirchengemeinde Blexen",
    "religion": "christian"
  }
},
{
  "type": "way",
  "id": 28654405,
  "center": {
    "lat": 53.3694240,
    "lon": 8.6909485
  },
  "nodes": [
    314918024,
    314918025,
    314918026,
    314918027,
    314918024
  ],
  "tags": {
    "landuse": "cemetery",
    "name": "Friedhof Bramstedt",
    "religion": "christian"
  }
},
{
  "type": "way",
  "id": 28928037,
  "center": {
    "lat": 53.5025481,
    "lon": 8.5968422
  },
  "nodes": [
    318002113,
    4041277408,
    4041277410,
    318002114,
    318002115,
    318009253,
    9217027351,
    318002116,
    318002117,
    318002118,
    3682581634,
    3682581635,
    318002113
  ],
  "tags": {
    "denomination": "lutheran",
    "landuse": "cemetery",
    "name": "Friedhof Alt-Wulsdorf",
    "operator": "ev.-lutherische Kirchengemeinden",
    "religion": "christian",
    "website": "https://friedhofsverband-gws.de/friedhof-alt-wulsdorf/"
  }
},
{
  "type": "way",
  "id": 29006150,
  "center": {
    "lat": 53.3387788,
    "lon": 8.8068310
  },
  "nodes": [
    318990551,
    2420667200,
    2419955321,
    2420501938,
    318990551
  ],
  "tags": {
    "landuse": "cemetery",
    "religion": "christian"
  }
},
{
  "type": "way",
  "id": 29243395,
  "center": {
    "lat": 53.2332720,
    "lon": 8.6281161
  },
  "nodes": [
    321627773,
    3617536537,
    321627776,
    321627777,
    321627778,
    321627779,
    321627780,
    321627773
  ],
  "tags": {
    "landuse": "cemetery",
    "name": "Eggestedter Friedhof",
    "religion": "christian"
  }
},
{
  "type": "way",
  "id": 29973743,
  "center": {
    "lat": 53.0933235,
    "lon": 8.6066865
  },
  "nodes": [
    329979441,
    10819644666,
    10819644667,
    329979442,
    10819644668,
    10255831290,
    329979433,
    10819644669,
    329979434,
    329979435,
    329979436,
    329979437,
    2451457696,
    10819644675,
    329979441
  ],
  "tags": {
    "heritage": "4",
    "landuse": "cemetery",
    "wikipedia": "de:Liste der Baudenkmale in Ganderkesee"
  }
},
{
  "type": "way",
  "id": 30047139,
  "center": {
    "lat": 53.5057327,
    "lon": 8.7982347
  },
  "nodes": [
    330932892,
    330932916,
    330932907,
    330932914,
    330932912,
    330932909,
    330932901,
    330932892
  ],
  "tags": {
    "landuse": "cemetery",
    "name": "Friedhof Wehdel",
    "religion": "christian"
  }
},
{
  "type": "way",
  "id": 30192010,
  "center": {
    "lat": 53.2163262,
    "lon": 8.0214608
  },
  "nodes": [
    332654254,
    9886333674,
    9886333676,
    9886333675,
    332654257,
    9886333685,
    332654261,
    332654264,
    332654254
  ],
  "tags": {
    "denomination": "protestant",
    "landuse": "cemetery",
    "religion": "christian"
  }
},
{
  "type": "way",
  "id": 31171384,
  "center": {
    "lat": 53.0532983,
    "lon": 8.1397454
  },
  "nodes": [
    346914210,
    346914224,
    346914247,
    346914259,
    346914264,
    346914268,
    346914272,
    346914276,
    346914278,
    346914284,
    346914210
  ],
  "tags": {
    "denomination": "lutheran",
    "landuse": "cemetery",
    "name": "Evangelisch-lutherischer Friedhof",
    "religion": "christian"
  }
},
{
  "type": "way",
  "id": 31749924,
  "center": {
    "lat": 53.8052971,
    "lon": 8.8931155
  },
  "nodes": [
    355313108,
    355313338,
    355313353,
    355313320,
    355313109,
    355313112,
    355313164,
    355313165,
    355313166,
    321980624,
    355313108
  ],
  "tags": {
    "denomination": "lutheran",
    "landuse": "cemetery",
    "name": "Otterndorf-West",
    "religion": "christian"
  }
},
{
  "type": "way",
  "id": 31749925,
  "center": {
    "lat": 53.8052902,
    "lon": 8.8966446
  },
  "nodes": [
    355313217,
    355313317,
    355313219,
    355313264,
    355313266,
    355313307,
    355313217
  ],
  "tags": {
    "denomination": "lutheran",
    "landuse": "cemetery",
    "name": "Otterndorf-Ost",
    "religion": "christian"
  }
},
{
  "type": "way",
  "id": 32350736,
  "center": {
    "lat": 53.5931553,
    "lon": 8.0455774
  },
  "nodes": [
    364153099,
    364153101,
    364153103,
    364153106,
    364153108,
    364153110,
    364153112,
    364153099
  ],
  "tags": {
    "denomination": "lutheran",
    "landuse": "cemetery",
    "name": "Sengwarder Friedhof",
    "religion": "christian"
  }
},
{
  "type": "way",
  "id": 32790569,
  "center": {
    "lat": 53.1399192,
    "lon": 8.1095125
  },
  "nodes": [
    369473980,
    369473984,
    369473992,
    369473996,
    369474001,
    369474005,
    369474009,
    369474013,
    369474015,
    369474020,
    369474023,
    369474026,
    369474029,
    369474031,
    369474032,
    369474033,
    369473980
  ],
  "tags": {
    "landuse": "cemetery",
    "name": "Friedhof Petersfehn"
  }
},
{
  "type": "way",
  "id": 33947001,
  "center": {
    "lat": 53.5650182,
    "lon": 8.5978404
  },
  "nodes": [
    389028516,
    389028517,
    389028518,
    389028519,
    389028520,
    389028516
  ],
  "tags": {
    "landuse": "cemetery",
    "name": "Friedhof Lehe I",
    "religion": "multifaith",
    "website": "https://www.bremerhaven.de/de/verwaltung-politik/buergerservice/adressen-oeffnungszeiten/gartenbauamt-gruenflaechenunterhaltung-und-friedhoefe.27662.html"
  }
},
{
  "type": "way",
  "id": 33947900,
  "center": {
    "lat": 53.5659467,
    "lon": 8.5962249
  },
  "nodes": [
    389028932,
    389028933,
    389028934,
    389028935,
    389028937,
    389028938,
    389028939,
    389028932
  ],
  "tags": {
    "landuse": "cemetery",
    "name": "Friedhof Lehe II",
    "religion": "multifaith",
    "source": "survey",
    "website": "https://www.bremerhaven.de/de/verwaltung-politik/buergerservice/adressen-oeffnungszeiten/gartenbauamt-gruenflaechenunterhaltung-und-friedhoefe.27662.html"
  }
},
{
  "type": "way",
  "id": 34260224,
  "center": {
    "lat": 53.2715615,
    "lon": 8.9590830
  },
  "nodes": [
    392928563,
    392928564,
    392928565,
    392928566,
    392928563
  ],
  "tags": {
    "landuse": "cemetery",
    "name": "Friedhof Hüttenbusch",
    "religion": "christian",
    "source": "Yahoo"
  }
},
{
  "type": "way",
  "id": 34305409,
  "center": {
    "lat": 53.4250622,
    "lon": 8.7130763
  },
  "nodes": [
    393411000,
    393411003,
    5299503776,
    5299503779,
    5299503788,
    5299503789,
    5299503790,
    2159408482,
    2159408483,
    393411000
  ],
  "tags": {
    "landuse": "cemetery",
    "religion": "christian"
  }
},
{
  "type": "way",
  "id": 34305699,
  "center": {
    "lat": 53.4460392,
    "lon": 8.5032363
  },
  "nodes": [
    393413796,
    393413797,
    393413800,
    393413802,
    3402682142,
    3402682139,
    3402682138,
    3402682134,
    393413803,
    393413895,
    393413804,
    393413805,
    3402682157,
    393413796
  ],
  "tags": {
    "landuse": "cemetery",
    "name": "Friedhof",
    "religion": "christian"
  }
},
{
  "type": "way",
  "id": 34307280,
  "center": {
    "lat": 53.3988119,
    "lon": 8.6718773
  },
  "nodes": [
    393429748,
    393429749,
    393429750,
    393429751,
    393429748
  ],
  "tags": {
    "landuse": "cemetery",
    "name": "Friedhof",
    "religion": "christian"
  }
},
{
  "type": "way",
  "id": 34344440,
  "center": {
    "lat": 53.4216774,
    "lon": 8.8912683
  },
  "nodes": [
    2523559503,
    526202013,
    526202011,
    526202009,
    393945796,
    2452547114,
    393945797,
    393946088,
    2523559503
  ],
  "tags": {
    "landuse": "cemetery",
    "name": "Friedhof",
    "religion": "christian"
  }
},
{
  "type": "way",
  "id": 34345299,
  "center": {
    "lat": 53.4154881,
    "lon": 8.9897160
  },
  "nodes": [
    393953240,
    393953241,
    393953242,
    393953243,
    393953240
  ],
  "tags": {
    "landuse": "cemetery",
    "name": "Friedhof Brillit",
    "religion": "christian"
  }
},
{
  "type": "way",
  "id": 34414115,
  "center": {
    "lat": 53.5671563,
    "lon": 8.2696728
  },
  "nodes": [
    395293069,
    395293071,
    4577136895,
    395293073,
    4543335272,
    395293074,
    4577136894,
    395293069
  ],
  "tags": {
    "landuse": "cemetery",
    "name": "Friedhof Tossens"
  }
},
{
  "type": "way",
  "id": 34526484,
  "center": {
    "lat": 53.0865290,
    "lon": 8.7608251
  },
  "nodes": [
    3368022916,
    3368022913,
    399978494,
    399978498,
    399978502,
    399978506,
    2718829185,
    399978511,
    399978515,
    399978519,
    2718829444,
    399978524,
    2718829742,
    399978478,
    2718829629,
    399978482,
    399978486,
    399978490,
    3368022916
  ],
  "tags": {
    "landuse": "cemetery",
    "name": "Friedhof Woltmershausen",
    "operator": "Umweltbetrieb Bremen",
    "operator:type": "public",
    "website": "https://www.umweltbetrieb-bremen.de/friedhoefe/unsere-staedtischen-friedhoefe/friedhof-woltmershausen-2581",
    "wikidata": "Q112981440"
  }
},
{
  "type": "way",
  "id": 34528760,
  "center": {
    "lat": 53.0913604,
    "lon": 8.7543150
  },
  "nodes": [
    2730365478,
    400051472,
    2730365453,
    400051474,
    2730365228,
    2730365164,
    2730365143,
    2730365210,
    2730365102,
    2730365179,
    2730365222,
    2730365278,
    2730365264,
    2730365318,
    2730365416,
    400051478,
    400051481,
    2730365478
  ],
  "tags": {
    "denomination": "protestant",
    "landuse": "cemetery",
    "name": "Friedhof Rablinghausen",
    "religion": "christian",
    "website": "https://www.kirche-bremen.de/gemeinden/27_rablinghausen/27_rablinghausen_friedhof.php"
  }
},
{
  "type": "way",
  "id": 34785810,
  "center": {
    "lat": 53.3619865,
    "lon": 8.8587240
  },
  "nodes": [
    406608216,
    406608221,
    406608230,
    406608238,
    406608216
  ],
  "tags": {
    "landuse": "cemetery",
    "name": "Friedhof",
    "religion": "christian"
  }
},
{
  "type": "way",
  "id": 35215665,
  "center": {
    "lat": 53.3716142,
    "lon": 8.7518158
  },
  "nodes": [
    412959086,
    412959089,
    2344860645,
    2344860644,
    412959086
  ],
  "tags": {
    "landuse": "cemetery",
    "religion": "christian"
  }
},
{
  "type": "way",
  "id": 35338482,
  "center": {
    "lat": 53.0593382,
    "lon": 8.1942362
  },
  "nodes": [
    10559717108,
    414227604,
    414227605,
    10559717111,
    10559717110,
    10559717107,
    10559717106,
    10559717112,
    10559717109,
    10559717113,
    10559717108
  ],
  "tags": {
    "denomination": "catholic",
    "landuse": "cemetery",
    "religion": "christian"
  }
},
{
  "type": "way",
  "id": 35586270,
  "center": {
    "lat": 53.7276997,
    "lon": 8.5723867
  },
  "nodes": [
    417020497,
    417020499,
    417020502,
    417020504,
    417020506,
    417020508,
    417020431,
    13243420470,
    417020497
  ],
  "tags": {
    "denomination": "lutheran",
    "landuse": "cemetery",
    "name": "Friedhof Cappel",
    "note:mapping_status": "finished every way you can walk with your dog",
    "religion": "christian",
    "source": "GPS and Sightseeing"
  }
},
{
  "type": "way",
  "id": 36812646,
  "center": {
    "lat": 53.2449587,
    "lon": 8.1994896
  },
  "nodes": [
    3563436516,
    3563436517,
    3563436518,
    427909961,
    3563436514,
    3563436516
  ],
  "tags": {
    "amenity": "grave_yard",
    "historic": "memorial",
    "memorial": "war_memorial",
    "memorial:conflict": "WW2",
    "name": "Gedenkstätte WK II",
    "website": "http://www.denkmalprojekt.org/2020/rastede_wk2_lkr-ammerland_wk2_ns.html"
  }
},
{
  "type": "way",
  "id": 36812651,
  "center": {
    "lat": 53.2448474,
    "lon": 8.2003142
  },
  "nodes": [
    3563436506,
    3563436501,
    427909957,
    3563436495,
    3563445194,
    3563445195,
    3563436515,
    427909961,
    3563436518,
    3563436520,
    427909988,
    1285902876,
    427909989,
    427909990,
    3563436506
  ],
  "tags": {
    "denomination": "lutheran",
    "landuse": "cemetery",
    "name": "St.-Ulrichs-Friedhof",
    "religion": "christian"
  }
},
{
  "type": "way",
  "id": 36891569,
  "center": {
    "lat": 53.6256723,
    "lon": 8.0061515
  },
  "nodes": [
    428926309,
    428926310,
    428926311,
    428926312,
    428926313,
    428926314,
    428926315,
    428926316,
    428926317,
    428926318,
    428926319,
    428926309
  ],
  "tags": {
    "landuse": "cemetery",
    "religion": "christian"
  }
},
{
  "type": "way",
  "id": 37566244,
  "center": {
    "lat": 53.6966147,
    "lon": 8.9436994
  },
  "nodes": [
    440184592,
    440184593,
    440184594,
    440184595,
    440184592
  ],
  "tags": {
    "landuse": "cemetery",
    "religion": "christian"
  }
},
{
  "type": "way",
  "id": 37715636,
  "center": {
    "lat": 53.2850040,
    "lon": 8.7506712
  },
  "nodes": [
    442327705,
    442327706,
    442327707,
    268443847,
    268443848,
    442327705
  ],
  "tags": {
    "landuse": "cemetery",
    "name": "Friedhof Hülseberg",
    "operator": "Stadt Osterholz-Scharmbeck"
  }
},
{
  "type": "way",
  "id": 37775850,
  "center": {
    "lat": 53.3439889,
    "lon": 8.4249523
  },
  "nodes": [
    443131876,
    443131877,
    443131878,
    443131879,
    443131880,
    443131881,
    443131882,
    443131883,
    443131884,
    443131876
  ],
  "tags": {
    "description": "Friedhof",
    "landuse": "cemetery",
    "religion": "christian"
  }
},
{
  "type": "way",
  "id": 38584654,
  "center": {
    "lat": 53.1941260,
    "lon": 8.7505425
  },
  "nodes": [
    3604999463,
    3604999427,
    3604999403,
    457054039,
    3604999463
  ],
  "tags": {
    "landuse": "cemetery",
    "name": "Jüdischer Friedhof",
    "religion": "jewish",
    "wikipedia": "de:Jüdischer Friedhof (Ritterhude)"
  }
},
{
  "type": "way",
  "id": 39345371,
  "center": {
    "lat": 53.6114836,
    "lon": 8.6091697
  },
  "nodes": [
    471363331,
    9118408281,
    471363334,
    12860979903,
    471363337,
    471363339,
    471363331
  ],
  "tags": {
    "contact:website": "https://www.geestland.eu/Dienstleistungen/Friedhoefe.html",
    "landuse": "cemetery",
    "name": "Friedhof Langen",
    "operator:type": "public",
    "url": "https://www.geestland.eu/city_info/display/dokument/show.cfm?region_id=5&id=237"
  }
},
{
  "type": "way",
  "id": 39346756,
  "center": {
    "lat": 53.6393683,
    "lon": 8.6180742
  },
  "nodes": [
    1306059939,
    3565197722,
    1306059941,
    470537265,
    463219578,
    1144480191,
    463219564,
    2392510359,
    1306059939
  ],
  "tags": {
    "contact:website": "https://www.geestland.eu/Dienstleistungen/Friedhoefe.html",
    "landuse": "cemetery",
    "name": "Friedhof Sievern",
    "operator:type": "public",
    "url": "https://www.geestland.eu/city_info/display/dokument/show.cfm?region_id=5&id=237"
  }
},
{
  "type": "way",
  "id": 39349247,
  "center": {
    "lat": 53.0359371,
    "lon": 8.7370412
  },
  "nodes": [
    471426259,
    1223638438,
    471426263,
    471426266,
    3173829170,
    3173829253,
    471426243,
    3173829261,
    3173829263,
    3173829259,
    471426246,
    3007629954,
    3765496379,
    3765496378,
    3765496374,
    3173829188,
    3765496371,
    3765496369,
    3765496367,
    471426254,
    3765496363,
    3765496361,
    3765496359,
    471591352,
    3765496358,
    471591351,
    1209226347,
    471591350,
    3765496051,
    471426259
  ],
  "tags": {
    "landuse": "cemetery",
    "name": "Friedhof Moordeich",
    "wikidata": "Q56192307"
  }
},
{
  "type": "way",
  "id": 39640524,
  "center": {
    "lat": 53.1876662,
    "lon": 8.0050775
  },
  "nodes": [
    475178446,
    475178451,
    475178456,
    9775004718,
    475178460,
    475178464,
    475178466,
    475178473,
    475178476,
    475178479,
    701769915,
    475178493,
    475178501,
    1016734085,
    475178512,
    475178516,
    475178521,
    9775004719,
    701769909,
    475178446
  ],
  "tags": {
    "denomination": "protestant",
    "landuse": "cemetery",
    "name": "Alter Friedhof",
    "religion": "christian"
  }
},
{
  "type": "way",
  "id": 39689140,
  "center": {
    "lat": 53.8630105,
    "lon": 8.6462873
  },
  "nodes": [
    475865649,
    475865643,
    475773836,
    1164200517,
    1164200914,
    1164200440,
    1164200877,
    1164201315,
    1164200633,
    1164201020,
    1164201510,
    12479221702,
    11241912616,
    12479221701,
    265767332,
    2559973483,
    2559973487,
    1164200836,
    1164201281,
    1164200613,
    1164200519,
    12479221682,
    475865650,
    475865651,
    12479221680,
    12522800017,
    12479221681,
    12479221684,
    475865647,
    475865648,
    9063140047,
    475865649
  ],
  "tags": {
    "landuse": "cemetery",
    "name": "Brockeswalder Zentralfriedhof",
    "wikidata": "Q88299530",
    "wikimedia_commons": "Category:Friedhof Brockeswalde",
    "wikipedia": "de:Friedhof Brockeswalde"
  }
},
{
  "type": "way",
  "id": 39918939,
  "center": {
    "lat": 53.6759848,
    "lon": 8.6788178
  },
  "nodes": [
    479280339,
    479280340,
    479280342,
    2061835374,
    2061835302,
    2061835181,
    2063085001,
    479280343,
    479280339
  ],
  "tags": {
    "denomination": "lutheran",
    "landuse": "cemetery",
    "name": "Alter Friedhof",
    "religion": "christian"
  }
},
{
  "type": "way",
  "id": 40647649,
  "center": {
    "lat": 53.5135627,
    "lon": 8.3611220
  },
  "nodes": [
    493737202,
    493737204,
    493737207,
    493737210,
    5354741393,
    493737202
  ],
  "tags": {
    "landuse": "cemetery",
    "religion": "christian"
  }
},
{
  "type": "way",
  "id": 40681205,
  "center": {
    "lat": 53.5765395,
    "lon": 8.3621210
  },
  "nodes": [
    494115201,
    494115202,
    494115204,
    12898323757,
    12898323756,
    12898323781,
    494115206,
    12898323755,
    494115212,
    12898323754,
    7099552101,
    494115214,
    12898323780,
    12898323753,
    494115216,
    12898323752,
    494115219,
    12898323779,
    494115222,
    12898323778,
    494115201
  ],
  "tags": {
    "landuse": "cemetery",
    "name:signed": "no",
    "religion": "christian"
  }
},
{
  "type": "way",
  "id": 43293030,
  "center": {
    "lat": 53.1338779,
    "lon": 8.2296850
  },
  "nodes": [
    6576576899,
    543958163,
    543958165,
    543958151,
    4601382460,
    4601382459,
    543958194,
    543958196,
    6576576899
  ],
  "tags": {
    "amenity": "grave_yard",
    "barrier": "wall",
    "name": "Alter jüdischer Friedhof",
    "religion": "jewish",
    "wikidata": "Q61993280",
    "wikipedia": "de:Jüdischer Friedhof (Oldenburg)"
  }
},
{
  "type": "way",
  "id": 43512493,
  "center": {
    "lat": 53.4007283,
    "lon": 8.4510500
  },
  "nodes": [
    549221682,
    549221637,
    549221639,
    549221640,
    549221641,
    549221642,
    549221643,
    549221686,
    549221683,
    549221684,
    549221682
  ],
  "tags": {
    "landuse": "cemetery",
    "religion": "christian"
  }
},
{
  "type": "way",
  "id": 44778422,
  "center": {
    "lat": 53.0960277,
    "lon": 8.8541766
  },
  "nodes": [
    2593847157,
    1659758240,
    567870100,
    567870101,
    2593847157
  ],
  "tags": {
    "landuse": "cemetery",
    "name": "Neuer Jüdischer Friedhof",
    "operator": "Jüdische Gemeinde im Lande Bremen",
    "religion": "jewish"
  }
},
{
  "type": "way",
  "id": 47403482,
  "center": {
    "lat": 53.7410743,
    "lon": 8.9178866
  },
  "nodes": [
    603375951,
    603375953,
    603375955,
    603376084,
    8251817223,
    603375981,
    603375924,
    603375895,
    1485984084,
    603375951
  ],
  "tags": {
    "denomination": "lutheran",
    "landuse": "cemetery",
    "religion": "christian"
  }
},
{
  "type": "way",
  "id": 47457032,
  "center": {
    "lat": 53.7778082,
    "lon": 8.8961792
  },
  "nodes": [
    603944695,
    603944700,
    603944701,
    603944705,
    603944741,
    603944715,
    603944742,
    8251963959,
    603944736,
    603944737,
    452073342,
    603944695
  ],
  "tags": {
    "denomination": "lutheran",
    "landuse": "cemetery",
    "religion": "christian"
  }
},
{
  "type": "way",
  "id": 54265344,
  "center": {
    "lat": 53.6991091,
    "lon": 8.5273603
  },
  "nodes": [
    684332504,
    684332524,
    684332533,
    684332514,
    684332515,
    684332502,
    684332503,
    684382762,
    684332504
  ],
  "tags": {
    "denomination": "lutheran",
    "landuse": "cemetery",
    "note:mapping_status": "finished every way you can walk with your dog",
    "religion": "christian",
    "source": "GPS and Sightseeing"
  }
},
{
  "type": "way",
  "id": 55490895,
  "center": {
    "lat": 53.2333714,
    "lon": 8.4570044
  },
  "nodes": [
    697162772,
    2364434672,
    697296045,
    697296046,
    267986608,
    697162779,
    697162780,
    697162781,
    697162782,
    697162772
  ],
  "tags": {
    "landuse": "cemetery",
    "name": "Neuer Friedhof",
    "religion": "christian"
  }
},
{
  "type": "way",
  "id": 61914707,
  "center": {
    "lat": 53.4624893,
    "lon": 8.7656105
  },
  "nodes": [
    771746083,
    771745982,
    771746131,
    771746053,
    771746110,
    771746083
  ],
  "tags": {
    "landuse": "cemetery",
    "name": "Friedhof",
    "religion": "christian"
  }
},
{
  "type": "way",
  "id": 62145256,
  "center": {
    "lat": 53.5339438,
    "lon": 8.2697470
  },
  "nodes": [
    775341243,
    775341244,
    775341245,
    775341246,
    775341243
  ],
  "tags": {
    "landuse": "cemetery",
    "religion": "christian"
  }
},
{
  "type": "way",
  "id": 62145970,
  "center": {
    "lat": 53.4034773,
    "lon": 8.3562226
  },
  "nodes": [
    775347660,
    775347661,
    775347662,
    775347663,
    775347664,
    775347665,
    1938168256,
    775347660
  ],
  "tags": {
    "landuse": "cemetery",
    "religion": "christian"
  }
},
{
  "type": "way",
  "id": 62146200,
  "center": {
    "lat": 53.3326926,
    "lon": 8.3924648
  },
  "nodes": [
    775351300,
    775351301,
    775351302,
    775351303,
    775351300
  ],
  "tags": {
    "landuse": "cemetery",
    "religion": "christian"
  }
},
{
  "type": "way",
  "id": 67522789,
  "center": {
    "lat": 53.2044679,
    "lon": 8.5632096
  },
  "nodes": [
    815250675,
    3190966037,
    3190966048,
    3190966059,
    3190966162,
    815250678,
    815250680,
    815250683,
    815250685,
    815250688,
    815250691,
    815250675
  ],
  "tags": {
    "barrier": "fence",
    "landuse": "cemetery",
    "name": "Waldfriedhof Blumenthal",
    "operator": "Umweltbetrieb Bremen",
    "operator:type": "public",
    "website": "https://www.umweltbetrieb-bremen.de/friedhoefe/unsere-staedtischen-friedhoefe/friedhof-waldfriedhof-blumenthal-2547",
    "wikidata": "Q113027705"
  }
},
{
  "type": "way",
  "id": 71391202,
  "center": {
    "lat": 53.6884047,
    "lon": 8.5692446
  },
  "nodes": [
    849487966,
    850289886,
    850053883,
    849487767,
    849488072,
    849487815,
    849488020,
    849884203,
    849487869,
    849487796,
    470569739,
    849487990,
    849487912,
    850289634,
    849487848,
    849487966
  ],
  "tags": {
    "denomination": "lutheran",
    "landuse": "cemetery",
    "note:mapping_status": "finished every way you can walk with your dog",
    "religion": "christian",
    "source": "GPS and Sightseeing"
  }
},
{
  "type": "way",
  "id": 76229124,
  "center": {
    "lat": 53.3383868,
    "lon": 8.9134464
  },
  "nodes": [
    899283966,
    899283967,
    899677525,
    899283968,
    899283970,
    899283966
  ],
  "tags": {
    "landuse": "cemetery",
    "name": "Friedhof",
    "religion": "christian"
  }
},
{
  "type": "way",
  "id": 81216058,
  "center": {
    "lat": 53.3787187,
    "lon": 8.5112331
  },
  "nodes": [
    946219334,
    946219312,
    946219355,
    946219378,
    946219398,
    946219334
  ],
  "tags": {
    "denomination": "lutheran",
    "heritage": "yes",
    "landuse": "cemetery",
    "name": "Friedhof Rechtenfleth",
    "religion": "christian"
  }
},
{
  "type": "way",
  "id": 82265824,
  "center": {
    "lat": 53.2456885,
    "lon": 8.2017282
  },
  "nodes": [
    3563436511,
    3563436512,
    3563436513,
    2131226362,
    958071187,
    958071065,
    1134125320,
    958071251,
    1114666132,
    3563436511
  ],
  "tags": {
    "landuse": "cemetery",
    "religion": "christian"
  }
},
{
  "type": "way",
  "id": 84734816,
  "center": {
    "lat": 53.0507522,
    "lon": 8.6510899
  },
  "nodes": [
    984101878,
    984101879,
    984101880,
    984101881,
    984101878
  ],
  "tags": {
    "amenity": "grave_yard",
    "name": "Jüdischer Friedhof Delmenhorst",
    "wikidata": "Q1716655"
  }
},
{
  "type": "way",
  "id": 85061385,
  "center": {
    "lat": 53.0286621,
    "lon": 8.7513728
  },
  "nodes": [
    986931142,
    986931130,
    1219441606,
    1219441696,
    986931153,
    3673897889,
    3673897890,
    986931160,
    986931134,
    986931137,
    986931163,
    986931125,
    986931142
  ],
  "tags": {
    "landuse": "cemetery"
  }
},
{
  "type": "way",
  "id": 87360943,
  "center": {
    "lat": 53.0979684,
    "lon": 8.4711431
  },
  "nodes": [
    10937220396,
    208656847,
    1015903842,
    1015903828,
    1015903627,
    1015903583,
    10937220396
  ],
  "tags": {
    "landuse": "cemetery",
    "name": "Katholischer Friedhof Hude",
    "religion": "christian"
  }
},
{
  "type": "way",
  "id": 87751048,
  "center": {
    "lat": 53.0994840,
    "lon": 8.2055488
  },
  "nodes": [
    294073357,
    256307566,
    256307568,
    13068055076,
    13068055077,
    13068055078,
    1015028589,
    294077318,
    294077324,
    294075629,
    294075638,
    294075627,
    294075625,
    294075624,
    294075631,
    294075633,
    294075635,
    1015028625,
    1020285748,
    1020285689,
    1048554775,
    1048555001,
    678557126,
    65163747,
    676985004,
    4398335438,
    267281896,
    4398335443,
    313169645,
    313169640,
    533876230,
    267915910,
    533876232,
    6281090820,
    257598949,
    4398363467,
    257598951,
    4398363468,
    6654670107,
    256305956,
    256305958,
    256305960,
    294078639,
    271231989,
    6266083299,
    2695107120,
    256307555,
    13068055042,
    13068055043,
    13068055044,
    13068055045,
    13068055046,
    13068055047,
    13068055048,
    13068055049,
    13068055050,
    13068055051,
    13068055052,
    294073357
  ],
  "tags": {
    "alt_name": "Parkfriedhof Kreyenbrück",
    "landuse": "cemetery",
    "name": "Parkfriedhof Bümmerstede",
    "website": "https://www.oldenburg.de/startseite/buergerservice/osiris/anliegen-a-z.html?tx_citkoegovservicelight_dienstleistungen%5Baction%5D=show&tx_citkoegovservicelight_dienstleistungen%5Bdienstleistungen%5D=2061&cHash=e4adb08e629a5aeb1dcf1090b7f58360"
  }
},
{
  "type": "way",
  "id": 88051914,
  "center": {
    "lat": 53.7482122,
    "lon": 8.9782503
  },
  "nodes": [
    1023376576,
    1023376676,
    1023356100,
    1023376646,
    1412951966,
    11482667351,
    1023376576
  ],
  "tags": {
    "landuse": "cemetery",
    "religion": "christian"
  }
},
{
  "type": "way",
  "id": 88389069,
  "center": {
    "lat": 53.6585917,
    "lon": 8.9747126
  },
  "nodes": [
    1026793626,
    1026792108,
    1026792581,
    1026793100,
    1026793626
  ],
  "tags": {
    "landuse": "cemetery"
  }
},
{
  "type": "way",
  "id": 88702016,
  "center": {
    "lat": 53.6827734,
    "lon": 8.8849715
  },
  "nodes": [
    1029776814,
    1029776676,
    1029776752,
    1029776718,
    1029776858,
    1029776644,
    1029804160,
    1029776814
  ],
  "tags": {
    "landuse": "cemetery"
  }
},
{
  "type": "way",
  "id": 88716991,
  "center": {
    "lat": 53.7024217,
    "lon": 8.7608743
  },
  "nodes": [
    1029849820,
    1029849884,
    1029849941,
    565545998,
    1029850023,
    1029849892,
    1029849820
  ],
  "tags": {
    "landuse": "cemetery"
  }
},
{
  "type": "way",
  "id": 91610065,
  "center": {
    "lat": 53.7795279,
    "lon": 8.9402372
  },
  "nodes": [
    1404407024,
    1404407077,
    1064380399,
    1404407181,
    1404407089,
    1064380370,
    1404407024
  ],
  "tags": {
    "landuse": "cemetery"
  }
},
{
  "type": "way",
  "id": 92726610,
  "center": {
    "lat": 53.4960385,
    "lon": 8.4724552
  },
  "nodes": [
    1019847967,
    1075456740,
    1075456743,
    1075456747,
    1075456750,
    1075456752,
    1075456755,
    1075456757,
    1075456761,
    1075456775,
    1075456780,
    1075456784,
    1075456786,
    1137591512,
    1075456788,
    1075456790,
    1137591565,
    1019847949,
    1019847959,
    1019847962,
    1019847967
  ],
  "tags": {
    "barrier": "fence",
    "landuse": "cemetery",
    "name": "Friedhof Atens",
    "religion": "christian"
  }
},
{
  "type": "way",
  "id": 93364306,
  "center": {
    "lat": 53.4838040,
    "lon": 8.4354774
  },
  "nodes": [
    1082628052,
    1082628028,
    1082628025,
    1082628015,
    1082628008,
    1082628004,
    1082628018,
    1082628021,
    1082628024,
    1082628031,
    1082628052
  ],
  "tags": {
    "landuse": "cemetery",
    "name": "Friedhof Abbehausen",
    "operator": "Ev. Kirchengemeinde Abbehausen",
    "religion": "christian"
  }
},
{
  "type": "way",
  "id": 93872522,
  "center": {
    "lat": 53.6337491,
    "lon": 8.9603852
  },
  "nodes": [
    1091255386,
    1091255318,
    1091255457,
    1091255315,
    1091255386
  ],
  "tags": {
    "amenity": "grave_yard"
  }
},
{
  "type": "way",
  "id": 94819090,
  "center": {
    "lat": 53.4848077,
    "lon": 8.9702823
  },
  "nodes": [
    2441493452,
    1100637952,
    1100637819,
    10079268587,
    1100637859,
    1100637887,
    2441493454,
    2441493458,
    2441493452
  ],
  "tags": {
    "landuse": "cemetery",
    "source": "Bing"
  }
},
{
  "type": "way",
  "id": 95016134,
  "center": {
    "lat": 53.7615368,
    "lon": 8.8369029
  },
  "nodes": [
    1102489753,
    1102492525,
    1102490556,
    1102491734,
    1102490520,
    1102489753
  ],
  "tags": {
    "denomination": "lutheran",
    "landuse": "cemetery",
    "religion": "christian"
  }
},
{
  "type": "way",
  "id": 95019354,
  "center": {
    "lat": 53.4884414,
    "lon": 8.8997104
  },
  "nodes": [
    1102530208,
    1102530322,
    1102530658,
    1102530599,
    1102530608,
    475151451,
    1102530124,
    1102530208
  ],
  "tags": {
    "landuse": "cemetery",
    "religion": "christian",
    "source": "Bing"
  }
},
{
  "type": "way",
  "id": 96695557,
  "center": {
    "lat": 53.6032089,
    "lon": 8.8817905
  },
  "nodes": [
    2538638793,
    2538638795,
    1890014822,
    2538638803,
    2538638791,
    2538638789,
    1118626292,
    1118626841,
    1890015060,
    1119811953,
    1119812017,
    1119812057,
    1890014824,
    2538638793
  ],
  "tags": {
    "contact:website": "https://www.geestland.eu/Dienstleistungen/Friedhoefe.html",
    "landuse": "cemetery",
    "name": "Friedhof Lintig",
    "operator:type": "public",
    "url": "https://www.geestland.eu/city_info/display/dokument/show.cfm?region_id=5&id=237"
  }
},
{
  "type": "way",
  "id": 96932057,
  "center": {
    "lat": 53.5989607,
    "lon": 8.9417612
  },
  "nodes": [
    1123301916,
    2626994348,
    1116826145,
    2628673530,
    1115375557,
    1115373847,
    1115374527,
    1123301840,
    1123301916
  ],
  "tags": {
    "contact:website": "https://www.geestland.eu/Dienstleistungen/Friedhoefe.html",
    "landuse": "cemetery",
    "name": "Friedhof Meckelstedt",
    "operator:type": "public",
    "url": "https://www.geestland.eu/city_info/display/dokument/show.cfm?region_id=5&id=237"
  }
},
{
  "type": "way",
  "id": 96966654,
  "center": {
    "lat": 53.5877234,
    "lon": 8.7464858
  },
  "nodes": [
    1123641684,
    1123641622,
    1123641760,
    1657192790,
    1123641719,
    1123641627,
    1123641775,
    1123641647,
    1123641657,
    1123641753,
    1123641684
  ],
  "tags": {
    "denomination": "lutheran",
    "landuse": "cemetery",
    "name": "Friedhof Elmlohe",
    "religion": "christian"
  }
},
{
  "type": "way",
  "id": 97093656,
  "center": {
    "lat": 53.5944608,
    "lon": 8.8116040
  },
  "nodes": [
    1124856594,
    1124856268,
    1124855628,
    1124857436,
    1124856557,
    1124856143,
    3259071073,
    1436430286,
    1124855970,
    1124856594
  ],
  "tags": {
    "contact:website": "https://www.geestland.eu/Dienstleistungen/Friedhoefe.html",
    "landuse": "cemetery",
    "name": "Friedhof Alfstedt",
    "operator:type": "public",
    "url": "https://www.geestland.eu/city_info/display/dokument/show.cfm?region_id=5&id=237"
  }
},
{
  "type": "way",
  "id": 97393781,
  "center": {
    "lat": 53.6925073,
    "lon": 8.6242849
  },
  "nodes": [
    1127992450,
    1127992297,
    1127992320,
    1127992538,
    1127992723,
    2063634867,
    1127992078,
    1127992450
  ],
  "tags": {
    "contact:website": "https://www.geestland.eu/Dienstleistungen/Friedhoefe.html",
    "landuse": "cemetery",
    "name": "Friedhof Holßel",
    "operator:type": "public",
    "url": "https://www.geestland.eu/city_info/display/dokument/show.cfm?region_id=5&id=237"
  }
},
{
  "type": "way",
  "id": 97827476,
  "center": {
    "lat": 53.7479952,
    "lon": 8.6876559
  },
  "nodes": [
    1132369117,
    1132369148,
    1132369313,
    1132369054,
    1132369117
  ],
  "tags": {
    "landuse": "cemetery"
  }
},
{
  "type": "way",
  "id": 98708079,
  "center": {
    "lat": 53.1897460,
    "lon": 8.3839475
  },
  "nodes": [
    1141964970,
    1141964981,
    1141964957,
    1141964977,
    1141964960,
    1141964970
  ],
  "tags": {
    "amenity": "grave_yard"
  }
},
{
  "type": "way",
  "id": 99171356,
  "center": {
    "lat": 53.7840792,
    "lon": 8.6026893
  },
  "nodes": [
    1147137220,
    1147137106,
    1147137398,
    1147137148,
    1147137220
  ],
  "tags": {
    "landuse": "cemetery"
  }
},
{
  "type": "way",
  "id": 100167446,
  "center": {
    "lat": 53.8558890,
    "lon": 8.7030249
  },
  "nodes": [
    1157812280,
    6001256149,
    13244550839,
    13244550838,
    13244550834,
    13244550835,
    6001256148,
    6469735799,
    13244550837,
    13244550836,
    6454595237,
    6469735803,
    259476115,
    6001256146,
    6001256147,
    1157812217,
    1157813087,
    1157812359,
    2099130766,
    1157812899,
    1157812081,
    2361431784,
    1157813194,
    1157812807,
    1157812280
  ],
  "tags": {
    "landuse": "cemetery",
    "name": "Friedhof Ritzebüttel",
    "religion": "christian"
  }
},
{
  "type": "way",
  "id": 104287289,
  "center": {
    "lat": 53.7092208,
    "lon": 8.7029239
  },
  "nodes": [
    1203297166,
    1203296965,
    3177100984,
    3652305965,
    3652305961,
    3652305959,
    3652305952,
    1203296848,
    1203297166
  ],
  "tags": {
    "contact:website": "https://www.geestland.eu/Dienstleistungen/Friedhoefe.html",
    "landuse": "cemetery",
    "name": "Friedhof Krempel",
    "operator:type": "public",
    "url": "https://www.geestland.eu/city_info/display/dokument/show.cfm?region_id=5&id=237"
  }
},
{
  "type": "way",
  "id": 106303908,
  "center": {
    "lat": 53.6750391,
    "lon": 8.5153986
  },
  "nodes": [
    1223558247,
    1223558251,
    1223558252,
    1223558249,
    1223558247
  ],
  "tags": {
    "denomination": "lutheran",
    "landuse": "cemetery",
    "religion": "christian"
  }
},
{
  "type": "way",
  "id": 106422931,
  "center": {
    "lat": 53.5280221,
    "lon": 8.6582155
  },
  "nodes": [
    8347007946,
    8347007947,
    8347007948,
    419681278,
    2677595362,
    845290940,
    8347007952,
    1200048188,
    419681286,
    8347007943,
    8347007942,
    8347007946
  ],
  "tags": {
    "denomination": "lutheran",
    "landuse": "cemetery",
    "name": "Friedhof Schiffdorf",
    "religion": "christian",
    "website": "https://friedhofsverband-gws.de/friedhof-schiffdorf/"
  }
},
{
  "type": "way",
  "id": 106766767,
  "center": {
    "lat": 53.7951765,
    "lon": 8.6714893
  },
  "nodes": [
    1227901568,
    1227901285,
    12844024227,
    1227900609,
    1227901413,
    12844024225,
    1227900334,
    1227901568
  ],
  "tags": {
    "landuse": "cemetery",
    "name": "Friedhof Gudendorf"
  }
},
{
  "type": "way",
  "id": 106803510,
  "center": {
    "lat": 53.5654782,
    "lon": 8.6044328
  },
  "nodes": [
    8894867990,
    5941035880,
    8894867982,
    8894867985,
    8894867980,
    8894867978,
    8894867976,
    8894867974,
    8894867972,
    8894867970,
    8894867968,
    310678218,
    2042747811,
    310678219,
    312836704,
    312836705,
    312836706,
    312836707,
    312836709,
    8894838213,
    312836710,
    312834922,
    312836712,
    312836714,
    312836715,
    4046048189,
    8894838211,
    4228216003,
    8894867935,
    4228215993,
    1228274586,
    1228286154,
    1228309304,
    1228309299,
    8894867923,
    8894867925,
    8894867927,
    8894867929,
    8894867930,
    8894867931,
    8894867933,
    8894867990
  ],
  "tags": {
    "landuse": "cemetery",
    "name": "Friedhof Lehe III"
  }
},
{
  "type": "way",
  "id": 106806095,
  "center": {
    "lat": 53.5685238,
    "lon": 8.6151711
  },
  "nodes": [
    5952599274,
    5952599275,
    508980395,
    312835464,
    1227073286,
    1227073278,
    8895303071,
    8895303073,
    8895303072,
    8895303070,
    8895303069,
    8895303068,
    8895303067,
    8895303066,
    8895303065,
    8895303062,
    8895303061,
    312263140,
    9517195063,
    1646292081,
    1646292070,
    7500674177,
    7500674172,
    7500674174,
    7500674178,
    3652439105,
    3652439104,
    4393072601,
    12269164467,
    4393072602,
    12269164468,
    8895469066,
    8895469068,
    8895469069,
    5952599274
  ],
  "tags": {
    "landuse": "cemetery",
    "name": "Friedhof Spadener Höhe",
    "religion": "multifaith",
    "website": "https://www.bremerhaven.de/de/verwaltung-politik/buergerservice/adressen-oeffnungszeiten/gartenbauamt-gruenflaechenunterhaltung-und-friedhoefe.27662.html"
  }
},
{
  "type": "way",
  "id": 107911063,
  "center": {
    "lat": 53.6203094,
    "lon": 8.6407055
  },
  "nodes": [
    1239275243,
    1239275077,
    1239275033,
    1239274991,
    1239275236,
    1239275193,
    1239275233,
    1239275190,
    1239275144,
    1239275098,
    1239275052,
    1239275006,
    1239275243
  ],
  "tags": {
    "denomination": "lutheran",
    "landuse": "cemetery",
    "name": "Friedhof Debstedt",
    "religion": "christian"
  }
},
{
  "type": "way",
  "id": 108237932,
  "center": {
    "lat": 53.7680750,
    "lon": 8.6200077
  },
  "nodes": [
    1242174707,
    1242174804,
    1242174879,
    3486389910,
    1238981961,
    1242174707
  ],
  "tags": {
    "alt_name": "Russenfriedhof",
    "cemetery": "war_cemetery",
    "heritage": "4",
    "heritage:operator": "nld",
    "landuse": "cemetery",
    "memorial:conflict": "WW2",
    "name": "Kriegsgräberstätte",
    "ref:nld": "35.204.000.002",
    "website": "https://www.volksbund.de/kriegsgraeberstaette/nordholz-spieka-auslaenderfriedhof.html"
  }
},
{
  "type": "way",
  "id": 108984817,
  "center": {
    "lat": 53.6097319,
    "lon": 8.6850750
  },
  "nodes": [
    1249065401,
    1249065396,
    1249065469,
    1249065436,
    1249065403,
    9726949306,
    1249065401
  ],
  "tags": {
    "landuse": "cemetery",
    "name": "Friedhof Wehden",
    "source": "survey",
    "website": "https://www.schiffdorf.de/rundum-versorgt/bestattungswesen/"
  }
},
{
  "type": "way",
  "id": 110679639,
  "center": {
    "lat": 53.4666320,
    "lon": 8.6452693
  },
  "nodes": [
    1263345479,
    1263345478,
    1263345476,
    1263345470,
    2209170735,
    1263345477,
    1263345474,
    1263345479
  ],
  "tags": {
    "landuse": "cemetery",
    "name": "Friedhof Loxstedt",
    "religion": "christian"
  }
},
{
  "type": "way",
  "id": 110739629,
  "center": {
    "lat": 53.6685086,
    "lon": 8.5466662
  },
  "nodes": [
    1263794934,
    1263795003,
    1263794926,
    1263794967,
    1263795012,
    1263794934
  ],
  "tags": {
    "denomination": "lutheran",
    "landuse": "cemetery",
    "note:mapping_status": "finished every way you can walk with your dog",
    "religion": "christian",
    "source": "GPS and Sightseeing"
  }
},
{
  "type": "way",
  "id": 111785986,
  "center": {
    "lat": 53.4903942,
    "lon": 8.6959714
  },
  "nodes": [
    1272826793,
    1272826790,
    1272826796,
    1272826791,
    1272826793
  ],
  "tags": {
    "landuse": "cemetery",
    "name": "Friedhof Bexhövede",
    "religion": "christian"
  }
},
{
  "type": "way",
  "id": 114924981,
  "center": {
    "lat": 53.6150483,
    "lon": 8.5176264
  },
  "nodes": [
    11889597644,
    1300471459,
    11884452744,
    11884452745,
    11884452746,
    11884452747,
    3759274450,
    1300468205,
    1300473211,
    1300473212,
    11889597644
  ],
  "tags": {
    "contact:website": "https://www.geestland.eu/Dienstleistungen/Friedhoefe.html",
    "landuse": "cemetery",
    "name": "Friedhof Imsum",
    "operator:type": "public",
    "url": "https://www.geestland.eu/city_info/display/dokument/show.cfm?region_id=5&id=237"
  }
},
{
  "type": "way",
  "id": 116869807,
  "center": {
    "lat": 53.4945516,
    "lon": 8.7083979
  },
  "nodes": [
    9908121496,
    1316502439,
    1316502440,
    1316502442,
    6222542796,
    9908121495,
    9908121496
  ],
  "tags": {
    "landuse": "cemetery",
    "name": "Friedhof Donnern"
  }
},
{
  "type": "way",
  "id": 117322314,
  "center": {
    "lat": 53.5280547,
    "lon": 8.6057587
  },
  "nodes": [
    7982219017,
    7982219015,
    8378049211,
    5950047651,
    7982219016,
    7982219019,
    1853304969,
    1853304967,
    1853304965,
    4957376742,
    4957376741,
    1321316982,
    4957376740,
    4957376739,
    4957376738,
    7981855885,
    454156410,
    2116170590,
    11919967449,
    1321318222,
    1321318223,
    1321318221,
    7982219017
  ],
  "tags": {
    "denomination": "lutheran",
    "landuse": "cemetery",
    "name": "Friedhof Geestemünde",
    "religion": "christian",
    "website": "https://friedhofsverband-gws.de/friedhof-geestemuende/",
    "wikidata": "Q21042190",
    "wikipedia": "de:Geestemünder Friedhof"
  }
},
{
  "type": "way",
  "id": 117574330,
  "center": {
    "lat": 53.8653499,
    "lon": 8.6521285
  },
  "nodes": [
    1324288241,
    1324288036,
    1324288136,
    1324288275,
    4783648152,
    1324288241
  ],
  "tags": {
    "addr:city": "Cuxhaven",
    "addr:postcode": "27476",
    "addr:street": "Barnhope",
    "amenity": "grave_yard",
    "name": "Jüdischer Friedhof",
    "religion": "jewish",
    "wikidata": "Q1716143",
    "wikimedia_commons": "File:Brockeswald Cuxhaven 3871.jpg",
    "wikipedia": "de:Jüdischer Friedhof (Cuxhaven)"
  }
},
{
  "type": "way",
  "id": 119235695,
  "center": {
    "lat": 53.5138916,
    "lon": 8.5974157
  },
  "nodes": [
    318024606,
    1050126311,
    1050126138,
    4041244103,
    1945672020,
    1945672024,
    1945672030,
    6468110138,
    4041248058,
    10167359094,
    1945672032,
    4041244104,
    318024601,
    1809411189,
    318024604,
    1945672022,
    1945672021,
    1945672019,
    1945672017,
    1945672018,
    1945671981,
    1945671966,
    4041248059,
    1945671941,
    318024606
  ],
  "tags": {
    "description": "Kulturdenkmal, siehe http://wiki.openstreetmap.org/wiki/Bremen/Kulturdenkm%C3%A4ler",
    "heritage": "4",
    "heritage:operator": "lfd",
    "landuse": "cemetery",
    "lfd:criteria": "GA",
    "name": "Friedhof Wulsdorf",
    "ref:lfd": "3388",
    "religion": "multifaith",
    "website": "https://www.bremerhaven.de/de/verwaltung-politik/buergerservice/adressen-oeffnungszeiten/gartenbauamt-gruenflaechenunterhaltung-und-friedhoefe.27662.html",
    "wikidata": "Q1709677",
    "wikipedia": "de:Bremerhavener Friedhof in Wulsdorf"
  }
},
{
  "type": "way",
  "id": 120928269,
  "center": {
    "lat": 53.8170909,
    "lon": 8.6008660
  },
  "nodes": [
    1354696775,
    1354696777,
    1354696774,
    1602720501,
    1602720475,
    1354696773,
    1354696775
  ],
  "tags": {
    "landuse": "cemetery",
    "name": "Städtischer Friedhof Berensch",
    "source": "Hi-res aerial imagery (Aerowest)"
  }
},
{
  "type": "way",
  "id": 122030195,
  "center": {
    "lat": 53.4156704,
    "lon": 8.5753980
  },
  "nodes": [
    1364578476,
    1364578478,
    1364578479,
    1364578506,
    1364578480,
    1364578476
  ],
  "tags": {
    "landuse": "cemetery",
    "name": "Friedhof Schwegen"
  }
},
{
  "type": "way",
  "id": 122673590,
  "center": {
    "lat": 53.5107776,
    "lon": 8.8465897
  },
  "nodes": [
    1370106166,
    313159795,
    1370106161,
    1370098174,
    1370097080,
    1102555919,
    1370097081,
    1370106166
  ],
  "tags": {
    "landuse": "cemetery",
    "name": "Friedhof Geestenseth",
    "religion": "multifaith",
    "website": "https://www.schiffdorf.de/rundum-versorgt/bestattungswesen/"
  }
},
{
  "type": "way",
  "id": 127977000,
  "center": {
    "lat": 53.5319807,
    "lon": 8.8804229
  },
  "nodes": [
    1415219015,
    1415219132,
    6939504969,
    10746482542,
    10746482540,
    10746482508,
    6939504970,
    10746482537,
    10746482535,
    10746482538,
    1415219015
  ],
  "tags": {
    "contact:website": "https://www.geestland.eu/Dienstleistungen/Friedhoefe.html",
    "landuse": "cemetery",
    "name": "Friedhof Köhlen",
    "operator:type": "public",
    "url": "https://www.geestland.eu/city_info/display/dokument/show.cfm?region_id=5&id=237"
  }
},
{
  "type": "way",
  "id": 131324199,
  "center": {
    "lat": 53.7512990,
    "lon": 8.5775815
  },
  "nodes": [
    1445565138,
    1445565130,
    1445565122,
    1445565128,
    9481374175,
    1445565138
  ],
  "tags": {
    "denomination": "lutheran",
    "landuse": "cemetery",
    "name": "Friedhof Spieka",
    "religion": "christian"
  }
},
{
  "type": "way",
  "id": 131324201,
  "center": {
    "lat": 53.7620734,
    "lon": 8.6129081
  },
  "nodes": [
    1445565552,
    1445565612,
    1445565604,
    1445565610,
    1445565558,
    1445565552
  ],
  "tags": {
    "landuse": "cemetery"
  }
},
{
  "type": "way",
  "id": 131904825,
  "center": {
    "lat": 53.2473579,
    "lon": 8.6826278
  },
  "nodes": [
    1445830232,
    1451070960,
    1113739593,
    297870941,
    297870940,
    297870939,
    297870938,
    297870937,
    2726868078,
    1445834929,
    1445834941,
    1445830282,
    1445830284,
    1445830231,
    1445830232
  ],
  "tags": {
    "addr:city": "Schwanewede",
    "addr:postcode": "28790",
    "addr:street": "Lehnstedter Weg",
    "email": "info@friedwald.de",
    "landuse": "cemetery",
    "name": "FriedWald Bremer Schweiz",
    "phone": "+49 6155 848 100",
    "website": "https://www.friedwald.de/waldbestattung-bremer-schweiz"
  }
},
{
  "type": "way",
  "id": 132635743,
  "center": {
    "lat": 53.8273916,
    "lon": 8.7704715
  },
  "nodes": [
    1448828819,
    1448828813,
    1448828808,
    6174896175,
    6174896174,
    6174896176,
    1448506029,
    1448506025,
    1448506006,
    1448506081,
    1448506102,
    1448828845,
    1448828838,
    1448828819
  ],
  "tags": {
    "denomination": "lutheran",
    "landuse": "cemetery",
    "name": "Friedhof Altenbruch",
    "religion": "christian"
  }
},
{
  "type": "way",
  "id": 134153924,
  "center": {
    "lat": 53.2060045,
    "lon": 8.2478374
  },
  "nodes": [
    13205604337,
    4507841246,
    2717192828,
    1475313940,
    4084390723,
    1475313944,
    1475313949,
    1475313946,
    13205604338,
    13205604337
  ],
  "tags": {
    "landuse": "cemetery"
  }
},
{
  "type": "way",
  "id": 137889001,
  "center": {
    "lat": 53.8400511,
    "lon": 8.7267033
  },
  "nodes": [
    1512003092,
    1512003118,
    2402905831,
    1512003108,
    1890314545,
    12723469459,
    1890314547,
    1890314543,
    12723469481,
    1512003092
  ],
  "tags": {
    "landuse": "cemetery",
    "name": "Friedhof Groden"
  }
},
{
  "type": "way",
  "id": 145221002,
  "center": {
    "lat": 53.3302399,
    "lon": 8.6773980
  },
  "nodes": [
    1586515466,
    1586515472,
    841989635,
    270670269,
    1586515466
  ],
  "tags": {
    "landuse": "cemetery"
  }
},
{
  "type": "way",
  "id": 146202618,
  "center": {
    "lat": 53.4412708,
    "lon": 8.6033372
  },
  "nodes": [
    1594758131,
    1594758147,
    3519643694,
    3519643696,
    1594758131
  ],
  "tags": {
    "amenity": "grave_yard",
    "name": "Jewish Cemetery",
    "religion": "jewish"
  }
},
{
  "type": "way",
  "id": 146264168,
  "center": {
    "lat": 53.7984482,
    "lon": 8.6156427
  },
  "nodes": [
    1595392956,
    12812414926,
    1595392950,
    1595392899,
    1595392742,
    1595392671,
    12812414924,
    1595392616,
    12812414925,
    1595392641,
    1595392659,
    1595392591,
    1595392643,
    1595392704,
    1595392862,
    1595392956
  ],
  "tags": {
    "landuse": "cemetery",
    "name": "Friedhof Oxstedt",
    "source": "Hi-res aerial imagery (Aerowest)"
  }
},
{
  "type": "way",
  "id": 147953209,
  "center": {
    "lat": 53.5225632,
    "lon": 8.7295876
  },
  "nodes": [
    1272842784,
    1272842740,
    10895970230,
    1610706894,
    1610706907,
    1610706949,
    1295855780,
    1272842784
  ],
  "tags": {
    "landuse": "cemetery",
    "name": "Friedhof Sellstedt",
    "website": "https://www.schiffdorf.de/rundum-versorgt/bestattungswesen/"
  }
},
{
  "type": "way",
  "id": 152508366,
  "center": {
    "lat": 53.6172543,
    "lon": 8.7329748
  },
  "nodes": [
    1653267016,
    1099706194,
    2637221624,
    1653266946,
    1029518683,
    1653266982,
    5633442587,
    1653267016
  ],
  "tags": {
    "contact:website": "https://www.geestland.eu/Dienstleistungen/Friedhoefe.html",
    "landuse": "cemetery",
    "name": "Friedhof Drangstedt",
    "operator:type": "public",
    "url": "https://www.geestland.eu/city_info/display/dokument/show.cfm?region_id=5&id=237"
  }
},
{
  "type": "way",
  "id": 152518848,
  "center": {
    "lat": 53.5764920,
    "lon": 8.8058962
  },
  "nodes": [
    1241276544,
    1242511517,
    1241276728,
    1241276693,
    1242511510,
    1241276720,
    1653363043,
    2298303228,
    2298303229,
    1653363061,
    1241276544
  ],
  "tags": {
    "contact:website": "https://www.geestland.eu/Dienstleistungen/Friedhoefe.html",
    "landuse": "cemetery",
    "name": "Friedhof Kührstedt",
    "operator:type": "public",
    "source": "bing",
    "url": "https://www.geestland.eu/city_info/display/dokument/show.cfm?region_id=5&id=237"
  }
},
{
  "type": "way",
  "id": 153413126,
  "center": {
    "lat": 53.6223403,
    "lon": 8.8387154
  },
  "nodes": [
    1661046011,
    2693216144,
    2693216160,
    2693216175,
    2693216120,
    13147542401,
    2693216130,
    2693216140,
    13147542408,
    2693216178,
    2693216128,
    13147542409,
    1661046007,
    13147542410,
    13147542417,
    1661046006,
    1661046004,
    13147542422,
    13147542423,
    1661046002,
    9198323517,
    9198285116,
    9198285115,
    9198285114,
    13147529569,
    9198285113,
    9198285112,
    9198285111,
    1661046008,
    5552366588,
    1661046010,
    5552366586,
    1661046011
  ],
  "tags": {
    "contact:website": "https://www.geestland.eu/Dienstleistungen/Friedhoefe.html",
    "landuse": "cemetery",
    "name": "Friedhof Bad Bederkesa",
    "operator:type": "public",
    "url": "https://www.geestland.eu/city_info/display/dokument/show.cfm?region_id=5&id=237"
  }
},
{
  "type": "way",
  "id": 153879371,
  "center": {
    "lat": 53.5612858,
    "lon": 8.8513864
  },
  "nodes": [
    765796270,
    1631920349,
    1631920346,
    26464221,
    5927267621,
    5927267618,
    1665048993,
    765796270
  ],
  "tags": {
    "contact:website": "https://www.geestland.eu/Dienstleistungen/Friedhoefe.html",
    "landuse": "cemetery",
    "name": "Friedhof Ringstedt",
    "operator:type": "public",
    "url": "https://www.geestland.eu/city_info/display/dokument/show.cfm?region_id=5&id=237"
  }
},
{
  "type": "way",
  "id": 157408137,
  "center": {
    "lat": 53.9699419,
    "lon": 8.9629575
  },
  "nodes": [
    1696298844,
    1696298829,
    1696298852,
    2204995926,
    1696298847,
    1696298820,
    1696298811,
    1696298816,
    1696298823,
    1696298826,
    1696298844
  ],
  "tags": {
    "landuse": "cemetery"
  }
},
{
  "type": "way",
  "id": 158748587,
  "center": {
    "lat": 53.1749777,
    "lon": 8.9063568
  },
  "nodes": [
    1708925348,
    4030518324,
    4030518279,
    4030518251,
    4030518232,
    1708925341,
    1708925340,
    1708925343,
    1708925332,
    1708925342,
    1708925348
  ],
  "tags": {
    "denomination": "protestant",
    "landuse": "cemetery",
    "name": "Friedhof Frankenburg",
    "religion": "christian"
  }
},
{
  "type": "way",
  "id": 160502042,
  "center": {
    "lat": 53.5733228,
    "lon": 8.6044672
  },
  "nodes": [
    1725575561,
    3613422762,
    3613422763,
    1725575564,
    1725575561
  ],
  "tags": {
    "landuse": "cemetery",
    "religion": "jewish",
    "wikidata": "Q1693225",
    "wikipedia": "de:Jüdischer Friedhof (Bremerhaven-Lehe)"
  }
},
{
  "type": "way",
  "id": 162023493,
  "center": {
    "lat": 53.5523712,
    "lon": 8.6974706
  },
  "nodes": [
    9683450773,
    9683450760,
    9683450761,
    1195918196,
    9683450780,
    9683450773
  ],
  "tags": {
    "denomination": "lutheran",
    "landuse": "cemetery",
    "religion": "christian"
  }
},
{
  "type": "way",
  "id": 164180429,
  "center": {
    "lat": 53.4135248,
    "lon": 8.6374033
  },
  "nodes": [
    841987817,
    3575001344,
    1758343411,
    1758343412,
    1758343410,
    1756621306,
    841987817
  ],
  "tags": {
    "landuse": "cemetery"
  }
},
{
  "type": "way",
  "id": 165522307,
  "center": {
    "lat": 53.4723260,
    "lon": 8.7019982
  },
  "nodes": [
    1420374885,
    3315988943,
    1736544457,
    1739340945,
    1420374867,
    1420374885
  ],
  "tags": {
    "landuse": "cemetery"
  }
},
{
  "type": "way",
  "id": 165723333,
  "center": {
    "lat": 53.4399241,
    "lon": 8.7510235
  },
  "nodes": [
    12770860615,
    8926147247,
    8926147232,
    8926147234,
    8926147233,
    6257720019,
    6285480942,
    526060406,
    12770860615
  ],
  "tags": {
    "landuse": "cemetery",
    "name": "Friedhof Lunestedt-Westerbeverstedt",
    "religion": "christian"
  }
},
{
  "type": "way",
  "id": 165760233,
  "center": {
    "lat": 53.4283877,
    "lon": 8.7468271
  },
  "nodes": [
    526107180,
    526107185,
    526107193,
    526107200,
    526107208,
    526107217,
    6726142618,
    526106979,
    3328127026,
    526106973,
    526106964,
    345152668,
    345152667,
    1778299889,
    345152666,
    526107180
  ],
  "tags": {
    "landuse": "cemetery",
    "name": "Friedhof Lunestedt-Freschluneberg",
    "religion": "christian"
  }
},
{
  "type": "way",
  "id": 166335728,
  "center": {
    "lat": 53.5195543,
    "lon": 8.9422117
  },
  "nodes": [
    2551167520,
    1777898100,
    1713286154,
    1777898032,
    1314968252,
    2551100976,
    2551167520
  ],
  "tags": {
    "landuse": "cemetery"
  }
},
{
  "type": "way",
  "id": 166335739,
  "center": {
    "lat": 53.5221215,
    "lon": 8.9948699
  },
  "nodes": [
    1777898265,
    1777898298,
    1777898340,
    1777898411,
    4457994009,
    1777898326,
    4457993994,
    4457992786,
    1777898271,
    1777898211,
    1777898265
  ],
  "tags": {
    "landuse": "cemetery"
  }
},
{
  "type": "way",
  "id": 167046588,
  "center": {
    "lat": 53.7352433,
    "lon": 8.6400166
  },
  "nodes": [
    1026565253,
    1026565373,
    1026565228,
    1026565395,
    1026565471,
    1026565322,
    1026565421,
    1026565340,
    1026565253
  ],
  "tags": {
    "amenity": "grave_yard",
    "name": "Jüdischer Friedhof",
    "religion": "jewish"
  }
},
{
  "type": "way",
  "id": 167815036,
  "center": {
    "lat": 53.0660745,
    "lon": 8.8644291
  },