{
  "version": 0.6,
  "generator": "Overpass API 0.7.62.8 e802775f",
  "osm3s": {
    "timestamp_osm_base": "2025-11-02T22:54:20Z",
    "copyright": "The data included in this document is from www.openstreetmap.org. The data is made available under ODbL."
  },
  "elements": [

{
  "type": "way",
  "id": 4597149,
  "center": {
    "lat": 50.5818322,
    "lon": 8.6874214
  },
  "nodes": [
    29060412,
    320366462,
    320361516,
    3598425212,
    320366837,
    320366838,
    29060413,
    29060414,
    29060415,
    29060419,
    29060420,
    320366397,
    29060421,
    320355831,
    29060411,
    320366400,
    2366256000,
    29060412
  ],
  "tags": {
    "heritage:ref": "61609",
    "heritage:website": "http://denkxweb.denkmalpflege-hessen.de/61609",
    "historic": "yes",
    "landuse": "cemetery",
    "name": "Alter Friedhof",
    "wikidata": "Q437889",
    "wikipedia": "de:Alter Friedhof (Gießen)"
  }
},
{
  "type": "way",
  "id": 4651287,
  "center": {
    "lat": 50.1377120,
    "lon": 8.6901892
  },
  "nodes": [
    302802342,
    259154398,
    1200210709,
    1200208992,
    259154400,
    29590040,
    5535487742,
    5535487741,
    29590048,
    29590082,
    11512445126,
    29590087,
    29590142,
    5535487740,
    5535487739,
    29590150,
    259154399,
    11512445130,
    11512445134,
    3964872567,
    29590156,
    302802339,
    3964872569,
    3964872568,
    5540525986,
    7112787487,
    148083064,
    9807240027,
    148083051,
    302802337,
    3964960757,
    950411570,
    3969440265,
    5535487749,
    5540525987,
    8718802051,
    29595851,
    5535487747,
    332050632,
    332050641,
    332050639,
    332050637,
    123751950,
    259154397,
    123751969,
    12563148197,
    5540525990,
    5540525984,
    5534661434,
    29595854,
    29595855,
    29595900,
    5535487746,
    5534659318,
    5537742030,
    259154396,
    259154395,
    5537742029,
    29595859,
    950411669,
    10300442446,
    5534659317,
    10300442445,
    29595864,
    29595868,
    29595873,
    302802340,
    302802341,
    5536116508,
    5536116507,
    5536116506,
    5536116505,
    5536116504,
    5536116503,
    302802342
  ],
  "tags": {
    "landuse": "cemetery",
    "name": "Hauptfriedhof",
    "start_date": "1828",
    "website": "https://friedhof-frankfurt.de/friedhoefe/staedtische-friedhoefe/hauptfriedhof/",
    "wikidata": "Q881481",
    "wikimedia_commons": "Category:Hauptfriedhof (Frankfurt am Main)",
    "wikipedia": "de:Hauptfriedhof (Frankfurt am Main)"
  }
},
{
  "type": "way",
  "id": 4706575,
  "center": {
    "lat": 50.1357351,
    "lon": 8.6442033
  },
  "nodes": [
    29949372,
    444918717,
    444918719,
    444918723,
    444918728,
    29949374,
    36263828,
    12527047881,
    36263829,
    444918675,
    268126697,
    29949369,
    268126693,
    29949371,
    268126687,
    268126691,
    36263826,
    36263827,
    29949372
  ],
  "tags": {
    "addr:housenumber": "97",
    "addr:postcode": "60487",
    "addr:street": "Ginnheimer Landstraße",
    "barrier": "fence",
    "landuse": "cemetery",
    "name": "Friedhof Bockenheim",
    "wikidata": "Q1980130",
    "wikipedia": "de:Neuer Friedhof Bockenheim"
  }
},
{
  "type": "way",
  "id": 4719975,
  "center": {
    "lat": 50.1533520,
    "lon": 8.6370485
  },
  "nodes": [
    2636048528,
    2458411467,
    12157729813,
    107593409,
    30056439,
    336504916,
    12157727269,
    30056452,
    12849203052,
    336504894,
    30056453,
    336504911,
    12849203048,
    2636048528
  ],
  "tags": {
    "landuse": "cemetery",
    "name": "Friedhof Heddernheim",
    "opening_hours": "Nov-Feb Mo-Fr 07:00-17:00; Sa-Su 09:00-17:00; Mar,Oct Mo-Fr 07:00-18:00; Mar,Oct Sa-Su 09:00-18:00; Apr,Sep Mo-Fr 07:00-20:00; Apr,Sep Sa-Su 09:00-20:00; May-Aug Mo-Fr 07:00-21:00; May-Aug Sa-Su 09:00-21:00",
    "religion": "christian",
    "wikidata": "Q26822098",
    "wikimedia_commons": "Category:Friedhof Heddernheim"
  }
},
{
  "type": "way",
  "id": 4719978,
  "center": {
    "lat": 50.1543272,
    "lon": 8.6375384
  },
  "nodes": [
    1723909112,
    1723909111,
    1723909109,
    30056440,
    2151212817,
    1723909112
  ],
  "tags": {
    "landuse": "cemetery",
    "name": "Jüdischer Friedhof Heddernheim",
    "religion": "jewish",
    "wikidata": "Q22806802",
    "wikimedia_commons": "Category:Jüdischer Friedhof Heddernheim (Frankfurt am Main)"
  }
},
{
  "type": "way",
  "id": 4742230,
  "center": {
    "lat": 50.1604521,
    "lon": 8.6577961
  },
  "nodes": [
    30217467,
    30217477,
    30217474,
    30217472,
    769844214,
    357311691,
    6259439720,
    30217469,
    30217467
  ],
  "tags": {
    "landuse": "cemetery",
    "name": "Friedhof Eschersheim"
  }
},
{
  "type": "way",
  "id": 4764611,
  "center": {
    "lat": 50.1681120,
    "lon": 8.6144379
  },
  "nodes": [
    30431236,
    30431233,
    30431235,
    1068385629,
    11980254560,
    11980254562,
    11980254561,
    30431232,
    353906753,
    30431229,
    30431236
  ],
  "tags": {
    "landuse": "cemetery",
    "name": "Friedhof Niederursel",
    "operator": "Stadt Frankfurt am Main",
    "website": "https://friedhof-frankfurt.de/friedhoefe/staedtische-friedhoefe/niederursel/"
  }
},
{
  "type": "way",
  "id": 4795051,
  "center": {
    "lat": 50.1246917,
    "lon": 8.6479219
  },
  "nodes": [
    30764035,
    30764032,
    30764029,
    11194898794,
    11194898790,
    11194898791,
    30764033,
    11194898795,
    30764034,
    30764035
  ],
  "tags": {
    "landuse": "cemetery",
    "name": "Jüdischer Friedhof Bockenheim",
    "religion": "jewish",
    "wikidata": "Q118591105"
  }
},
{
  "type": "way",
  "id": 4805763,
  "center": {
    "lat": 50.1396279,
    "lon": 8.6029520
  },
  "nodes": [
    30844024,
    30844025,
    3733077371,
    1529492275,
    1529492282,
    299278476,
    299278440,
    30844847,
    30844848,
    299278489,
    3194334904,
    302686578,
    299278423,
    30844027,
    299278420,
    1532720245,
    12047557127,
    12047557126,
    12047557125,
    12047557124,
    1532720181,
    565584418,
    299278419,
    30844020,
    299278418,
    30844023,
    30844024
  ],
  "tags": {
    "landuse": "cemetery",
    "name": "Friedhof Westhausen",
    "website": "https://friedhof-frankfurt.de/friedhoefe/staedtische-friedhoefe/westhausen/",
    "wikidata": "Q1457445",
    "wikimedia_commons": "Category:Friedhof Westhausen",
    "wikipedia": "de:Friedhof Westhausen"
  }
},
{
  "type": "way",
  "id": 4805819,
  "center": {
    "lat": 50.1519056,
    "lon": 8.6186479
  },
  "nodes": [
    30844461,
    2631454361,
    2631454358,
    30844454,
    30844342,
    30844343,
    30844457,
    30844458,
    6913593424,
    11014019891,
    30844459,
    556995554,
    556995474,
    30844461
  ],
  "tags": {
    "barrier": "fence",
    "landuse": "cemetery",
    "name": "Friedhof Praunheim",
    "wikidata": "Q21037220"
  }
},
{
  "type": "way",
  "id": 4813487,
  "center": {
    "lat": 50.6219309,
    "lon": 8.6428845
  },
  "nodes": [
    30914031,
    30914028,
    2930694283,
    2930694281,
    2930694282,
    30914029,
    2445584930,
    30914030,
    30914031
  ],
  "tags": {
    "landuse": "cemetery",
    "name": "Friedhof Krofdorf",
    "religion": "christian"
  }
},
{
  "type": "way",
  "id": 4816030,
  "center": {
    "lat": 50.1856377,
    "lon": 8.6886826
  },
  "nodes": [
    2478046243,
    2478046239,
    2478046237,
    2478046224,
    2478046235,
    11032877621,
    11032877620,
    30934082,
    2478046241,
    2478046245,
    2478046247,
    30934083,
    2478046243
  ],
  "tags": {
    "landuse": "cemetery"
  }
},
{
  "type": "way",
  "id": 4826912,
  "center": {
    "lat": 50.1627310,
    "lon": 8.7194994
  },
  "nodes": [
    31029425,
    31029418,
    2209017369,
    2209017373,
    2209017375,
    2209017381,
    31029420,
    31029421,
    31029422,
    31029423,
    31029424,
    31029425
  ],
  "tags": {
    "alt_name": "Friedhof Heiligenstock",
    "landuse": "cemetery",
    "name": "Parkfriedhof Heiligenstock",
    "operator": "Stadt Frankfurt am Main",
    "website": "https://friedhof-frankfurt.de/friedhoefe/staedtische-friedhoefe/heiligenstock-parkfriedhof/",
    "wikidata": "Q2052702",
    "wikimedia_commons": "Category:Friedhof Heiligenstock",
    "wikipedia": "de:Parkfriedhof Heiligenstock"
  }
},
{
  "type": "way",
  "id": 4922807,
  "center": {
    "lat": 50.1817164,
    "lon": 8.6676363
  },
  "nodes": [
    32292485,
    4061924086,
    32292486,
    34031047,
    1114769268,
    32292487,
    32292488,
    4061920844,
    4061920843,
    4061920842,
    4061920841,
    4061920840,
    4061920839,
    4061924789,
    4061924088,
    32300946,
    32292485
  ],
  "tags": {
    "barrier": "fence",
    "landuse": "cemetery",
    "name": "Friedhof Bonames"
  }
},
{
  "type": "way",
  "id": 4922902,
  "center": {
    "lat": 50.1894518,
    "lon": 8.6347905
  },
  "nodes": [
    32298688,
    32299314,
    1250320510,
    1250320612,
    1250320792,
    1250320225,
    12922597100,
    32299418,
    32299419,
    3216271880,
    1250320903,
    1250321403,
    3216271867,
    32299420,
    3216271851,
    3216271847,
    1454959235,
    32299421,
    32299422,
    32298685,
    3216271909,
    32298686,
    1454959327,
    32298687,
    3216271930,
    12922597099,
    32298688
  ],
  "tags": {
    "barrier": "fence",
    "landuse": "cemetery",
    "name": "Friedhof Kalbach"
  }
},
{
  "type": "way",
  "id": 4926125,
  "center": {
    "lat": 50.2032344,
    "lon": 8.6704786
  },
  "nodes": [
    32335733,
    32335736,
    32335735,
    32335737,
    8117989103,
    32335734,
    32335733
  ],
  "tags": {
    "landuse": "cemetery",
    "name": "Friedhof Nieder-Eschbach"
  }
},
{
  "type": "way",
  "id": 4936721,
  "center": {
    "lat": 50.6405397,
    "lon": 8.6786595
  },
  "nodes": [
    32526512,
    32526513,
    32526510,
    9237549785,
    9237549784,
    32526511,
    32526512
  ],
  "tags": {
    "addr:city": "Wettenberg",
    "addr:country": "DE",
    "addr:postcode": "35435",
    "addr:street": "Am Neuen Friedhof",
    "addr:suburb": "Wißmar",
    "landuse": "cemetery",
    "name": "Friedhof Wißmar",
    "phone": "+49 641 80447",
    "website": "https://www.wettenberg.de/",
    "wheelchair": "limited"
  }
},
{
  "type": "way",
  "id": 4974249,
  "center": {
    "lat": 50.6250165,
    "lon": 8.6608842
  },
  "nodes": [
    32960889,
    32960876,
    32963417,
    32960879,
    32960880,
    32960881,
    32960882,
    32960885,
    32960886,
    32960887,
    32960888,
    32960889
  ],
  "tags": {
    "landuse": "cemetery",
    "name": "Friedhof Launsbach",
    "phone": "+49 641 80447",
    "website": "https://www.wettenberg.de/",
    "wheelchair": "limited"
  }
},
{
  "type": "way",
  "id": 5000735,
  "center": {
    "lat": 50.1960333,
    "lon": 8.5914436
  },
  "nodes": [
    33207800,
    7479546579,
    1098661399,
    1098660305,
    1098665049,
    33384642,
    33207655,
    33207658,
    33210965,
    260858570,
    1098660531,
    33211014,
    476917759,
    476917760,
    7479616483,
    7479616484,
    1098664264,
    1098663404,
    1098663330,
    1098661060,
    6836737561,
    33207762,
    1098661962,
    1098661012,
    33207758,
    7510954166,
    7510954165,
    7510954167,
    7510954168,
    1097226823,
    33207766,
    33207769,
    33207774,
    33207800
  ],
  "tags": {
    "landuse": "cemetery",
    "name": "Alter Friedhof",
    "wikidata": "Q437916",
    "wikimedia_commons": "Category:Alter Friedhof Oberursel",
    "wikipedia": "de:Alter Friedhof Oberursel"
  }
},
{
  "type": "way",
  "id": 5056703,
  "center": {
    "lat": 50.2026487,
    "lon": 8.7065906
  },
  "nodes": [
    34024220,
    34024219,
    34024218,
    34024217,
    34024220
  ],
  "tags": {
    "landuse": "cemetery",
    "name": "Alter Friedhof",
    "wheelchair": "yes"
  }
},
{
  "type": "way",
  "id": 5057429,
  "center": {
    "lat": 50.2080955,
    "lon": 8.7062537
  },
  "nodes": [
    34030713,
    1493354757,
    34030714,
    1493354771,
    34030715,
    34030716,
    2043063863,
    1493354769,
    2043063852,
    34030713
  ],
  "tags": {
    "landuse": "cemetery",
    "name": "Neuer Friedhof"
  }
},
{
  "type": "way",
  "id": 5069437,
  "center": {
    "lat": 50.0180337,
    "lon": 8.6988580
  },
  "nodes": [
    34211873,
    36141347,
    3063664962,
    34211868,
    34211921,
    2703996647,
    2703996646,
    11042819466,
    2703996644,
    2703996642,
    34211920,
    34211919,
    34211914,
    34211912,
    34211873
  ],
  "tags": {
    "landuse": "cemetery",
    "name": "Friedhof Sprendlingen",
    "religion": "christian"
  }
},
{
  "type": "way",
  "id": 5081506,
  "center": {
    "lat": 50.1805927,
    "lon": 8.5811536
  },
  "nodes": [
    280353211,
    9607559812,
    280353210,
    34556108,
    316995318,
    9607559809,
    280353207,
    1069276138,
    267009386,
    428906616,
    1069276466,
    267009410,
    267009384,
    1069276591,
    9607559813,
    280353211
  ],
  "tags": {
    "landuse": "cemetery",
    "name": "Friedhof Stierstadt"
  }
},
{
  "type": "way",
  "id": 5097771,
  "center": {
    "lat": 50.1191400,
    "lon": 8.7750459
  },
  "nodes": [
    4228841441,
    2396603013,
    4228841442,
    9550294749,
    2396603016,
    9550294750,
    34822456,
    2396675876,
    2396675888,
    4230478475,
    2396675930,
    34822458,
    2396676018,
    2396676016,
    2396676014,
    2396676008,
    34822459,
    2396316090,
    2396316086,
    2396316085,
    10226031747,
    10226031748,
    2396316084,
    2396316079,
    10226031746,
    10226031745,
    2396316080,
    2396316073,
    4230478476,
    9550294756,
    9550294757,
    9550294758,
    9550294763,
    9550294762,
    9550294761,
    2396316066,
    2396675938,
    2396675957,
    9550294751,
    2396675951,
    2396675928,
    2396675925,
    4230478474,
    3407185304,
    4228841441
  ],
  "tags": {
    "landuse": "cemetery",
    "name": "Friedhof Fechenheim",
    "religion": "christian",
    "wikidata": "Q24505377",
    "wikimedia_commons": "Category:Friedhof Fechenheim"
  }
},
{
  "type": "way",
  "id": 5105572,
  "center": {
    "lat": 50.1039148,
    "lon": 8.7804452
  },
  "nodes": [
    1854322751,
    1854322750,
    34923441,
    10771881344,
    10771881356,
    10771881357,
    34923442,
    2016105280,
    2016105281,
    2016105282,
    2016105286,
    2016105288,
    2016105289,
    2016105291,
    2016105296,
    2016105298,
    2016105303,
    2016105307,
    2016105311,
    34923443,
    10771881275,
    2016105310,
    2016105308,
    2016105306,
    34923444,
    878749481,
    2016105317,
    2016105319,
    2016105320,
    2016105321,
    2016105328,
    10771881268,
    891842261,
    10771881267,
    10771881243,
    10771881264,
    10771881263,
    10771881262,
    10771881261,
    10771881260,
    694548665,
    10771881242,
    2016105348,
    694548661,
    10771881236,
    2016105355,
    2016105356,
    2016105354,
    2016105350,
    2016105377,
    34923438,
    2016105444,
    1854322751
  ],
  "tags": {
    "landuse": "cemetery",
    "name": "Alter Friedhof",
    "opening_hours": "Nov-Feb 08:00-17:00, Mar-Oct Sa-Su, PH 08:00-18:00, Mo-Fr 07:00-18:00, Apr-Sep Sa-Su, PH 08:00-19:00, Mo-Fr 07:00-20:00",
    "wikidata": "Q31212705",
    "wikimedia_commons": "Category:Alter Friedhof (Offenbach am Main)"
  }
},
{
  "type": "way",
  "id": 5184202,
  "center": {
    "lat": 50.1023903,
    "lon": 8.6007029
  },
  "nodes": [
    36153814,
    10159075697,
    3636529679,
    3636529681,
    36153815,
    36153816,
    36153817,
    13039882398,
    13039882386,
    13039917601,
    9593655331,
    10159075696,
    9593655328,
    36153818,
    10159075695,
    36153814
  ],
  "tags": {
    "landuse": "cemetery",
    "name": "Friedhof Griesheim",
    "website": "https://friedhof-frankfurt.de/friedhoefe/staedtische-friedhoefe/griesheim/",
    "wikidata": "Q14530746",
    "wikimedia_commons": "Category:Friedhof Griesheim"
  }
},
{
  "type": "way",
  "id": 5198826,
  "center": {
    "lat": 50.1342286,
    "lon": 8.2988451
  },
  "nodes": [
    36273619,
    36273620,
    36273622,
    36273623,
    36273625,
    36273615,
    36273616,
    36273617,
    36273619
  ],
  "tags": {
    "landuse": "cemetery",
    "name": "Friedhof Naurod"
  }
},
{
  "type": "way",
  "id": 5210228,
  "center": {
    "lat": 50.6186930,
    "lon": 8.6003926
  },
  "nodes": [
    36472468,
    4331077087,
    36472471,
    4331077070,
    36472475,
    4331077065,
    4321193381,
    2836524900,
    9266727519,
    36472481,
    4321194008,
    1300800309,
    36472463,
    36472468
  ],
  "tags": {
    "landuse": "cemetery",
    "name": "Friedhof Rodheim-Bieber"
  }
},
{
  "type": "way",
  "id": 5233403,
  "center": {
    "lat": 50.1892359,
    "lon": 8.7199598
  },
  "nodes": [
    1511303308,
    36800358,
    2663230374,
    2663230378,
    2663230380,
    2663230382,
    36800359,
    2662929887,
    36800360,
    36800361,
    1500577915,
    1511303308
  ],
  "tags": {
    "landuse": "cemetery",
    "layer": "1",
    "name": "Friedhof Massenheim"
  }
},
{
  "type": "way",
  "id": 5337985,
  "center": {
    "lat": 50.2099649,
    "lon": 8.5401130
  },
  "nodes": [
    38066317,
    38066322,
    38076934,
    9217122756,
    38066327,
    38066332,
    12133763264,
    12133763263,
    1224556239,
    38066139,
    277425130,
    1224554046,
    315851140,
    38066176,
    35827215,
    38066449,
    2189858605,
    38066445,
    38066311,
    38066317
  ],
  "tags": {
    "landuse": "cemetery",
    "name": "Hauptfriedhof Oberursel",
    "wikidata": "Q18821712"
  }
},
{
  "type": "way",
  "id": 5364887,
  "center": {
    "lat": 50.1547575,
    "lon": 8.6870691
  },
  "nodes": [
    38426878,
    38426880,
    294871914,
    38426870,
    7325859228,
    38426872,
    7325859227,
    38426873,
    38426875,
    294871923,
    38426876,
    38426878
  ],
  "tags": {
    "landuse": "cemetery",
    "name": "Friedhof Preungesheim",
    "religion": "christian",
    "wikidata": "Q125704212"
  }
},
{
  "type": "way",
  "id": 5364888,
  "center": {
    "lat": 50.1491150,
    "lon": 8.6849723
  },
  "nodes": [
    1838731891,
    32016568,
    1800643663,
    1800643662,
    32016460,
    1838731888,
    1838731887,
    38426885,
    1838731889,
    38426887,
    926833650,
    1838731891
  ],
  "tags": {
    "barrier": "wall",
    "landuse": "cemetery",
    "name": "Friedhof Eckenheim",
    "religion": "christian"
  }
},
{
  "type": "way",
  "id": 5733370,
  "center": {
    "lat": 50.2140538,
    "lon": 8.6537743
  },
  "nodes": [
    43529484,
    43529493,
    6978262751,
    6978262738,
    6978262752,
    43529459,
    43529464,
    6978262753,
    43529475,
    6978262754,
    43529484
  ],
  "tags": {
    "landuse": "cemetery",
    "name": "Friedhof Ober-Eschbach"
  }
},
{
  "type": "way",
  "id": 5858537,
  "center": {
    "lat": 50.0751877,
    "lon": 8.5311215
  },
  "nodes": [
    47240537,
    47240565,
    1617043161,
    1617043173,
    1617043176,
    256596540,
    47329923,
    47240559,
    47240555,
    47240548,
    47240540,
    1617043120,
    1617043119,
    1617043121,
    47240537
  ],
  "tags": {
    "landuse": "cemetery",
    "name": "Friedhof Kelsterbach",
    "opening_hours": "Nov 01-Feb 28: 08:00-17:00; Mar 01-Apr 30: 08:00-19:00; May 01-Aug 31: 07:00-20:00; Sep 01-Oct 31: 08:00-18:00"
  }
},
{
  "type": "way",
  "id": 5933647,
  "center": {
    "lat": 50.2254506,
    "lon": 8.5598437
  },
  "nodes": [
    281277436,
    281276982,
    1286008898,
    602173671,
    48800006,
    1286012367,
    42221466,
    600381744,
    281277435,
    281277436
  ],
  "tags": {
    "landuse": "cemetery",
    "name": "Waldfriedhof Oberstedten"
  }
},
{
  "type": "way",
  "id": 6171973,
  "center": {
    "lat": 50.1851761,
    "lon": 8.7521842
  },
  "nodes": [
    51251602,
    1790451560,
    9608356423,
    1790451554,
    1790451571,
    51251605,
    2107056323,
    51251607,
    2107056316,
    51251608,
    51251610,
    2939181295,
    51251611,
    2939181296,
    2939181298,
    2939181308,
    51251612,
    51251614,
    1471210181,
    51251617,
    51251618,
    51251620,
    51251621,
    907001000,
    51251624,
    51251626,
    51251627,
    1471209890,
    51251628,
    1471209505,
    51251629,
    51251632,
    51251633,
    51251602
  ],
  "tags": {
    "landuse": "cemetery",
    "name": "Friedhof Lohstraße"
  }
},
{
  "type": "way",
  "id": 7980758,
  "center": {
    "lat": 50.1649399,
    "lon": 8.5736835
  },
  "nodes": [
    59738814,
    59738815,
    1012374136,
    1012374134,
    59738806,
    1212832182,
    59738807,
    59738808,
    59738809,
    59738810,
    1012372089,
    59738812,
    59738813,
    668941901,
    59738814
  ],
  "tags": {
    "landuse": "cemetery",
    "name": "Friedhof Steinbach"
  }
},
{
  "type": "way",
  "id": 8067477,
  "center": {
    "lat": 50.2067785,
    "lon": 8.7587761
  },
  "nodes": [
    60338460,
    12645454414,
    12645454416,
    1501731557,
    251795975,
    1501731551,
    60338450,
    60338451,
    60338453,
    60338454,
    418449927,
    60338455,
    1501731586,
    60338457,
    60338458,
    60338460
  ],
  "tags": {
    "landuse": "cemetery",
    "name": "Friedhof Dortelweil",
    "religion": "christian"
  }
},
{
  "type": "way",
  "id": 8117659,
  "center": {
    "lat": 50.1368487,
    "lon": 8.4015153
  },
  "nodes": [
    60895137,
    251485525,
    251485524,
    60895138,
    60895134,
    251485522,
    251485523,
    60895135,
    60895136,
    60895137
  ],
  "tags": {
    "landuse": "cemetery",
    "name": "Friedhof Eppstein"
  }
},
{
  "type": "way",
  "id": 8597514,
  "center": {
    "lat": 50.3351960,
    "lon": 8.7639960
  },
  "nodes": [
    61079322,
    1273518402,
    6983127255,
    1273518209,
    1273458190,
    3215432964,
    60196585,
    3215432963,
    1273458188,
    61079325,
    3211573805,
    61079326,
    61079327,
    61079328,
    3208031768,
    3208075544,
    10704400701,
    3224876569,
    3224876561,
    3215537305,
    3215537304,
    60218872,
    9646736717,
    3215537306,
    9646736718,
    1273509750,
    9646736719,
    3219584092,
    3215442109,
    9646177246,
    9646177243,
    60218871,
    60218870,
    3215442110,
    3215442112,
    3215442114,
    3215442116,
    3215442117,
    3215442118,
    3215442120,
    3215442119,
    3215442129,
    61079319,
    60732292,
    61079322
  ],
  "tags": {
    "barrier": "wall",
    "landuse": "cemetery",
    "name": "Hauptfriedhof Friedberg"
  }
},
{
  "type": "way",
  "id": 8603888,
  "center": {
    "lat": 50.0860362,
    "lon": 8.6306140
  },
  "nodes": [
    61164411,
    61164412,
    4560000389,
    2895729608,
    10734935098,
    10734935099,
    2895729612,
    2895729611,
    2895729619,
    61164413,
    61164410,
    10734981276,
    61164411
  ],
  "tags": {
    "landuse": "cemetery",
    "name": "Friedhof Niederrad",
    "operator": "Stadt Frankfurt am Main",
    "website": "https://friedhof-frankfurt.de/friedhoefe/staedtische-friedhoefe/niederrad/",
    "wikidata": "Q24846906",
    "wikimedia_commons": "Category:Friedhof Frankfurt-Niederrad",
    "wikipedia": "de:Friedhof Niederrad"
  }
},
{
  "type": "way",
  "id": 8662609,
  "center": {
    "lat": 50.0756452,
    "lon": 8.6047499
  },
  "nodes": [
    61817113,
    61817114,
    61817115,
    1905797735,
    5536868407,
    61817116,
    61817117,
    61817118,
    61817113
  ],
  "tags": {
    "landuse": "cemetery",
    "name": "Waldfriedhof Goldstein"
  }
},
{
  "type": "way",
  "id": 8742154,
  "center": {
    "lat": 50.3552522,
    "lon": 8.7369501
  },
  "nodes": [
    62686449,
    62686450,
    4166163676,
    5600418197,
    62686451,
    11375144257,
    4163863663,
    4163863664,
    62686452,
    4166166423,
    4163863667,
    62686453,
    4163863665,
    5600418154,
    5600418152,
    62686449
  ],
  "tags": {
    "barrier": "wall",
    "landuse": "cemetery",
    "name": "Kernstadtfriedhof",
    "wheelchair": "yes"
  }
},
{
  "type": "way",
  "id": 8801090,
  "center": {
    "lat": 50.2462477,
    "lon": 8.6237345
  },
  "nodes": [
    63411622,
    63411624,
    63411625,
    63411627,
    3292027785,
    3292027783,
    63411622
  ],
  "tags": {
    "heritage": "yes",
    "landuse": "cemetery",
    "layer": "1",
    "name": "Waldfriedhof",
    "wikidata": "Q29646534",
    "wikimedia_commons": "Category:Waldfriedhof (Bad Homburg vor der Höhe)",
    "wikipedia": "de:Waldfriedhof (Bad Homburg vor der Höhe)"
  }
},
{
  "type": "way",
  "id": 8809140,
  "center": {
    "lat": 50.2286037,
    "lon": 8.6832363
  },
  "nodes": [
    63510374,
    63510375,
    63510377,
    63510369,
    1631518610,
    1631518613,
    12607695368,
    1657430985,
    1657430994,
    1657431004,
    63510372,
    63510373,
    251733938,
    63510374
  ],
  "tags": {
    "landuse": "cemetery",
    "name": "Friedhof Ober-Erlenbach"
  }
},
{
  "type": "way",
  "id": 8877696,
  "center": {
    "lat": 50.3966389,
    "lon": 8.0871379
  },
  "nodes": [
    64704687,
    5168894073,
    5168894072,
    5168894074,
    64704688,
    64704691,
    11261209357,
    11261209358,
    64704692,
    64704687
  ],
  "tags": {
    "cemetery": "war_cemetery",
    "heritage": "4",
    "heritage:operator": "LfDH",
    "heritage:website": "http://denkxweb.denkmalpflege-hessen.de/52872/",
    "landuse": "cemetery",
    "name": "Kriegsgräberstätte",
    "ref:LfDH": "52872"
  }
},
{
  "type": "way",
  "id": 9014832,
  "center": {
    "lat": 50.3477230,
    "lon": 8.7903388
  },
  "nodes": [
    66203601,
    3380521304,
    3380521303,
    8081965713,
    66203596,
    9705575844,
    9705575841,
    4095791509,
    66203597,
    4095791513,
    9705575833,
    9705575832,
    66203599,
    8081965716,
    8081975917,
    3380544785,
    66203600,
    10708037991,
    409685041,
    8081965706,
    8081965709,
    8081965711,
    66203601
  ],
  "tags": {
    "barrier": "wall",
    "landuse": "cemetery",
    "name": "Friedhof Dorheim"
  }
},
{
  "type": "way",
  "id": 9025375,
  "center": {
    "lat": 50.4572195,
    "lon": 8.1188181
  },
  "nodes": [
    66305311,
    12214062234,
    66305315,
    66305323,
    5040476802,
    5273829360,
    5040476814,
    66305329,
    66305311
  ],
  "tags": {
    "landuse": "cemetery",
    "name": "Friedhof Obertiefenbach"
  }
},
{
  "type": "way",
  "id": 9059322,
  "center": {
    "lat": 50.1641408,
    "lon": 8.5207156
  },
  "nodes": [
    66787577,
    66787578,
    66787579,
    9752666557,
    250611274,
    165241703,
    66787580,
    165241226,
    165241227,
    66787581,
    66787582,
    5698853324,
    66787583,
    66787577
  ],
  "tags": {
    "landuse": "cemetery",
    "name": "Waldfriedhof",
    "opening_hours": "07:00-20:00"
  }
},
{
  "type": "way",
  "id": 9217320,
  "center": {
    "lat": 50.3020945,
    "lon": 8.7104314
  },
  "nodes": [
    68814406,
    68814407,
    68814408,
    5429000867,
    9741638147,
    5429000868,
    5429000869,
    5429000870,
    68814409,
    68814406
  ],
  "tags": {
    "landuse": "cemetery",
    "name": "Friedhof Nieder-Rosbach"
  }
},
{
  "type": "way",
  "id": 9224262,
  "center": {
    "lat": 50.3061181,
    "lon": 8.6904607
  },
  "nodes": [
    68930038,
    4129067224,
    9730853126,
    68930040,
    9730853127,
    9730853128,
    68930041,
    4129067386,
    68930042,
    68930043,
    9731093998,
    68930044,
    9730850166,
    9730850165,
    9731094069,
    9731094072,
    9731094073,
    9731094078,
    9731094077,
    68930038
  ],
  "tags": {
    "barrier": "wall",
    "landuse": "cemetery",
    "name": "Friedhof Ober-Rosbach"
  }
},
{
  "type": "way",
  "id": 9254877,
  "center": {
    "lat": 50.1170198,
    "lon": 8.5478005
  },
  "nodes": [
    69341540,
    12496824913,
    69341543,
    677528613,
    69341547,
    69341548,
    69341551,
    69341552,
    69341553,
    69341555,
    2184121189,
    69341556,
    69341557,
    2076314284,
    69341559,
    69341560,
    69341540
  ],
  "tags": {
    "landuse": "cemetery",
    "name": "Friedhof Höchst",
    "toilets:wheelchair": "yes",
    "wheelchair": "yes",
    "wikidata": "Q1457346",
    "wikimedia_commons": "Category:Friedhof Höchst",
    "wikipedia": "de:Friedhof Höchst"
  }
},
{
  "type": "way",
  "id": 9264009,
  "center": {
    "lat": 50.1494289,
    "lon": 8.7498617
  },
  "nodes": [
    10247027742,
    472593871,
    69450170,
    472593861,
    69450174,
    1667863117,
    472593867,
    69450177,
    69450180,
    1667863152,
    1667863148,
    1667863145,
    1667863146,
    1667863150,
    8300134083,
    69450184,
    472593878,
    10247027742
  ],
  "tags": {
    "landuse": "cemetery",
    "name": "Friedhof Enkheim"
  }
},
{
  "type": "way",
  "id": 9369753,
  "center": {
    "lat": 50.1699982,
    "lon": 8.8599648
  },
  "nodes": [
    71023541,
    2268599546,
    2268599544,
    1978237240,
    71023549,
    6112754255,
    71023558,
    3788584436,
    71023562,
    2268562029,
    71023568,
    2268562027,
    11547014163,
    11547014162,
    1978237267,
    2268599621,
    2268599593,
    71023541
  ],
  "tags": {
    "barrier": "wall",
    "landuse": "cemetery",
    "name": "Alter Friedhof"
  }
},
{
  "type": "way",
  "id": 9377355,
  "center": {
    "lat": 50.1488911,
    "lon": 8.7947312
  },
  "nodes": [
    31028591,
    1092581826,
    71159245,
    258901683,
    2291440261,
    2291425361,
    2291440270,
    2291425373,
    258901682,
    3712426266,
    1092581995,
    1092581821,
    2289421100,
    3712426272,
    31028592,
    31028591
  ],
  "tags": {
    "landuse": "cemetery",
    "name": "Friedhof Bischofsheim"
  }
},
{
  "type": "way",
  "id": 9703300,
  "center": {
    "lat": 50.2241705,
    "lon": 8.7854996
  },
  "nodes": [
    76471862,
    242054985,
    76471860,
    2065235206,
    2065235207,
    76471837,
    1977191958,
    1977191957,
    76471861,
    76471862
  ],
  "tags": {
    "landuse": "cemetery",
    "name": "Waldfriedhof Klein Karben"
  }
},
{
  "type": "way",
  "id": 10361174,
  "center": {
    "lat": 50.0470885,
    "lon": 8.7027110
  },
  "nodes": [
    87860590,
    3387880501,
    968836303,
    3176988724,
    2742944731,
    2742944729,
    2742944734,
    3427774040,
    1525395206,
    1525395221,
    3427774044,
    1525395239,
    1525395361,
    968836308,
    3427774075,
    1521041359,
    2742944793,
    1521041357,
    2742944788,
    1521041348,
    3729158357,
    968836312,
    2742944783,
    1521041314,
    968836311,
    968836300,
    87860592,
    1528684024,
    1528683830,
    1528683608,
    2742944462,
    3387880424,
    1528683013,
    1528682873,
    1528682836,
    1528682800,
    87860589,
    2453748698,
    3729157423,
    3387880394,
    968836290,
    3729157428,
    3387880393,
    3729157422,
    3729157411,
    3729157410,
    2453748695,
    87860590
  ],
  "tags": {
    "addr:city": "Neu-Isenburg",
    "addr:country": "DE",
    "addr:housenumber": "55",
    "addr:postcode": "63263",
    "addr:street": "Friedhofstraße",
    "landuse": "cemetery",
    "name": "Alter Friedhof Neu-Isenburg",
    "religion": "christian"
  }
},
{
  "type": "way",
  "id": 10426040,
  "center": {
    "lat": 50.0948771,
    "lon": 8.7226558
  },
  "nodes": [
    89135780,
    89135781,
    89135783,
    2913177420,
    2913177423,
    10159943398,
    89135785,
    89135780
  ],
  "tags": {
    "landuse": "cemetery",
    "name": "Alter Friedhof Oberrad"
  }
},
{
  "type": "way",
  "id": 10426208,
  "center": {
    "lat": 50.0924979,
    "lon": 8.7313343
  },
  "nodes": [
    89137979,
    89137980,
    89137981,
    89137982,
    89137983,
    89137984,
    89137985,
    3022706646,
    3022706631,
    89137986,
    3022706670,
    9590558535,
    9590558524,
    9590558533,
    9590558534,
    89137988,
    89137979
  ],
  "tags": {
    "landuse": "cemetery",
    "name": "Waldfriedhof Oberrad",
    "toilets:wheelchair": "no",
    "website": "https://friedhof-frankfurt.de/friedhoefe/staedtische-friedhoefe/oberrad-waldfriedhof/",
    "wheelchair": "limited",
    "wikidata": "Q14856894",
    "wikimedia_commons": "Category:Waldfriedhof Oberrad"
  }
},
{
  "type": "way",
  "id": 10695140,
  "center": {
    "lat": 50.2457493,
    "lon": 8.6506868
  },
  "nodes": [
    94811281,
    94569413,
    2525091827,
    94811278,
    2525091816,
    2525091815,
    93680778,
    3414276328,
    2525091803,
    2525091811,
    2525091810,
    2525091806,
    2525091802,
    2525091801,
    2525091800,
    2525091813,
    93680777,
    93680776,
    93680775,
    2060720544,
    93680772,
    2525091835,
    94811281
  ],
  "tags": {
    "landuse": "cemetery",
    "name": "Friedhof Seulberg"
  }
},
{
  "type": "way",
  "id": 10695767,
  "center": {
    "lat": 50.2589512,
    "lon": 8.6372411
  },
  "nodes": [
    416708939,
    1492384142,
    416343795,
    416344761,
    94820451,
    416343806,
    841825117,
    416343799,
    254506417,
    94828933,
    416708938,
    416708939
  ],
  "tags": {
    "barrier": "wall",
    "landuse": "cemetery",
    "name": "Hauptfriedhof",
    "wikimedia_commons": "File:Friedrichsdorf, Friedhof, Grab Philipp Reis.jpg"
  }
},
{
  "type": "way",
  "id": 10698430,
  "center": {
    "lat": 50.1060157,
    "lon": 8.3916572
  },
  "nodes": [
    94922346,
    12519003761,
    94922347,
    1485104930,
    1485104934,
    94922348,
    1932954883,
    1932954885,
    94922346
  ],
  "tags": {
    "landuse": "cemetery",
    "name": "Friedhof Langenhain",
    "wheelchair": "limited",
    "wheelchair:description": "Bei Nässe problematisch"
  }
},
{
  "type": "way",
  "id": 11010789,
  "center": {
    "lat": 50.0979960,
    "lon": 8.8619627
  },
  "nodes": [
    98061038,
    98061041,
    1463007941,
    49467037,
    2086620006,
    1463007939,
    49467029,
    2430463280,
    98061050,
    98061038
  ],
  "tags": {
    "landuse": "cemetery",
    "name": "Friedhof Lämmerspiel"
  }
},
{
  "type": "way",
  "id": 11019055,
  "center": {
    "lat": 50.1122011,
    "lon": 8.6904478
  },
  "nodes": [
    98159142,
    98159143,
    845735410,
    845735438,
    98159144,
    9838726687,
    9838726686,
    9838726685,
    98159145,
    2961175414,
    98159146,
    863170345,
    863170578,
    98159150,
    2961310965,
    9838726684,
    9838726683,
    1854338346,
    9838726682,
    1854338342,
    1854338344,
    98159142
  ],
  "tags": {
    "barrier": "wall",
    "landuse": "cemetery",
    "name": "Jüdischer Friedhof Battonnstraße",
    "name:de": "Jüdischer Friedhof Battonnstraße",
    "name:en": "Old Jewish Cemetery",
    "religion": "jewish",
    "wikidata": "Q1716639",
    "wikipedia": "de:Jüdischer Friedhof Battonnstraße"
  }
},
{
  "type": "way",
  "id": 11300378,
  "center": {
    "lat": 50.0886617,
    "lon": 8.8702026
  },
  "nodes": [
    100444569,
    465626754,
    52087037,
    100444571,
    49545428,
    100444573,
    49545424,
    36140740,
    300237562,
    100444581,
    100444584,
    4095667937,
    100444587,
    100444590,
    3508746504,
    100444569
  ],
  "tags": {
    "landuse": "cemetery",
    "name": "Friedhof Schwarzbachstraße"
  }
},
{
  "type": "way",
  "id": 11667298,
  "center": {
    "lat": 50.2848497,
    "lon": 8.7748525
  },
  "nodes": [
    104342420,
    104342421,
    290532265,
    290532242,
    104342422,
    104342424,
    290532238,
    290532259,
    9761647012,
    104342420
  ],
  "tags": {
    "landuse": "cemetery",
    "name": "Friedhof Nieder-Wöllstadt",
    "noname": "yes"
  }
},
{
  "type": "way",
  "id": 11682161,
  "center": {
    "lat": 50.0218553,
    "lon": 8.4390032
  },
  "nodes": [
    1852874319,
    1852874314,
    104485888,
    104485889,
    104485890,
    104485887,
    11249173219,
    902397405,
    11249173214,
    957134561,
    11249173222,
    11249173223,
    11249173224,
    11249173225,
    1852874319
  ],
  "tags": {
    "alt_name": "Friedhof Flörsheim",
    "landuse": "cemetery",
    "name": "Neuer Friedhof"
  }
},
{
  "type": "way",
  "id": 14994725,
  "center": {
    "lat": 50.1327669,
    "lon": 8.6888545
  },
  "nodes": [
    148083051,
    148083056,
    5540525967,
    9808064025,
    9807240027,
    148083051
  ],
  "tags": {
    "building": "crypts",
    "cemetery": "sector",
    "name": "Gruften",
    "ref": "Gruften"
  }
},
{
  "type": "way",
  "id": 15218589,
  "center": {
    "lat": 50.1558730,
    "lon": 8.4998445
  },
  "nodes": [
    150536135,
    150536141,
    150536140,
    4210858292,
    4210858288,
    4210858287,
    150536139,
    150536138,
    9492283396,
    1494053195,
    150536136,
    2270401196,
    150536135
  ],
  "tags": {
    "landuse": "cemetery",
    "name": "Friedhof Neuenhain",
    "source": "yahoo / local knowledge"
  }
},
{
  "type": "way",
  "id": 15242963,
  "center": {
    "lat": 50.1767770,
    "lon": 8.5210594
  },
  "nodes": [
    151002613,
    9372695075,
    9372695076,
    151002614,
    167005253,
    151002615,
    9372695086,
    151002616,
    9372695111,
    151002613
  ],
  "tags": {
    "alt_name": "Friedhof Frankfurter Straße",
    "landuse": "cemetery",
    "name": "Friedhof Kronberg",
    "operator": "Stadt Kronberg im Taunus",
    "wheelchair": "yes"
  }
},
{
  "type": "way",
  "id": 15242979,
  "center": {
    "lat": 50.1823643,
    "lon": 8.5219905
  },
  "nodes": [
    151002795,
    5283592758,
    151002796,
    5283585302,
    5283585300,
    151002798,
    151002799,
    151002800,
    151002801,
    151002795
  ],
  "tags": {
    "barrier": "fence",
    "landuse": "cemetery",
    "name": "Friedhof Schönberg",
    "wheelchair": "yes"
  }
},
{
  "type": "way",
  "id": 15431201,
  "center": {
    "lat": 50.2727700,
    "lon": 8.7053275
  },
  "nodes": [
    153058500,
    153058502,
    153058503,
    153058504,
    153058500
  ],
  "tags": {
    "landuse": "cemetery",
    "name": "Friedhof Rodheim"
  }
},
{
  "type": "way",
  "id": 15574877,
  "center": {
    "lat": 50.0078578,
    "lon": 8.5716542
  },
  "nodes": [
    2586224401,
    10824349987,
    10824349979,
    10824349978,
    10824349980,
    2562751476,
    10824349981,
    10824349984,
    2562751459,
    10824349977,
    10824349976,
    10852438002,
    10875829020,
    10852438003,
    10824349989,
    155361285,
    10824349990,
    2562751408,
    4280968141,
    155361286,
    10824349995,
    10824350003,
    10824350002,
    10852425481,
    10824349997,
    155361288,
    2562729605,
    10824350001,
    10824410806,
    10824410807,
    10824438610,
    10824410809,
    10824438609,
    10824410810,
    10824410811,
    10824410812,
    2586224398,
    2586224399,
    2586224401
  ],
  "tags": {
    "landuse": "cemetery",
    "name": "Friedhof Walldorf",
    "religion": "christian",
    "website": "https://www.moerfelden-walldorf.de/de/rathaus/verwaltung/friedhoefe/"
  }
},
{
  "type": "way",
  "id": 17524451,
  "center": {
    "lat": 50.5904395,
    "lon": 8.4660637
  },
  "nodes": [
    181516542,
    181516543,
    181516545,
    181516548,
    181516550,
    1638996158,
    10825546857,
    181516552,
    1638996160,
    12714467817,
    9908446334,
    9908446325,
    6710641306,
    181516555,
    11154575614,
    343022931,
    8174290903,
    9908446322,
    181516557,
    9908446320,
    181516558,
    9908446321,
    1521631183,
    9908446327,
    9908446328,
    181516564,
    9908438105,
    181516567,
    9908438104,
    9908438107,
    9908438106,
    181516568,
    9908446329,
    9908446330,
    10827050721,
    181516570,
    9623615408,
    181516571,
    181516572,
    9623633420,
    181516542
  ],
  "tags": {
    "landuse": "cemetery",
    "name": "Friedhof Aßlar"
  }
},
{
  "type": "way",
  "id": 19079275,
  "center": {
    "lat": 50.1793585,
    "lon": 8.5464834
  },
  "nodes": [
    1032879751,
    1032879827,
    197774064,
    197774066,
    608607001,
    197771094,
    197771096,
    1032879658,
    197772838,
    197772839,
    197774974,
    197774975,
    197774976,
    197774978,
    197774979,
    1032880038,
    197774980,
    197771098,
    7417895202,
    7417895201,
    1032879751
  ],
  "tags": {
    "landuse": "cemetery",
    "name": "Friedhof Oberhöchstadt"
  }
},
{
  "type": "way",
  "id": 19175499,
  "center": {
    "lat": 50.2263015,
    "lon": 8.2718495
  },
  "nodes": [
    198846787,
    198846808,
    198846801,
    198846795,
    198846787
  ],
  "tags": {
    "landuse": "cemetery",
    "name": "Jüdischer Friedhof",
    "religion": "jewish",
    "source": "bing",
    "wikidata": "Q1716282"
  }
},
{
  "type": "way",
  "id": 19207763,
  "center": {
    "lat": 50.1241327,
    "lon": 8.7827675
  },
  "nodes": [
    199305297,
    199305307,
    1631859497,
    199305316,
    199305327,
    1624587623,
    1624587617,
    1624587615,
    1624587614,
    199305336,
    1624587613,
    1624587612,
    1624587609,
    1624587606,
    199305343,
    199305297
  ],
  "tags": {
    "landuse": "cemetery",
    "name": "Friedhof Bürgel",
    "religion": "christian"
  }
},
{
  "type": "way",
  "id": 19207764,
  "center": {
    "lat": 50.1222067,
    "lon": 8.7841768
  },
  "nodes": [
    199305347,
    199305352,
    199305355,
    199305358,
    1996495333,
    199305362,
    1996495325,
    199305365,
    1624587230,
    199305347
  ],
  "tags": {
    "landuse": "cemetery",
    "name": "Friedhof Bürgel",
    "religion": "christian"
  }
},
{
  "type": "way",
  "id": 19212324,
  "center": {
    "lat": 50.5556474,
    "lon": 8.6496130
  },
  "nodes": [
    1639333119,
    1654684784,
    1654684781,
    1654684778,
    6152983772,
    343558546,
    9433166434,
    9433166433,
    199428890,
    1639333119
  ],
  "tags": {
    "landuse": "cemetery",
    "name": "Friedhof Kleinlinden"
  }
},
{
  "type": "way",
  "id": 19594789,
  "center": {
    "lat": 50.1323713,
    "lon": 8.7949676
  },
  "nodes": [
    203475814,
    1992608297,
    1992608300,
    1992608317,
    1992608322,
    203475852,
    1992608282,
    1992608293,
    1992608236,
    1992608266,
    1992608285,
    203475820,
    1992608136,
    1992608135,
    1992608071,
    1992608044,
    203475826,
    203475830,
    203475838,
    1992607932,
    1992607933,
    1992607934,
    1992607935,
    1992607936,
    203475844,
    1992608112,
    1992608121,
    203475814
  ],
  "tags": {
    "landuse": "cemetery",
    "name": "Friedhof Rumpenheim",
    "religion": "christian"
  }
},
{
  "type": "way",
  "id": 19607925,
  "center": {
    "lat": 50.4821106,
    "lon": 8.7576831
  },
  "nodes": [
    203622715,
    203622728,
    203622734,
    203622756,
    4244727057,
    4244727061,
    203622762,
    203622715
  ],
  "tags": {
    "landuse": "cemetery",
    "name": "Friedhof Eberstadt"
  }
},
{
  "type": "way",
  "id": 19619031,
  "center": {
    "lat": 50.1302555,
    "lon": 8.7762038
  },
  "nodes": [
    203708920,
    203708933,
    2014622790,
    203708938,
    9067153802,
    203708940,
    203708920
  ],
  "tags": {
    "barrier": "wall",
    "landuse": "cemetery",
    "name": "Jüdischer Friedhof Bürgel",
    "religion": "jewish",
    "wikidata": "Q108506551",
    "wikipedia": "en:Jewish cemetery Offenbach-Bürgel"
  }
},
{
  "type": "way",
  "id": 19740897,
  "center": {
    "lat": 50.5494873,
    "lon": 8.6096576
  },
  "nodes": [
    205264341,
    205264344,
    205264348,
    205264351,
    205264354,
    205264371,
    205264374,
    205264377,
    205264380,
    205264341
  ],
  "tags": {
    "landuse": "cemetery",
    "name": "Friedhof Allendorf"
  }
},
{
  "type": "way",
  "id": 19742511,
  "center": {
    "lat": 50.5381208,
    "lon": 8.6260319
  },
  "nodes": [
    205286806,
    9449786116,
    9449885817,
    9449885818,
    9449885819,
    205286809,
    205286812,
    205286815,
    996676398,
    9449885826,
    996676248,
    9449885825,
    205286806
  ],
  "tags": {
    "landuse": "cemetery",
    "name": "Friedhof Lützellinden",
    "wikidata": "Q47500798"
  }
},
{
  "type": "way",
  "id": 19785016,
  "center": {
    "lat": 50.1162899,
    "lon": 8.4964413
  },
  "nodes": [
    206134479,
    206134480,
    206134481,
    206134482,
    12596675789,
    206134483,
    206134484,
    206134485,
    3247853165,
    3247853163,
    2468084694,
    206134486,
    206134479
  ],
  "tags": {
    "landuse": "cemetery",
    "name": "Friedhof Zeilsheimer Weg"
  }
},
{
  "type": "way",
  "id": 19786255,
  "center": {
    "lat": 50.1037169,
    "lon": 8.5696783
  },
  "nodes": [
    206143481,
    206143483,
    1739530576,
    1739530560,
    1739530554,
    206143489,
    1142694642,
    206143481
  ],
  "tags": {
    "landuse": "cemetery",
    "name": "Friedhof Nied",
    "wikidata": "Q112225451",
    "wikimedia_commons": "Category:Friedhof Nied"
  }
},
{
  "type": "way",
  "id": 19787099,
  "center": {
    "lat": 50.5471643,
    "lon": 8.5769422
  },
  "nodes": [
    206151549,
    4970366870,
    206151550,
    11243331997,
    206151552,
    206151553,
    206151549
  ],
  "tags": {
    "barrier": "fence",
    "landuse": "cemetery",
    "website": "https://www.wetzlar.de/leben-in-wetzlar/bestattungswesen/friedhof-muenchholzhausen.php"
  }
},
{
  "type": "way",
  "id": 19787402,
  "center": {
    "lat": 50.0761559,
    "lon": 8.9510038
  },
  "nodes": [
    206153899,
    2063702119,
    206153900,
    2063702108,
    2063702106,
    2063702107,
    2064021634,
    2063702105,
    1399714367,
    1399713798,
    1399714219,
    1399714006,
    2064021607,
    206153901,
    2064021649,
    1414737590,
    2064021685,
    2064021684,
    2064021693,
    2064021698,
    1414737223,
    206153899
  ],
  "tags": {
    "landuse": "cemetery",
    "name": "Friedhof Hainstadt"
  }
},
{
  "type": "way",
  "id": 20319178,
  "center": {
    "lat": 50.2187676,
    "lon": 8.2740661
  },
  "nodes": [
    215714983,
    215714973,
    215715252,
    215715244,
    215715236,
    215715231,
    215715228,
    215715197,
    215715190,
    215715186,
    215715180,
    215715173,
    215715169,
    215715165,
    215715160,
    215715153,
    215715147,
    215715136,
    215715135,
    215715117,
    10303261645,
    8691159062,
    8691159066,
    8691159067,
    215714983
  ],
  "tags": {
    "landuse": "cemetery",
    "name": "Friedhof Idstein"
  }
},
{
  "type": "way",
  "id": 20411345,
  "center": {
    "lat": 50.0113149,
    "lon": 8.3058103
  },
  "nodes": [
    2660101423,
    2660101424,
    217687820,
    2660101433,
    2660101454,
    2660101461,
    217687821,
    217687822,
    217687823,
    4081721418,
    4081721425,
    4081721445,
    4081721464,
    4081721462,
    2660101412,
    2660101423
  ],
  "tags": {
    "barrier": "wall",
    "landuse": "cemetery"
  }
},
{
  "type": "way",
  "id": 21349146,
  "center": {
    "lat": 50.5587641,
    "lon": 8.6029367
  },
  "nodes": [
    229612730,
    229612737,
    229612741,
    1411965569,
    1411965568,
    1411965565,
    1411965563,
    229612746,
    1411965564,
    229612750,
    229612756,
    229612730
  ],
  "tags": {
    "landuse": "cemetery",
    "name": "Friedhof Dutenhofen",
    "website": "https://www.wetzlar.de/leben-in-wetzlar/bestattungswesen/friedhof-dutenhofen.php"
  }
},
{
  "type": "way",
  "id": 22735696,
  "center": {
    "lat": 50.1363685,
    "lon": 8.8983667
  },
  "nodes": [
    805042847,
    257373473,
    274930730,
    243887319,
    243887320,
    271147013,
    243887317,
    1004227510,
    1013125865,
    243887318,
    2424346808,
    2424346815,
    2424346824,
    2424346853,
    2424346879,
    2424346904,
    2424346923,
    2424346967,
    2424347046,
    2424347149,
    2424347174,
    805042847
  ],
  "tags": {
    "barrier": "fence",
    "landuse": "cemetery",
    "name": "Friedhof Kesselstadt",
    "religion": "christian"
  }
},
{
  "type": "way",
  "id": 22795523,
  "center": {
    "lat": 50.1508682,
    "lon": 8.5520170
  },
  "nodes": [
    1290306700,
    245042488,
    2062974836,
    2062974846,
    2062974849,
    1290306699,
    11051239281,
    11051239286,
    11051239285,
    11051239266,
    2062974844,
    2062974841,
    245042490,
    245042491,
    1290306700
  ],
  "tags": {
    "barrier": "fence",
    "landuse": "cemetery",
    "name": "Friedhof Niederhöchstadt"
  }
},
{
  "type": "way",
  "id": 22796375,
  "center": {
    "lat": 50.6026562,
    "lon": 8.7503518
  },
  "nodes": [
    245061780,
    2087907179,
    2087907183,
    2087907185,
    245061781,
    245061797,
    245061784,
    9507104224,
    245061785,
    245061788,
    245061780
  ],
  "tags": {
    "landuse": "cemetery",
    "name": "Friedhof Rödgen"
  }
},
{
  "type": "way",
  "id": 22812441,
  "center": {
    "lat": 50.6107297,
    "lon": 8.7522022
  },
  "nodes": [
    245409200,
    4210763311,
    245409201,
    4237571702,
    4237571699,
    4210763309,
    4210763310,
    245409203,
    245409204,
    245409200
  ],
  "tags": {
    "landuse": "cemetery",
    "name": "Friedhof Trohe"
  }
},
{
  "type": "way",
  "id": 22813455,
  "center": {
    "lat": 50.6241026,
    "lon": 8.7515567
  },
  "nodes": [
    245423148,
    245423151,
    245423152,
    2119990540,
    2119990535,
    245423154,
    245423148
  ],
  "tags": {
    "landuse": "cemetery",
    "name": "Friedhof Alten-Buseck"
  }
},
{
  "type": "way",
  "id": 22920431,
  "center": {
    "lat": 50.8132308,
    "lon": 8.6873309
  },
  "nodes": [
    246804313,
    246804314,
    245298650,
    245298652,
    245298656,
    246804318,
    246804313
  ],
  "tags": {
    "landuse": "cemetery",
    "name": "Friedhof Elnhausen",
    "religion": "christian"
  }
},
{
  "type": "way",
  "id": 22933373,
  "center": {
    "lat": 50.1924705,
    "lon": 8.4623951
  },
  "nodes": [
    247049388,
    47939282,
    2195185813,
    2195185811,
    47939275,
    10685555767,
    10685555766,
    247049392,
    247049393,
    47939268,
    11950344027,
    11950344026,
    11950344025,
    11950344024,
    247049395,
    10685555764,
    10685555763,
    10685555743,
    9546973838,
    247049396,
    9546973844,
    9546973843,
    247049397,
    9546973847,
    9546973841,
    9546973850,
    2572677183,
    9546973848,
    2572677182,
    2572677181,
    9546961701,
    9546961703,
    313549120,
    10685555768,
    9546973855,
    247049399,
    9546973857,
    9546973860,
    247049400,
    247049401,
    7899377744,
    247049402,
    10685555749,
    10685555754,
    10685555753,
    10685555748,
    247049388
  ],
  "tags": {
    "landuse": "cemetery",
    "name": "Friedhof Königstein",
    "operator": "Stadt Königstein im Taunus"
  }
},
{
  "type": "way",
  "id": 22946614,
  "center": {
    "lat": 50.8667284,
    "lon": 8.8080810
  },
  "nodes": [
    247215291,
    247215293,
    247215297,
    247215300,
    247215306,
    247215291
  ],
  "tags": {
    "amenity": "grave_yard",
    "religion": "christian"
  }
},
{
  "type": "way",
  "id": 22982281,
  "center": {
    "lat": 50.5781439,
    "lon": 8.7481839
  },
  "nodes": [
    247751955,
    247751952,
    247751957,
    247751958,
    2140198966,
    1779812234,
    247751955
  ],
  "tags": {
    "landuse": "cemetery",
    "name": "Friedhof Annerod"
  }
},
{
  "type": "way",
  "id": 22986883,
  "center": {
    "lat": 50.5912383,
    "lon": 8.4241138
  },
  "nodes": [
    247800407,
    247800409,
    247800410,
    247800412,
    247800414,
    247800407
  ],
  "tags": {
    "landuse": "cemetery",
    "name": "Friedhof Berghausen"
  }
},
{
  "type": "way",
  "id": 23063609,
  "center": {
    "lat": 50.1749156,
    "lon": 8.5045071
  },
  "nodes": [
    248881726,
    250665814,
    248881727,
    250665815,
    3975596535,
    248881728,
    250665816,
    248881729,
    3975596665,
    248881731,
    248881726
  ],
  "tags": {
    "landuse": "cemetery",
    "name": "Friedhof Thalerfeld",
    "operator": "Stadt Kronberg im Taunus"
  }
},
{
  "type": "way",
  "id": 23064908,
  "center": {
    "lat": 50.1550171,
    "lon": 8.8377310
  },
  "nodes": [
    248898842,
    10709417635,
    2035508370,
    2035508371,
    2035605023,
    10709417636,
    248898844,
    2035508359,
    7359873108,
    248898845,
    2035604858,
    2038882634,
    1676648474,
    1274535070,
    248898847,
    10709417634,
    248898842
  ],
  "tags": {
    "landuse": "cemetery",
    "name": "Alter Friedhof"
  }
},
{
  "type": "way",
  "id": 23065404,
  "center": {
    "lat": 50.1553107,
    "lon": 8.8340297
  },
  "nodes": [
    248903287,
    248903300,
    1676790189,
    1676790197,
    8582672964,
    10980408674,
    10980408675,
    10980408676,
    10980408677,
    10980408679,
    10980408678,
    8582672965,
    10980408672,
    10980408682,
    248903301,
    248903302,
    248903287
  ],
  "tags": {
    "landuse": "cemetery",
    "name": "Neuer Friedhof Hochstadt"
  }
},
{
  "type": "way",
  "id": 23094392,
  "center": {
    "lat": 50.1567976,
    "lon": 8.4207148
  },
  "nodes": [
    249299915,
    249299916,
    249299918,
    249299925,
    249299933,
    249299937,
    2571726494,
    3970249804,
    11951433471,
    1526388501,
    1526388504,
    1526388505,
    1526388520,
    3970249834,
    3970249835,
    249299941,
    249299944,
    249299915
  ],
  "tags": {
    "landuse": "cemetery",
    "name": "Friedhof Fischbach"
  }
},
{
  "type": "way",
  "id": 23105010,
  "center": {
    "lat": 50.3437537,
    "lon": 8.5895195
  },
  "nodes": [
    249445295,
    249445296,
    38902601,
    249445299,
    249445295
  ],
  "tags": {
    "landuse": "cemetery",
    "name": "Friedhof Kransberg"
  }
},
{
  "type": "way",
  "id": 23124124,
  "center": {
    "lat": 50.1315594,
    "lon": 8.5334045
  },
  "nodes": [
    5153354925,
    249664730,
    249664731,
    5590625298,
    249664732,
    249664733,
    5590625293,
    5153354926,
    5590625295,
    5153354925
  ],
  "tags": {
    "landuse": "cemetery",
    "name": "Neuer Friedhof"
  }
},
{
  "type": "way",
  "id": 23126627,
  "center": {
    "lat": 50.3274196,
    "lon": 8.6082439
  },
  "nodes": [
    249698001,
    6682319968,
    6682319967,
    249698002,
    75376829,
    75376831,
    6677342470,
    75376832,
    6677371599,
    3859545795,
    3859545794,
    249698001
  ],
  "tags": {
    "landuse": "cemetery",
    "name": "Friedhof Pfaffenwiesbach"
  }
},
{
  "type": "way",
  "id": 23163939,
  "center": {
    "lat": 50.1951579,
    "lon": 8.4861861
  },
  "nodes": [
    42221980,
    247900535,
    247900536,
    277715478,
    277715482,
    247900539,
    250365271,
    250365272,
    250367952,
    42221980
  ],
  "tags": {
    "landuse": "cemetery",
    "name": "Friedhof Falkenstein",
    "operator": "Stadt Königstein im Taunus"
  }
},
{
  "type": "way",
  "id": 23171939,
  "center": {
    "lat": 50.5985723,
    "lon": 8.4123897
  },
  "nodes": [
    247328560,
    250546834,
    250546836,
    1924169874,
    250546837,
    250546838,
    250546839,
    250546840,
    250546841,
    8222482673,
    250546842,
    250546843,
    1924169873,
    8222482668,
    250546844,
    4383586723,
    250546847,
    250546848,
    2444928864,
    5581064015,
    250546850,
    247328560
  ],
  "tags": {
    "landuse": "cemetery",
    "name": "Friedhof Werdorf"
  }
},
{
  "type": "way",
  "id": 23202522,
  "center": {
    "lat": 50.1480942,
    "lon": 8.1873768
  },
  "nodes": [
    250956500,
    5293776347,
    4580379620,
    5293776348,
    250956501,
    5293776345,
    5293776346,
    9592173163,
    12987834958,
    12987834954,
    12987834951,
    12987834949,
    12987834946,
    250956504,
    250956500
  ],
  "tags": {
    "landuse": "cemetery",
    "name": "Friedhof Wehen"
  }
},
{
  "type": "way",
  "id": 23218441,
  "center": {
    "lat": 50.1943952,
    "lon": 8.8174795
  },
  "nodes": [
    251151804,
    251151805,
    251151806,
    1482724777,
    251151807,
    1177378809,
    7149563746,
    1177378812,
    7149563743,
    251151788,
    251151804
  ],
  "tags": {
    "barrier": "fence",
    "landuse": "cemetery",
    "name": "Neuer Friedhof"
  }
},
{
  "type": "way",
  "id": 23218710,
  "center": {
    "lat": 50.1968982,
    "lon": 8.8233987
  },
  "nodes": [
    251154730,
    1480390039,
    1480390061,
    11346229983,
    11346229985,
    1480390093,
    1480390099,
    1480390110,
    1480390126,
    251154731,
    251154732,
    1432140808,
    1432140790,
    251154733,
    251154730
  ],
  "tags": {
    "landuse": "cemetery",
    "name": "Alter Friedhof Oberdorfelden"
  }
},
{
  "type": "way",
  "id": 23236029,
  "center": {
    "lat": 50.1787413,
    "lon": 8.5961728
  },
  "nodes": [
    41395763,
    251391562,
    429302610,
    429302609,
    1075226711,
    1076693385,
    41395755,
    41395779,
    1070029264,
    8019664189,
    8019664190,
    429302612,
    8019664188,
    429302611,
    1075226603,
    1075203119,
    41395763
  ],
  "tags": {
    "landuse": "cemetery",
    "name": "Friedhof Weißkirchen"
  }
},
{
  "type": "way",
  "id": 23266328,
  "center": {
    "lat": 50.2244159,
    "lon": 8.3700144
  },
  "nodes": [
    251789898,
    251789899,
    8006588787,
    251789900,
    251789901,
    251789898
  ],
  "tags": {
    "landuse": "cemetery",
    "name": "Friedhof Kröftel"
  }
},
{
  "type": "way",
  "id": 23303516,
  "center": {
    "lat": 50.1496321,
    "lon": 8.5392666
  },
  "nodes": [
    252267396,
    252267398,
    252267399,
    252267401,
    252267402,
    252267403,
    252267396
  ],
  "tags": {
    "landuse": "cemetery",
    "name": "Alter Friedhof Schwalbach"
  }
},
{
  "type": "way",
  "id": 23307976,
  "center": {
    "lat": 50.2825110,
    "lon": 8.5458065
  },
  "nodes": [
    252327922,
    252327923,
    2195704130,
    252327911,
    2195704134,
    252327910,
    252327909,
    2195704124,
    2195704136,
    252327922
  ],
  "tags": {
    "landuse": "cemetery",
    "name": "Friedhof Obernhain"
  }
},
{
  "type": "way",
  "id": 23316573,
  "center": {
    "lat": 50.0130135,
    "lon": 8.8893580
  },
  "nodes": [
    252446318,
    252446322,
    4107570749,
    2328303550,
    4107570748,
    4107570743,
    4107570742,
    4107570735,
    252446323,
    4107570733,
    2328303525,
    252446325,
    2328303534,
    2328303538,
    4756895295,
    2326392584,
    252446318
  ],
  "tags": {
    "landuse": "cemetery",
    "name": "Friedhof Dudenhofen",
    "religion": "christian"
  }
},
{
  "type": "way",
  "id": 23332942,
  "center": {
    "lat": 50.1365783,
    "lon": 8.4946533
  },
  "nodes": [
    4072000993,
    4072021346,
    4072021347,
    11172528125,
    4072021344,
    252654931,
    252654917,
    252654918,
    8760522582,
    252654936,
    252654937,
    4072021345,
    4072021343,
    5598645961,
    252654940,
    252654941,
    4072000993
  ],
  "tags": {
    "landuse": "cemetery",
    "name": "Friedhof Bad Soden"
  }
},
{
  "type": "way",
  "id": 23347178,
  "center": {
    "lat": 50.8316430,
    "lon": 8.3071259
  },
  "nodes": [
    252813044,
    2399471258,
    252813064,
    2399471251,
    2399471249,
    252813075,
    2399471230,
    12747463589,
    252813082,
    252813088,
    2399471198,
    12747463590,
    12747463593,
    2399471215,
    12747463592,
    12747463591,
    252813044
  ],
  "tags": {
    "fenced": "yes",
    "landuse": "cemetery",
    "name": "Bergfriedhof"
  }
},
{
  "type": "way",
  "id": 23347616,
  "center": {
    "lat": 50.8297738,
    "lon": 8.3180079
  },
  "nodes": [
    252816444,
    252816446,
    12749766066,
    252816449,
    1642005612,
    252816452,
    252816444
  ],
  "tags": {
    "fenced": "yes",
    "landuse": "cemetery",
    "name": "Friedhof Sasenberg"
  }
},
{
  "type": "way",
  "id": 23381351,
  "center": {
    "lat": 50.1493952,
    "lon": 8.3716245
  },
  "nodes": [
    253160971,
    923908716,
    253160972,
    253160973,
    253160974,
    253160975,
    253160976,
    253157635,
    253160978,
    253157634,
    48047862,
    48047854,
    48047850,
    48047846,
    48047842,
    253160521,
    253160971
  ],
  "tags": {
    "landuse": "cemetery",
    "name": "Friedhof Vockenhausen"
  }
},
{
  "type": "way",
  "id": 23385409,
  "center": {
    "lat": 50.5371203,
    "lon": 8.9890089
  },
  "nodes": [
    253205070,
    1235807013,
    253205077,
    253205078,
    253205079,
    871067058,
    253205070
  ],
  "tags": {
    "barrier": "fence",
    "image": "mw2.google.com/mw-panoramio/photos/medium/9444749.jpg",
    "landuse": "cemetery",
    "name": "Jüdischer Friedhof",
    "phone": "+49 6405 921321",
    "religion": "jewish",
    "website": "https://www.laubach-online.de/formulare/fuehrungen.asp?mode=show",
    "wikidata": "Q47765659"
  }
},
{
  "type": "way",
  "id": 23390264,
  "center": {
    "lat": 50.1982236,
    "lon": 8.3867456
  },
  "nodes": [
    253252144,
    253252145,
    253252146,
    253252147,
    253252148,
    4665502987,
    253252149,
    253252150,
    253252156,
    7875350876,
    7875350875,
    253252157,
    253252158,
    253252159,
    2706118246,
    253252160,
    258613488,
    253252144
  ],
  "tags": {
    "landuse": "cemetery",
    "name": "Friedhof Schloßborn"
  }
},
{
  "type": "way",
  "id": 23390622,
  "center": {
    "lat": 50.2363310,
    "lon": 8.4070025
  },
  "nodes": [
    253255704,
    9514105268,
    9514105269,
    253255705,
    253255707,
    253255708,
    253255709,
    9514105267,
    253255710,
    253255711,
    253255704
  ],
  "tags": {
    "landuse": "cemetery",
    "name": "Friedhof Oberems"
  }
},
{
  "type": "way",
  "id": 23396790,
  "center": {
    "lat": 50.2383410,
    "lon": 8.4258558
  },
  "nodes": [
    47953708,
    253313371,
    11885027472,
    206894187,
    206894185,
    8012764032,
    47953708
  ],
  "tags": {
    "landuse": "cemetery",
    "name": "Friedhof Niederreifenberg"
  }
},
{
  "type": "way",
  "id": 23398051,
  "center": {
    "lat": 50.5409247,
    "lon": 8.9844105
  },
  "nodes": [
    1515400190,
    813822058,
    813764550,
    1022879540,
    1515400193,
    1515400196,
    1022878987,
    2052148187,
    253322816,
    2052148271,
    799244849,
    2052148984,
    2052149061,
    2052149858,
    2052150014,
    2052150171,
    2052149822,
    253322814,
    798805679,
    813813313,
    820865482,
    799244757,
    253322819,
    874535738,
    11690892313,
    11690892311,
    11690892312,
    1515400190
  ],
  "tags": {
    "landuse": "cemetery"
  }
},
{
  "type": "way",
  "id": 23437005,
  "center": {
    "lat": 50.0678334,
    "lon": 8.4743553
  },
  "nodes": [
    253817788,
    3070365513,
    2339606087,
    253817789,
    253817791,
    253817792,
    253817788
  ],
  "tags": {
    "landuse": "cemetery",
    "name": "Hattersheimer Friedhof"
  }
},
{
  "type": "way",
  "id": 23438547,
  "center": {
    "lat": 50.6111096,
    "lon": 8.7958590
  },
  "nodes": [
    253832137,
    253832147,
    1476447952,
    253832148,
    1476448115,
    1476448089,
    1476448052,
    1476448026,
    2047025703,
    253832137
  ],
  "tags": {
    "landuse": "cemetery",
    "name": "Friedhof Großen-Buseck"
  }
},
{
  "type": "way",
  "id": 23452016,
  "center": {
    "lat": 50.2617524,
    "lon": 8.4536797
  },
  "nodes": [
    253986068,
    253986069,
    2936917841,
    2936917839,
    253986070,
    3131047777,
    3131047780,
    253986071,
    253986068
  ],
  "tags": {
    "landuse": "cemetery",
    "name": "Friedhof Arnoldshain"
  }
},
{
  "type": "way",
  "id": 23487436,
  "center": {
    "lat": 50.2202433,
    "lon": 8.3302210
  },
  "nodes": [
    254350792,
    477397611,
    254350793,
    477397604,
    254350794,
    254350795,
    477397617,
    477397618,
    477397619,
    254350796,
    254350798,
    477397609,
    477397610,
    477397608,
    254350792
  ],
  "tags": {
    "barrier": "wall",
    "height": "2",
    "landuse": "cemetery",
    "name": "Friedhof Heftrich"
  }
},
{
  "type": "way",
  "id": 23573005,
  "center": {
    "lat": 50.2644200,
    "lon": 8.6292295
  },
  "nodes": [
    255285815,
    255285816,
    255285817,
    2877374507,
    2877374509,
    2877374511,
    2877374512,
    255285818,
    2877374514,
    255285815
  ],
  "tags": {
    "addr:housenumber": "152",
    "addr:street": "Taunusstraße",
    "barrier": "fence",
    "fence_type": "wood",
    "landuse": "cemetery",
    "name": "Dillinger Friedhof"
  }
},
{
  "type": "way",
  "id": 23585376,
  "center": {
    "lat": 50.0053942,
    "lon": 8.2507818
  },
  "nodes": [
    255403003,
    6782585706,
    255403004,
    255403005,
    2323339254,
    255403006,
    255403007,
    11314896112,
    1323661705,
    255403009,
    6782587892,
    6782585694,
    6782585695,
    2324912511,
    2324912529,
    2324912510,
    2324912531,
    2324912527,
    2324912524,
    255403013,
    6782585696,
    2100117428,
    255403003
  ],
  "tags": {
    "addr:city": "Mainz",
    "addr:postcode": "55122",
    "addr:street": "Mombacher Straße",
    "alt_name": "Judensand",
    "landuse": "cemetery",
    "name": "Alter Jüdischer Friedhof",
    "religion": "jewish",
    "wikidata": "Q1710936",
    "wikimedia_commons": "Category:Judensand (Mainz)",
    "wikipedia": "de:Judensand"
  }
},
{
  "type": "way",
  "id": 23599690,
  "center": {
    "lat": 50.0195293,
    "lon": 8.1991791
  },
  "nodes": [
    255578656,
    4034809190,
    4034809191,
    4037407088,
    4037407086,
    4034809192,
    4037407087,
    4037414489,
    4034811689,
    4034777090,
    4034813489,
    4034813490,
    4034784390,
    4034813689,
    4034813789,
    255578657,
    4034814289,
    4034814489,
    255578659,
    255578662,
    255578663,
    255578670,
    1691982221,
    598468793,
    255578674,
    255578675,
    27442544,
    3933733357,
    27442542,
    3933733257,
    451674683,
    4034809189,
    4034809389,
    3935420394,
    255578656
  ],
  "tags": {
    "landuse": "cemetery",
    "name": "Waldfriedhof",
    "wheelchair": "yes",
    "wikidata": "Q132278174"
  }
},
{
  "type": "way",
  "id": 23611457,
  "center": {
    "lat": 50.2460306,
    "lon": 8.4341002
  },
  "nodes": [
    255722786,
    255723245,
    255723246,
    255724707,
    4589878508,
    255724708,
    255724709,
    4589878569,
    4589878524,
    4589905096,
    4589902385,
    255724710,
    255722786
  ],
  "tags": {
    "landuse": "cemetery",
    "name": "Friedhof Oberreifenberg"
  }
},
{
  "type": "way",
  "id": 23627199,
  "center": {
    "lat": 50.0248930,
    "lon": 8.1670198
  },
  "nodes": [
    247899052,
    1028798896,
    1028798247,
    12409715847,
    12409715848,
    12409715849,
    12409715850,
    1028798055,
    247899053,
    8881304366,
    12409715839,
    269498557,
    12402788004,
    8881304365,
    8881304364,
    8881304363,
    8881304362,
    247899054,
    8881304361,
    8881304360,
    8881304359,
    8881304358,
    8881304357,
    8881304356,
    8881304339,
    12409715856,
    8881304338,
    8881304342,
    8881304337,
    8881304336,
    8881304335,
    247899049,
    12892375714,
    12892375712,
    12892430214,
    12892375713,
    259988323,
    247899050,
    247899051,
    247899052
  ],
  "tags": {
    "landuse": "cemetery",
    "name": "Friedhof Budenheim"
  }
},
{
  "type": "way",
  "id": 23627935,
  "center": {
    "lat": 50.3116201,
    "lon": 8.5039499
  },
  "nodes": [
    255950660,
    255950661,
    255950662,
    255950663,
    255950664,
    255950665,
    255950660
  ],
  "tags": {
    "created_by": "Potlatch 0.10b",
    "landuse": "cemetery",
    "name": "Friedhof Seibelhohl"
  }
},
{
  "type": "way",
  "id": 23652693,
  "center": {
    "lat": 50.3841485,
    "lon": 8.0462203
  },
  "nodes": [
    256249575,
    3256324297,
    4990298445,
    256249576,
    256249577,
    4990291663,
    4995090639,
    3256324249,
    2601096760,
    2357221579,
    2600364731,
    2600318571,
    2600318572,
    7426117508,
    4990389409,
    4990389408,
    255158691,
    255161944,
    256249587,
    4988177658,
    256249588,
    4988177657,
    4990388694,
    298644990,
    343645556,
    178430560,
    876734653,
    1931302868,
    2601096763,
    256249575
  ],
  "tags": {
    "boundary": "protected_area",
    "heritage": "4",
    "heritage:operator": "LfDh",
    "landuse": "cemetery",
    "opening_hours": "24/7",
    "protect_class": "22",
    "ref:LfDH": "N",
    "religion": "christian"
  }
},
{
  "type": "way",
  "id": 23652694,
  "center": {
    "lat": 50.3694384,
    "lon": 8.0307290
  },
  "nodes": [
    256249608,
    256249609,
    256904499,
    3253303886,
    3253303884,
    3254965311,
    3253303882,
    3253303881,
    256904517,
    256249611,
    3254965314,
    3254965318,
    3254965354,
    3254965349,
    256249613,
    256249614,
    3254966262,
    256249615,
    256249608
  ],
  "tags": {
    "landuse": "cemetery"
  }
},
{
  "type": "way",
  "id": 23652695,
  "center": {
    "lat": 50.3794582,
    "lon": 8.0056251
  },
  "nodes": [
    3262932390,
    3262932389,
    3262932384,
    3262932379,
    3262932366,
    1761478499,
    1761478502,
    3262932598,
    256249621,
    11918099182,
    3262932457,
    3262932412,
    11918099179,
    3262932390
  ],
  "tags": {
    "landuse": "cemetery",
    "name": "Neuer Friedhof"
  }
},
{
  "type": "way",
  "id": 23656465,
  "center": {
    "lat": 50.0882674,
    "lon": 8.4736769
  },
  "nodes": [
    256313898,
    256313762,
    256313763,
    11940490907,
    11940490908,
    256313764,
    256313765,
    7489070794,
    11940490914,
    11940490915,
    11940490916,
    4471674121,
    11940490909,
    11940490910,
    12988134754,
    11940490912,
    11940490911,
    12988134756,
    11940490897,
    11940490898,
    11940490905,
    11940490906,
    256313898
  ],
  "tags": {
    "landuse": "cemetery",
    "name": "Friedhof Kriftel"
  }
},
{
  "type": "way",
  "id": 23693675,
  "center": {
    "lat": 50.1431186,
    "lon": 8.1417687
  },
  "nodes": [
    3960338689,
    303402544,
    256568899,
    3946812438,
    3946812440,
    303402543,
    3813180379,
    256568901,
    3946812444,
    3946812443,
    7646511821,
    256568902,
    256568903,
    399547791,
    3946812441,
    3946812442,
    3960338690,
    3960338689
  ],
  "tags": {
    "dog": "no",
    "landuse": "cemetery",
    "name": "Friedhof Bleidenstadt"
  }
},
{
  "type": "way",
  "id": 23734484,
  "center": {
    "lat": 50.0863619,
    "lon": 8.4302838
  },
  "nodes": [
    274312386,
    2799822891,
    622422615,
    257047514,
    257047516,
    257047517,
    469880221,
    3825365062,
    257047519,
    257047520,
    257047521,
    257047523,
    2188483267,
    2175978036,
    2175978031,
    309088037,
    2188483260,
    257047524,
    257047525,
    2187605407,
    274312386
  ],
  "tags": {
    "barrier": "fence",
    "fence_type": "wire_mesh",
    "landuse": "cemetery",
    "name": "Waldfriedhof"
  }
},
{
  "type": "way",
  "id": 23744927,
  "center": {
    "lat": 50.1498112,
    "lon": 8.3284018
  },
  "nodes": [
    257155319,
    12097579540,
    3561125855,
    3561125849,
    3561125807,
    12051665047,
    3561125856,
    257155321,
    12097579542,
    257155322,
    12097579541,
    3561125839,
    12051665046,
    12492210790,
    12051665044,
    1139580269,
    257155323,
    3561125805,
    257155319
  ],
  "tags": {
    "landuse": "cemetery",
    "name": "Friedhof Niedernhausen",
    "wheelchair": "yes"
  }
},
{
  "type": "way",
  "id": 23750774,
  "center": {
    "lat": 50.0758787,
    "lon": 8.3712120
  },
  "nodes": [
    257323974,
    257323975,
    257323969,
    3849547090,
    12921895956,
    12921895959,
    281256289,
    281256291,
    3849547060,
    3849547062,
    257323972,
    1704968822,
    1704968823,
    257323973,
    1704968824,
    1704968826,
    3849547094,
    1704968825,
    257323974
  ],
  "tags": {
    "barrier": "fence",
    "fence_type": "wire",
    "landuse": "cemetery",
    "name": "Friedhof Breckenheim"
  }
},
{
  "type": "way",
  "id": 23773842,
  "center": {
    "lat": 50.0487307,
    "lon": 8.3033619
  },
  "nodes": [
    257584981,
    257584982,
    257584983,
    2100134459,
    2100134454,
    12335490324,
    2100134453,
    257584984,
    12335490322,
    12335490323,
    257584981
  ],
  "tags": {
    "landuse": "cemetery",
    "name": "Friedhof Erbenheim"
  }
},
{
  "type": "way",
  "id": 23774388,
  "center": {
    "lat": 50.0665533,
    "lon": 8.3437127
  },
  "nodes": [
    257588959,
    814915340,
    257588960,
    257588961,
    12947292674,
    257588962,
    12947292670,
    12947292671,
    257588963,
    815604095,
    815604097,
    815604091,
    815604093,
    257588959
  ],
  "tags": {
    "addr:housename": "Friedhof Nordenstadt",
    "landuse": "cemetery",
    "name": "Friedhof Nordenstadt"
  }
},
{
  "type": "way",
  "id": 23881271,
  "center": {
    "lat": 50.1333633,
    "lon": 8.8738503
  },
  "nodes": [
    258848968,
    258848969,
    258848970,
    266863716,
    258848972,
    258848968
  ],
  "tags": {
    "landuse": "cemetery",
    "name": "Neuer Friedhof"
  }
},
{
  "type": "way",
  "id": 23910486,
  "center": {
    "lat": 50.0098116,
    "lon": 8.3547451
  },
  "nodes": [
    259166498,
    259166499,
    259166500,
    259166501,
    259166502,
    259166503,
    259166504,
    259166505,
    259166506,
    259166507,
    9600066153,
    11061259985,
    11398593438,
    11398593439,
    259166508,
    11398593440,
    9600066151,
    9600066152,
    259166498
  ],
  "tags": {
    "landuse": "cemetery",
    "name": "Alter Friedhof"
  }
},
{
  "type": "way",
  "id": 23918830,
  "center": {
    "lat": 50.2806712,
    "lon": 8.4573579
  },
  "nodes": [
    259251454,
    3763172228,
    259251455,
    259251456,
    259251457,
    259251454
  ],
  "tags": {
    "landuse": "cemetery",
    "name": "Friedhof Dorfweil"
  }
},
{
  "type": "way",
  "id": 23979874,
  "center": {
    "lat": 50.1326721,
    "lon": 8.5309736
  },
  "nodes": [
    260000741,
    9205410389,
    9205410386,
    260000742,
    9205410385,
    9205410391,
    9205410392,
    260000743,
    3937262931,
    3937262936,
    260000744,
    9205010938,
    9205410390,
    260000745,
    260000741
  ],
  "tags": {
    "landuse": "cemetery",
    "name": "Alter Friedhof",
    "religion": "christian"
  }
},
{
  "type": "way",
  "id": 23980641,
  "center": {
    "lat": 50.1576229,
    "lon": 8.4648237
  },
  "nodes": [
    11015644190,
    12058918799,
    12058918798,
    12058918796,
    260007505,
    12058918795,
    12058918794,
    12058918823,
    12058918793,
    12058918792,
    260007508,
    12058918791,
    252809624,
    2197530855,
    2197530853,
    11015644188,
    2197530857,
    11015644187,
    11015644190
  ],
  "tags": {
    "landuse": "cemetery",
    "name": "Neuer Friedhof Altenhain",
    "religion": "christian"
  }
},
{
  "type": "way",
  "id": 23980643,
  "center": {
    "lat": 50.1572379,
    "lon": 8.4686718
  },
  "nodes": [
    260007516,
    1770415925,
    260007519,
    260007521,
    1770415929,
    11455647098,
    11455647096,
    1770415934,
    1770415917,
    10162486683,
    260007524,
    1770415930,
    1770415936,
    260007526,
    260007533,
    11455647097,
    260007516
  ],
  "tags": {
    "landuse": "cemetery",
    "name": "Alter Friedhof Altenhain",
    "religion": "christian"
  }
},
{
  "type": "way",
  "id": 23982971,
  "center": {
    "lat": 50.1277575,
    "lon": 8.4794559
  },
  "nodes": [
    260025947,
    260025948,
    260025949,
    260025950,
    260025951,
    2546148871,
    252687350,
    3279205993,
    2543216893,
    260025954,
    3279205944,
    252687349,
    260025947
  ],
  "tags": {
    "landuse": "cemetery",
    "name": "Friedhof Königsteiner Weg"
  }
},
{
  "type": "way",
  "id": 23983713,
  "center": {
    "lat": 50.1225266,
    "lon": 8.4674227
  },
  "nodes": [
    260032272,
    260032271,
    3151753440,
    260032270,
    3151753438,
    3184239002,
    260032304,
    260032273,
    260032272
  ],
  "tags": {
    "landuse": "cemetery",
    "name": "Friedhof Kelkheim Münster"
  }
},
{
  "type": "way",
  "id": 23995289,
  "center": {
    "lat": 50.0323037,
    "lon": 8.6597737
  },
  "nodes": [
    260166933,
    260166942,
    260166940,
    260166936,
    4086656037,
    3042032775,
    260166915,
    4086656029,
    5460449825,
    5460449824,
    260166933
  ],
  "tags": {
    "landuse": "cemetery",
    "name": "Waldfriedhof Buchschlag",
    "religion": "christian",
    "website": "https://friedhofszweckverband.de/project/friedhof-buchschlag/"
  }
},
{
  "type": "way",
  "id": 24038060,
  "center": {
    "lat": 50.2594406,
    "lon": 8.4179471
  },
  "nodes": [
    260697142,
    260697143,
    260697144,
    260697145,
    260697142
  ],
  "tags": {
    "landuse": "cemetery",
    "name": "Friedhof Seelenberg"
  }
},
{
  "type": "way",
  "id": 24059981,
  "center": {
    "lat": 50.1731946,
    "lon": 8.8585062
  },
  "nodes": [
    261010536,
    6129152431,
    6129152429,
    6129152430,
    3955880995,
    261010537,
    2276044438,
    339286711,
    2276044412,
    2276044407,
    2276044400,
    261010536
  ],
  "tags": {
    "landuse": "cemetery",
    "name": "Neuer Friedhof"
  }
},
{
  "type": "way",
  "id": 24060944,
  "center": {
    "lat": 50.1564790,
    "lon": 8.9889223
  },
  "nodes": [
    261021712,
    3003729515,
    6088708601,
    3003729516,
    261021713,
    9291196857,
    9291196858,
    3003729517,
    3003729529,
    261021714,
    261021715,
    7212749276,
    261021712
  ],
  "tags": {
    "barrier": "wall",
    "landuse": "cemetery",
    "name": "Friedhof Rückingen"
  }
},
{
  "type": "way",
  "id": 24060947,
  "center": {
    "lat": 50.1560907,
    "lon": 8.9908183
  },
  "nodes": [
    261021747,
    261021748,
    261021749,
    261021750,
    261021751,
    261021752,
    261021747
  ],
  "tags": {
    "created_by": "JOSM",
    "landuse": "cemetery",
    "name": "Alter Jüdischer Friedhof",
    "religion": "jewish"
  }
},
{
  "type": "way",
  "id": 24061748,
  "center": {
    "lat": 50.1342163,
    "lon": 8.9249779
  },
  "nodes": [
    261030244,
    261030246,
    261030248,
    2090435269,
    2090435266,
    2090435250,
    2090435246,
    261030249,
    2090318432,
    261030244
  ],
  "tags": {
    "landuse": "cemetery",
    "name": "Jüdischer Friedhof Hanau",
    "religion": "jewish",
    "wikidata": "Q1716247"
  }
},
{
  "type": "way",
  "id": 24222658,
  "center": {
    "lat": 50.1947280,
    "lon": 8.4851908
  },
  "nodes": [
    277715478,
    277715485,
    277715487,
    4551432269,
    2596391555,
    247900539,
    277715482,
    277715478
  ],
  "tags": {
    "landuse": "cemetery",
    "name": "Jüdischer Friedhof Falkenstein",
    "religion": "jewish",
    "wikidata": "Q1716187"
  }
},
{
  "type": "way",
  "id": 24247174,
  "center": {
    "lat": 50.2445615,
    "lon": 8.4289312
  },
  "nodes": [
    262525831,
    253311674,
    262525834,
    4589935991,
    4589936030,
    11887086754,
    262525835,
    262525837,
    262525838,
    262525839,
    11887086757,
    262525840,
    262525831
  ],
  "tags": {
    "landuse": "cemetery",
    "name": "Alter Friedhof Niederreifenberg"
  }
},
{
  "type": "way",
  "id": 24250938,
  "center": {
    "lat": 50.1432734,
    "lon": 8.3565388
  },
  "nodes": [
    262556723,
    4393569309,
    4393569306,
    4393569304,
    262556724,
    262556725,
    262556726,
    5085428644,
    262556727,
    262556728,
    262556729,
    262556730,
    262556723
  ],
  "tags": {
    "landuse": "cemetery",
    "name": "Friedhof Bremthal"
  }
},
{
  "type": "way",
  "id": 24263524,
  "center": {
    "lat": 50.3140626,
    "lon": 8.4117479
  },
  "nodes": [
    262694435,
    1013404730,
    262694436,
    262694437,
    4567191066,
    262694438,
    262694435
  ],
  "tags": {
    "landuse": "cemetery",
    "name": "Friedhof Neuweilnau"
  }
},
{
  "type": "way",
  "id": 24263843,
  "center": {
    "lat": 50.3028966,
    "lon": 8.4000702
  },
  "nodes": [
    262697241,
    262697242,
    262697243,
    262697244,
    262697245,
    3524869207,
    3524869209,
    3524869208,
    3524869205,
    262697246,
    262697247,
    262697241
  ],
  "tags": {
    "landuse": "cemetery",
    "name": "Friedhof Riedelbach"
  }
},
{
  "type": "way",
  "id": 24289622,
  "center": {
    "lat": 50.6506890,
    "lon": 8.7415014
  },
  "nodes": [
    263012522,
    263012523,
    2123881004,
    263012539,
    263012541,
    765814892,
    263012543,
    9100380138,
    9100380139,
    9100380140,
    9100380141,
    263012522
  ],
  "tags": {
    "landuse": "cemetery",
    "name": "Friedhof Daubringen"
  }
},
{
  "type": "way",
  "id": 24308896,
  "center": {
    "lat": 50.3623791,
    "lon": 8.1469715
  },
  "nodes": [
    263449423,
    263449424,
    263449433,
    263449426,
    263449428,
    263449429,
    263449439,
    3094605522,
    3094605519,
    263449423
  ],
  "tags": {
    "landuse": "cemetery",
    "source": "extrapolation"
  }
},
{
  "type": "way",
  "id": 24348522,
  "center": {
    "lat": 50.3885180,
    "lon": 8.4591078
  },
  "nodes": [
    3965007878,
    264134401,
    3965007211,
    3965007212,
    3965007213,
    3965007214,
    3965007876,
    3965007877,
    3965007878
  ],
  "tags": {
    "landuse": "cemetery",
    "name": "Friedhof Grävenwiesbach"
  }
},
{
  "type": "way",
  "id": 24392612,
  "center": {
    "lat": 50.3717599,
    "lon": 8.4685471
  },
  "nodes": [
    264731474,
    264731475,
    264731476,
    264731477,
    264731479,
    7962917879,
    264731480,
    264731474
  ],
  "tags": {
    "landuse": "cemetery",
    "name": "Friedhof Hundstadt",
    "source": "yahoo"
  }
},
{
  "type": "way",
  "id": 24402030,
  "center": {
    "lat": 50.3769205,
    "lon": 8.4504842
  },
  "nodes": [
    264869160,
    264869161,
    264869162,
    264869163,
    264869164,
    264869165,
    264869167,
    264869160
  ],
  "tags": {
    "landuse": "cemetery",
    "name": "Friedhof Naunstadt",
    "source": "yahoo"
  }
},
{
  "type": "way",
  "id": 24419768,
  "center": {
    "lat": 50.6655061,
    "lon": 8.7320937
  },
  "nodes": [
    265227022,
    944350192,
    265227025,
    265227027,
    265227029,
    265227032,
    1145967770,
    265227022
  ],
  "tags": {
    "landuse": "cemetery",
    "name": "Friedhof Staufenberg"
  }
},
{
  "type": "way",
  "id": 24419812,
  "center": {
    "lat": 50.6620841,
    "lon": 8.7419046
  },
  "nodes": [
    265228054,
    265228056,
    265228059,
    681514414,
    265228061,
    265228054
  ],
  "tags": {
    "landuse": "cemetery",
    "name": "Friedhof Mainzlar"
  }
},
{
  "type": "way",
  "id": 24434419,
  "center": {
    "lat": 50.1135273,
    "lon": 8.2956852
  },
  "nodes": [
    265570306,
    265570313,
    11645856108,
    265570307,
    11645856107,
    265570312,
    265570306
  ],
  "tags": {
    "landuse": "cemetery",
    "name": "Friedhof Hessloch"
  }
},
{
  "type": "way",
  "id": 24473537,
  "center": {
    "lat": 50.3002467,
    "lon": 8.2761371
  },
  "nodes": [
    266057120,
    2035580201,
    2035580185,
    266057121,
    539802327,
    13039720764,
    266057197,
    13039720765,
    266057123,
    266057125,
    266057126,
    2408329275,
    2408329273,
    2408329274,
    2408329276,
    266057120
  ],
  "tags": {
    "landuse": "cemetery",
    "name": "Friedhof Bad Camberg"
  }
},
{
  "type": "way",
  "id": 24476103,
  "center": {
    "lat": 50.2693505,
    "lon": 8.2845320
  },
  "nodes": [
    266106925,
    266106926,
    266106927,
    9048474149,
    266106930,
    266106931,
    9048474150,
    266106929,
    266106928,
    266106925
  ],
  "tags": {
    "landuse": "cemetery",
    "name": "Friedhof Walsdorf",
    "source": "extrapolation"
  }
},
{
  "type": "way",
  "id": 24491921,
  "center": {
    "lat": 50.3201471,
    "lon": 8.2424622
  },
  "nodes": [
    266315950,
    266315951,
    5434828878,
    5434828879,
    5434828877,
    5434828881,
    5434828880,
    266315952,
    266315953,
    266315950
  ],
  "tags": {
    "landuse": "cemetery",
    "name": "Friedhof Oberselters"
  }
},
{
  "type": "way",
  "id": 24531660,
  "center": {
    "lat": 50.2440911,
    "lon": 8.5897672
  },
  "nodes": [
    266133341,
    9778031813,
    9778031816,
    9778082828,
    9778031802,
    9778082821,
    2283524881,
    1741795015,
    1741795014,
    266133341
  ],
  "tags": {
    "landuse": "cemetery",
    "name": "Friedhof Dornholzhausen"
  }
},
{
  "type": "way",
  "id": 24532140,
  "center": {
    "lat": 50.2486833,
    "lon": 8.3143694
  },
  "nodes": [
    266745701,
    13033305729,
    266745702,
    266745703,
    266745704,
    8631614776,
    8748589734,
    266745705,
    8631614777,
    266745706,
    266745707,
    13033305728,
    13033305773,
    266745701
  ],
  "tags": {
    "landuse": "cemetery",
    "name": "Friedhof Esch"
  }
},
{
  "type": "way",
  "id": 24565220,
  "center": {
    "lat": 50.5871825,
    "lon": 8.5592953
  },
  "nodes": [
    267092164,
    267092165,
    267092166,
    267092167,
    267092164
  ],
  "tags": {
    "landuse": "cemetery",
    "name": "Jüdischer Friedhof",
    "religion": "jewish",
    "wikidata": "Q47538301"
  }
},
{
  "type": "way",
  "id": 24638735,
  "center": {
    "lat": 50.2420448,
    "lon": 8.6082639
  },
  "nodes": [
    267829784,
    267829785,
    267829786,
    267829787,
    267829789,
    267829790,
    267829791,
    563980178,
    267829792,
    267829793,
    254101465,
    267829784
  ],
  "tags": {
    "landuse": "cemetery",
    "name": "Friedhof Kirdorf"
  }
},
{
  "type": "way",
  "id": 24645612,
  "center": {
    "lat": 50.2299654,
    "lon": 8.7421232
  },
  "nodes": [
    267900754,
    267900755,
    267900756,
    267900757,
    267900758,
    10073077696,
    10073077697,
    10073077698,
    267900759,
    2055995280,
    10073077695,
    267900760,
    10073077694,
    267900761,
    10073077693,
    267900762,
    267900763,
    267900754
  ],
  "tags": {
    "landuse": "cemetery",
    "name": "Friedhof Kloppenheim"
  }
},
{
  "type": "way",
  "id": 24658219,
  "center": {
    "lat": 50.2104681,
    "lon": 8.8360311
  },
  "nodes": [
    268017516,
    6796663534,
    6796663521,
    6796663537,
    5909842011,
    2922039799,
    2922040602,
    370337305,
    268017517,
    7163517876,
    7163517877,
    6796663517,
    6796663518,
    6796663515,
    6796663516,
    6796663514,
    6796663519,
    268017516
  ],
  "tags": {
    "landuse": "cemetery",
    "name": "Neuer Friedhof"
  }
},
{
  "type": "way",
  "id": 24658245,
  "center": {
    "lat": 50.2164406,
    "lon": 8.8388416
  },
  "nodes": [
    1759655471,
    6239973473,
    1759655473,
    1759655472,
    2920343370,
    268017868,
    2921153443,
    2920343350,
    268017869,
    268017871,
    6796952729,
    6796952720,
    1759655471
  ],
  "tags": {
    "landuse": "cemetery",
    "name": "Alter Friedhof"
  }
},
{
  "type": "way",
  "id": 24722998,
  "center": {
    "lat": 50.1266217,
    "lon": 8.5667162
  },
  "nodes": [
    268712180,
    5679816462,
    5679816461,
    268712181,
    268712182,
    268712183,
    2046452859,
    2046452866,
    5705323424,
    2046452868,
    5705323425,
    5705323426,
    5705323430,
    5705323427,
    5705323428,
    2046452877,
    5705323429,
    2046452886,
    567881001,
    3389416033,
    268712184,
    268712185,
    262726115,
    5695395939,
    268712186,
    268712187,
    268712188,
    567881019,
    268712180
  ],
  "tags": {
    "check_date:opening_hours": "2021-11-13",
    "landuse": "cemetery",
    "name": "Friedhof Sossenheim",
    "opening_hours": "Nov-Feb: Mo-Sa 07:00-17:00; Nov-Feb: Su,PH 09:00-17:00; Mar,Oct: Mo-Sa 07:00-18:00; Mar,Oct: Su,PH 09:00-18:00; Apr,Sep: Mo-Sa 07:00-20:00; Apr,Sep: Su,PH 09:00-20:00; May-Aug: Mo-Sa 07:00-21:00; May-Aug: Su,PH 09:00-21:00",
    "wikidata": "Q89272887",
    "wikimedia_commons": "Category:Friedhof Sossenheim"
  }
},
{
  "type": "way",
  "id": 24874651,
  "center": {
    "lat": 50.1740066,
    "lon": 8.6132926
  },
  "nodes": [
    270298556,
    270298558,
    270298559,
    270298561,
    270298556
  ],
  "tags": {
    "landuse": "cemetery",
    "name": "Neuer jüdischer Friedhof Niederursel",
    "note": "Namenssituation: Offizielle Name \"Jüdischer Friedhof Niederursel I\", obwohl der andere jüdische Friedhof in der Nähe (/way/31102251) keine Nummer im Namen hat, und älter ist. Hinweissteine nennen beide alt. Dieser ist also \"neu\".",
    "official_name": "Jüdischer Friedhof Niederursel I",
    "religion": "jewish",
    "ruins": "yes",
    "start_date": "1876",
    "wikidata": "Q118591160",
    "wikimedia_commons": "Category:Neuer jüdischer Friedhof (Niederursel)",
    "wikipedia": "de:Neuer jüdischer Friedhof Niederursel"
  }
},
{
  "type": "way",
  "id": 24878369,
  "center": {
    "lat": 50.9050640,
    "lon": 8.0262470
  },
  "nodes": [
    270337388,
    270337400,
    270337399,
    270337398,
    12854331536,
    890781529,
    270337397,
    270337396,
    270337395,
    270337393,
    270337392,
    270337391,
    270337390,
    270337389,
    270337388
  ],
  "tags": {
    "landuse": "cemetery",
    "name": "Haardter Friedhof",
    "source": "extrapolation",
    "wikidata": "Q1566470",
    "wikipedia": "de:Haardter Friedhof"
  }
},
{
  "type": "way",
  "id": 24878758,
  "center": {
    "lat": 50.2377374,
    "lon": 8.1568300
  },
  "nodes": [
    270340334,
    3022745456,
    270340335,
    270340352,
    270340342,
    270340343,
    270340334
  ],
  "tags": {
    "landuse": "cemetery",
    "name": "Friedhof Strinz-Trinitatis"
  }
},
{
  "type": "way",
  "id": 24975979,
  "center": {
    "lat": 50.2857121,
    "lon": 8.3993695
  },
  "nodes": [
    271391389,
    271391390,
    4610599788,
    2526406678,
    271391391,
    271391356,
    271391389
  ],
  "tags": {
    "landuse": "cemetery",
    "name": "Friedhof Mauloff"
  }
},
{
  "type": "way",
  "id": 25000305,
  "center": {
    "lat": 50.7526514,
    "lon": 8.2543260
  },
  "nodes": [
    13074986138,
    13074986139,
    1454024866,
    271780792,
    271780799,
    354486047,
    7799003946,
    1728800899,
    13074986153,
    13074986154,
    13074986155,
    13074986181,
    13074986182,
    13074986136,
    13074986138
  ],
  "tags": {
    "fenced": "yes",
    "landuse": "cemetery",
    "name": "Friedhof Sechshelden"
  }
},
{
  "type": "way",
  "id": 25010877,
  "center": {
    "lat": 50.2031173,
    "lon": 8.8579332
  },
  "nodes": [
    271903390,
    6029726003,
    6029726004,
    6029726005,
    6029726006,
    271903395,
    12691478555,
    271903394,
    12691478553,
    271903393,
    271903391,
    4562063705,
    12662325483,
    271903390
  ],
  "tags": {
    "landuse": "cemetery",
    "name": "Friedhof Kilianstädten"
  }
},
{
  "type": "way",
  "id": 25056844,
  "center": {
    "lat": 50.0756930,
    "lon": 8.9625802
  },
  "nodes": [
    272035529,
    2025916278,
    272608170,
    2025916287,
    2025916317,
    272608172,
    272608173,
    2025916313,
    272035529
  ],
  "tags": {
    "landuse": "cemetery",
    "name": "Friedhof Klein-Krotzenburg",
    "wikidata": "Q116746945"
  }
},
{
  "type": "way",
  "id": 25072239,
  "center": {
    "lat": 50.2217992,
    "lon": 8.4084192
  },
  "nodes": [
    272821204,
    11955883129,
    9848436329,
    272821205,
    272821206,
    7988269976,
    281451762,
    11955883130,
    272821204
  ],
  "tags": {
    "landuse": "cemetery",
    "name": "Waldfriedhof Glashütten",
    "source": "yahoo / local knowledge"
  }
},
{
  "type": "way",
  "id": 25232766,
  "center": {
    "lat": 50.1815004,
    "lon": 8.8921746
  },
  "nodes": [
    275082589,
    10709379024,
    275082591,
    275540371,
    275540372,
    5564697826,
    275082592,
    275082594,
    10709379050,
    10709379062,
    10709379067,
    10709379033,
    10709379032,
    10709379031,
    1978147231,
    10709379030,
    275082589
  ],
  "tags": {
    "barrier": "fence",
    "landuse": "cemetery",
    "name": "Friedhof Mittelbuchen"
  }
},
{
  "type": "way",
  "id": 25367797,
  "center": {
    "lat": 50.7307177,
    "lon": 8.1737890
  },
  "nodes": [
    276507947,
    1265271272,
    1265273686,
    1265273910,
    12559653294,
    276507941,
    12559653293,
    276507943,
    1265272107,
    1265271103,
    276507945,
    276507947
  ],
  "tags": {
    "landuse": "cemetery",
    "name": "Friedhof Flammersbach"
  }
},
{
  "type": "way",
  "id": 25405953,
  "center": {
    "lat": 50.1236418,
    "lon": 8.9336848
  },
  "nodes": [
    276880059,
    276880061,
    5243088228,
    773102242,
    276880063,
    276880066,
    5243088226,
    276917761,
    276917750,
    773102286,
    773102288,
    276880070,
    276880073,
    773102281,
    276880059
  ],
  "tags": {
    "landuse": "cemetery",
    "leisure": "park",
    "name": "Hauptfriedhof",
    "religion": "christian;muslim",
    "wikidata": "Q1589460",
    "wikimedia_commons": "Category:Hauptfriedhof Hanau",
    "wikipedia": "de:Hauptfriedhof Hanau"
  }
},
{
  "type": "way",
  "id": 25462596,
  "center": {
    "lat": 50.1067692,
    "lon": 8.9666825
  },
  "nodes": [
    277464231,
    2203964919,
    2203964930,
    277695394,
    277692523,
    277694115,
    277692524,
    277694113,
    277464232,
    2203964868,
    2203964856,
    277464233,
    2203964840,
    2203964831,
    2203964777,
    2203964772,
    2203964766,
    277464234,
    2203964776,
    2207123517,
    2207123532,
    2203964804,
    2203964901,
    277464231
  ],
  "tags": {
    "landuse": "cemetery",
    "name": "Waldfriedhof"
  }
},
{
  "type": "way",
  "id": 25470002,
  "center": {
    "lat": 50.1608867,
    "lon": 8.1060058
  },
  "nodes": [
    277544346,
    1412452399,
    1412452440,
    4726378885,
    4726378884,
    4726378887,
    1412452474,
    4726378882,
    277544346
  ],
  "tags": {
    "landuse": "cemetery",
    "name": "Friedhof Born"
  }
},
{
  "type": "way",
  "id": 25480497,
  "center": {
    "lat": 50.2443548,
    "lon": 8.1772363
  },
  "nodes": [
    277651209,
    277651214,
    277651216,
    277651218,
    277651220,
    277651222,
    277651224,
    277651225,
    277651227,
    277651229,
    277651230,
    1387799351,
    1387799352,
    277651209
  ],
  "tags": {
    "landuse": "cemetery",
    "name": "Friedhof Limbach"
  }
},
{
  "type": "way",
  "id": 25496591,
  "center": {
    "lat": 50.4837196,
    "lon": 8.2734683
  },
  "nodes": [
    277822412,
    338762955,
    277822420,
    2064902318,
    277822422,
    3203000041,
    1460164575,
    1460173303,
    1460164572,
    1460164628,
    1460164637,
    1460164639,
    1460164657,
    277822423,
    277822412
  ],
  "tags": {
    "landuse": "cemetery",
    "name": "Friedhof Weilburg",
    "source": "extrapolated"
  }
},
{
  "type": "way",
  "id": 25511649,
  "center": {
    "lat": 50.0442337,
    "lon": 8.8834422
  },
  "nodes": [
    4665748505,
    2377431163,
    2377431162,
    2377431154,
    277990728,
    277990714,
    277990720,
    277990719,
    4665748506,
    4665748505
  ],
  "tags": {
    "landuse": "cemetery",
    "name": "Friedhof Hainhausen"
  }
},
{
  "type": "way",
  "id": 25512112,
  "center": {
    "lat": 50.4004044,
    "lon": 8.0938912
  },
  "nodes": [
    277996522,
    12735814480,
    277996523,
    1444248712,
    1444248715,
    277996525,
    1444248680,
    277996527,
    277996522
  ],
  "tags": {
    "amenity": "grave_yard",
    "landuse": "cemetery",
    "name": "Friedhof Dietkirchen",
    "religion": "christian"
  }
},
{
  "type": "way",
  "id": 25531461,
  "center": {
    "lat": 50.1710416,
    "lon": 8.3920047
  },
  "nodes": [
    278251533,
    8830452045,
    8830452044,
    278251535,
    278251536,
    278276496,
    278251537,
    11951689176,
    278251533
  ],
  "tags": {
    "landuse": "cemetery",
    "name": "Friedhof Eppenhain"
  }
},
{
  "type": "way",
  "id": 25559439,
  "center": {
    "lat": 50.1988828,
    "lon": 8.6016883
  },
  "nodes": [
    278587473,
    9535834283,
    9535834282,
    278587476,
    278588411,
    278587477,
    488498191,
    9538479710,
    9538479708,
    9538479709,
    9538479711,
    278587479,
    1108055523,
    1108056757,
    278587480,
    278587481,
    278587482,
    278587483,
    278587484,
    278587485,
    9538508753,
    278587473
  ],
  "tags": {
    "amenity": "grave_yard"
  }
},
{
  "type": "way",
  "id": 25611397,
  "center": {
    "lat": 50.0462241,
    "lon": 8.1831491
  },
  "nodes": [
    280136540,
    279150377,
    4894844760,
    4070541186,
    279150378,
    279150379,
    4070541154,
    4385086702,
    4894844079,
    4894742072,
    4894844761,
    4894827496,
    280136540
  ],
  "tags": {
    "landuse": "cemetery",
    "name": "Friedhof Schierstein",
    "wikidata": "Q130524741"
  }
},
{
  "type": "way",
  "id": 25623273,
  "center": {
    "lat": 50.0561072,
    "lon": 8.9299459
  },
  "nodes": [
    279263987,
    279263988,
    3684515316,
    3684748185,
    279263989,
    3684515308,
    3684515307,
    3684515310,
    3684515358,
    3684515362,
    3684515366,
    3684515364,
    279263990,
    279263987
  ],
  "tags": {
    "landuse": "cemetery",
    "name": "Friedhof Froschhausen",
    "operator": "Stadt Seligenstadt"
  }
},
{
  "type": "way",
  "id": 25635117,
  "center": {
    "lat": 50.2564973,
    "lon": 8.1333822
  },
  "nodes": [
    279403103,
    279403104,
    279403105,
    279403106,
    279403103
  ],
  "tags": {
    "landuse": "cemetery",
    "name": "Friedhof Panrod"
  }
},
{
  "type": "way",
  "id": 25645025,
  "center": {
    "lat": 50.1131565,
    "lon": 8.9007026
  },
  "nodes": [
    279553106,
    2087683111,
    279553107,
    279553110,
    279553111,
    279553115,
    2075538367,
    279553116,
    279553119,
    279553121,
    2075538364,
    2075538384,
    279553122,
    279553124,
    2075538397,
    2075538398,
    279553106
  ],
  "tags": {
    "landuse": "cemetery",
    "name": "Friedhof Steinheim-Nord",
    "wikidata": "Q116513003"
  }
},
{
  "type": "way",
  "id": 25667170,
  "center": {
    "lat": 50.1702964,
    "lon": 8.4483014
  },
  "nodes": [
    2035504561,
    2175281712,
    2035504555,
    279815041,
    279815097,
    279815150,
    12620272768,
    279815159,
    8862677531,
    2036455669,
    3825459378,
    279815169,
    279815208,
    8862677539,
    8836284051,
    8836284047,
    8836284046,
    7722308298,
    279815241,
    279815248,
    8836284044,
    2175281739,
    2035504561
  ],
  "tags": {
    "landuse": "cemetery",
    "name": "Friedhof Schneidhain",
    "operator": "Stadt Königstein im Taunus"
  }
},
{
  "type": "way",
  "id": 25683675,
  "center": {
    "lat": 50.1069191,
    "lon": 8.9016623
  },
  "nodes": [
    280003291,
    280003295,
    280003297,
    280003293,
    280003291
  ],
  "tags": {
    "landuse": "cemetery",
    "name": "Neuer Jüdischer Friedhof",
    "religion": "jewish"
  }
},
{
  "type": "way",
  "id": 25720160,
  "center": {
    "lat": 50.0896262,
    "lon": 8.1292979
  },
  "nodes": [
    280451728,
    12568555219,
    12568555218,
    879692248,
    12568555217,
    12568555216,
    1848982563,
    1848982564,
    12568555046,
    1848950734,
    12568555047,
    12421640081,
    280451736,
    1848950767,
    1848982566,
    879678575,
    280451728
  ],
  "tags": {
    "barrier": "fence",
    "landuse": "cemetery",
    "name": "Friedhof Georgenborn"
  }
},
{
  "type": "way",
  "id": 25731224,
  "center": {
    "lat": 50.1930167,
    "lon": 8.7774684
  },