{
  "version": 0.6,
  "generator": "Overpass API 0.7.62.8 e802775f",
  "osm3s": {
    "timestamp_osm_base": "2025-11-02T22:55:22Z",
    "copyright": "The data included in this document is from www.openstreetmap.org. The data is made available under ODbL."
  },
  "elements": [

{
  "type": "way",
  "id": 4319068,
  "center": {
    "lat": 52.2238169,
    "lon": 9.8509538
  },
  "nodes": [
    26209286,
    26209287,
    26209288,
    26209285,
    981237369,
    26209286
  ],
  "tags": {
    "landuse": "cemetery",
    "name": "Ortsfriedhof Giesener Straße",
    "source": "Bing 2012"
  }
},
{
  "type": "way",
  "id": 4423869,
  "center": {
    "lat": 52.6826056,
    "lon": 9.6111307
  },
  "nodes": [
    27131869,
    12061611165,
    2836723329,
    7981734606,
    7981734607,
    4881971243,
    7973663350,
    12061609524,
    27131857,
    27131858,
    27131859,
    258834762,
    258834763,
    27131860,
    30354797,
    27131861,
    27131869
  ],
  "tags": {
    "landuse": "cemetery"
  }
},
{
  "type": "way",
  "id": 4438983,
  "center": {
    "lat": 52.7324720,
    "lon": 9.6089706
  },
  "nodes": [
    27247518,
    27247520,
    2338952095,
    27247515,
    27247516,
    27247518
  ],
  "tags": {
    "landuse": "cemetery",
    "name": "Friedhof Eickeloh"
  }
},
{
  "type": "way",
  "id": 4857791,
  "center": {
    "lat": 52.2614444,
    "lon": 9.7660779
  },
  "nodes": [
    31336587,
    2027843089,
    9289979614,
    9289979613,
    12997700263,
    12997700264,
    9289979604,
    1665785318,
    12997700287,
    12997901166,
    1665785315,
    2027843088,
    1665785307,
    2027843087,
    9779883509,
    9779883512,
    1665785309,
    2027843083,
    1665785305,
    11985086886,
    1665785311,
    1665785313,
    31336587
  ],
  "tags": {
    "heritage": "yes",
    "landuse": "cemetery",
    "name": "Friedhof der Ev.-luth. St. Lucas-Kirchengemeinde Pattensen",
    "source": "Bing 2012",
    "wikidata": "Q58006795"
  }
},
{
  "type": "way",
  "id": 5024100,
  "center": {
    "lat": 52.4411039,
    "lon": 9.6927246
  },
  "nodes": [
    33520043,
    371739705,
    33520040,
    12337172395,
    33520041,
    33354303,
    33354304,
    33520043
  ],
  "tags": {
    "landuse": "cemetery"
  }
},
{
  "type": "way",
  "id": 5108576,
  "center": {
    "lat": 52.4048468,
    "lon": 9.6674454
  },
  "nodes": [
    665663245,
    9826365926,
    9834057251,
    9826365922,
    9834057250,
    665663247,
    665663236,
    367602343,
    1547809928,
    1547809929,
    34970219,
    1547809949,
    1547810018,
    9826365916,
    1547810101,
    1547810130,
    1547810169,
    34970221,
    12684937609,
    12684937610,
    9826365915,
    9826365914,
    9826365913,
    34970222,
    9438679691,
    9844340905,
    9844340907,
    9844340904,
    9844340903,
    9844340906,
    1547810277,
    370583362,
    356289610,
    1547810292,
    370583361,
    370583360,
    1547810289,
    1547810287,
    1547810274,
    34970217,
    34970215,
    9826356134,
    9826356135,
    9853335706,
    1547810083,
    1547809985,
    2449309040,
    2449309039,
    369326754,
    34970212,
    2449309035,
    369326753,
    1547809825,
    366653097,
    9438679700,
    9826365917,
    366653096,
    366653095,
    9970102453,
    1547809817,
    9970102435,
    9834057248,
    9970102455,
    665663245
  ],
  "tags": {
    "alt_name": "Stöckener Friedhof",
    "heritage": "4",
    "heritage:operator": "nld",
    "landuse": "cemetery",
    "lit": "no",
    "name": "Stadtfriedhof Stöcken",
    "start_date": "1.1.1891",
    "wikidata": "Q2327129",
    "wikipedia": "de:Stadtfriedhof Stöcken"
  }
},
{
  "type": "way",
  "id": 7798805,
  "center": {
    "lat": 52.9151350,
    "lon": 9.2345035
  },
  "nodes": [
    57058328,
    6949843398,
    6949843397,
    6949843396,
    11238116826,
    11238116827,
    11238116824,
    11238116825,
    11238116822,
    57058324,
    1109355687,
    9837750931,
    57058325,
    1109355669,
    57058326,
    57058327,
    57058328
  ],
  "tags": {
    "denomination": "lutheran",
    "landuse": "cemetery",
    "name": "Domfriedhof",
    "operator": "Evangelisch-lutherischer Kirchengemeindeverband Kirchliche Friedhöfe Verden",
    "religion": "christian"
  }
},
{
  "type": "way",
  "id": 8795989,
  "center": {
    "lat": 52.4558584,
    "lon": 9.7565491
  },
  "nodes": [
    63340910,
    2524437484,
    8360694160,
    63340917,
    1704651998,
    1704652004,
    9559037680,
    9559037681,
    1704652022,
    1704652000,
    1704651999,
    1704652007,
    1704652025,
    1704652010,
    63340923,
    1215237366,
    1215237931,
    1215238095,
    1215237746,
    63340929,
    1215237871,
    1215237795,
    2524437487,
    63340910
  ],
  "tags": {
    "landuse": "cemetery",
    "name": "Friedhof Grenzheide",
    "opening_hours": "Mar,Oct: Mo-Su 7:00-18:00; Apr,Sep: Mo-Su 7:00-19:00; May-Aug: Mo-Su 7:00-20:00; Nov-Feb Mo-Su 7:00-17:00",
    "source": "Bing"
  }
},
{
  "type": "way",
  "id": 9923150,
  "center": {
    "lat": 52.3779616,
    "lon": 9.7256057
  },
  "nodes": [
    338823731,
    338836426,
    338836439,
    260041051,
    1366953837,
    81076895,
    1406882929,
    1690427977,
    1406882946,
    1690427979,
    1406882969,
    1690427985,
    260041055,
    1406883086,
    343305018,
    1406883155,
    1406883200,
    1406883237,
    1406883270,
    1406883331,
    5372639857,
    5372639859,
    5372639860,
    1439219743,
    81076900,
    338823734,
    338823733,
    338823732,
    338823731
  ],
  "tags": {
    "heritage": "4",
    "heritage:operator": "nld",
    "landuse": "cemetery",
    "name": "Neustädter Friedhof",
    "start_date": "1646",
    "wikidata": "Q1981765",
    "wikimedia_commons": "Category:Neustädter Friedhof (Hannover)",
    "wikipedia": "de:Neustädter Friedhof (Hannover)"
  }
},
{
  "type": "way",
  "id": 10070177,
  "center": {
    "lat": 52.3460108,
    "lon": 9.4042016
  },
  "nodes": [
    82756904,
    82756901,
    8084109098,
    82756908,
    82756912,
    82776696,
    82756904
  ],
  "tags": {
    "landuse": "cemetery"
  }
},
{
  "type": "way",
  "id": 10514658,
  "center": {
    "lat": 52.3405336,
    "lon": 9.3603943
  },
  "nodes": [
    90539528,
    90539542,
    90539549,
    90539553,
    90539458,
    90539560,
    13041795518,
    90539528
  ],
  "tags": {
    "landuse": "cemetery"
  }
},
{
  "type": "way",
  "id": 10709753,
  "center": {
    "lat": 52.2937024,
    "lon": 9.9502158
  },
  "nodes": [
    95048498,
    95048500,
    95048501,
    95048502,
    95048503,
    95048504,
    95048506,
    95048498
  ],
  "tags": {
    "denomination": "catholic",
    "landuse": "cemetery",
    "religion": "christian"
  }
},
{
  "type": "way",
  "id": 10783412,
  "center": {
    "lat": 52.3023247,
    "lon": 9.9468134
  },
  "nodes": [
    95960572,
    95960574,
    10611477540,
    10611477542,
    95960572
  ],
  "tags": {
    "landuse": "cemetery",
    "name": "Judenfriedhof",
    "religion": "jewish",
    "wikidata": "Q1670100",
    "wikipedia": "de:Jüdischer Friedhof Bolzum"
  }
},
{
  "type": "way",
  "id": 16306235,
  "center": {
    "lat": 52.6029785,
    "lon": 9.7156712
  },
  "nodes": [
    166823140,
    166823128,
    166823116,
    166823106,
    166823140
  ],
  "tags": {
    "denomination": "protestant",
    "landuse": "cemetery",
    "name": "Friedhof Berkhof",
    "religion": "christian",
    "wikidata": "Q78783990"
  }
},
{
  "type": "way",
  "id": 22381153,
  "center": {
    "lat": 52.2785177,
    "lon": 9.6497453
  },
  "nodes": [
    2508198670,
    6362274869,
    240650498,
    240650505,
    2284775468,
    2284775470,
    2284775469,
    2284775472,
    2508198678,
    2508198686,
    2508198676,
    2508198670
  ],
  "tags": {
    "landuse": "cemetery",
    "name": "Friedhof Vörie",
    "operator": "Stadt Ronnenberg",
    "wikidata": "Q117717128"
  }
},
{
  "type": "way",
  "id": 22986344,
  "center": {
    "lat": 52.8573047,
    "lon": 9.5882512
  },
  "nodes": [
    247794033,
    1744105141,
    10959470144,
    1744105134,
    247794034,
    12041846727,
    10959470199,
    1744105124,
    247794035,
    7112284101,
    247794036,
    6314686882,
    6314689286,
    247794037,
    247794033
  ],
  "tags": {
    "landuse": "cemetery",
    "name": "Friedhof Walsrode"
  }
},
{
  "type": "way",
  "id": 23083288,
  "center": {
    "lat": 52.8605160,
    "lon": 9.7037041
  },
  "nodes": [
    249153421,
    249153422,
    249153423,
    3443520860,
    249153424,
    249153425,
    249153426,
    2342486438,
    249153427,
    249153428,
    2342486471,
    249153421
  ],
  "tags": {
    "landuse": "cemetery",
    "operator": "St. Dionysius Kirchengemeinde"
  }
},
{
  "type": "way",
  "id": 23091092,
  "center": {
    "lat": 52.3635835,
    "lon": 9.7032423
  },
  "nodes": [
    249260207,
    249260209,
    249260210,
    249260211,
    1601254822,
    1601254799,
    249260212,
    10300123692,
    249260213,
    11351187546,
    11355680915,
    11355680916,
    11355680917,
    11355680918,
    249260241,
    249350315,
    249260218,
    249260220,
    249260221,
    249260223,
    249260225,
    249260226,
    249260228,
    277697250,
    9970734798,
    249260230,
    249260235,
    249319278,
    249319277,
    249260207
  ],
  "tags": {
    "heritage": "4",
    "heritage:operator": "nld",
    "landuse": "cemetery",
    "name": "Stadtfriedhof Am Lindener Berge",
    "ref:nld": "30778741",
    "source": "HiRes aerial imagery 2009",
    "start_date": "1862",
    "wikidata": "Q18490866",
    "wikimedia_commons": "Category:Stadtteilfriedhof Lindener Berg (Hannover)",
    "wikipedia": "de:Stadtteilfriedhof Lindener Berg"
  }
},
{
  "type": "way",
  "id": 23353130,
  "center": {
    "lat": 52.4017327,
    "lon": 9.6400911
  },
  "nodes": [
    252876933,
    319199216,
    254937543,
    319199758,
    5295719149,
    5295719148,
    5295719146,
    5295719147,
    324335510,
    324324846,
    324324847,
    327042091,
    311107940,
    324323759,
    254938412,
    252875941,
    10777655311,
    10777655312,
    252875942,
    252875938,
    252876934,
    252876933
  ],
  "tags": {
    "landuse": "cemetery",
    "name": "Neuer Friedhof",
    "religion": "christian"
  }
},
{
  "type": "way",
  "id": 23450212,
  "center": {
    "lat": 52.6374270,
    "lon": 9.3297158
  },
  "nodes": [
    253963732,
    253963733,
    253963734,
    13002333512,
    253963735,
    253963732
  ],
  "tags": {
    "landuse": "cemetery"
  }
},
{
  "type": "way",
  "id": 23568236,
  "center": {
    "lat": 52.3031372,
    "lon": 9.4674603
  },
  "nodes": [
    255242641,
    255242642,
    255242643,
    255242644,
    255242645,
    255242646,
    255242647,
    255242641
  ],
  "tags": {
    "landuse": "cemetery",
    "name": "Waldfriedhof",
    "wikidata": "Q117715612"
  }
},
{
  "type": "way",
  "id": 23596917,
  "center": {
    "lat": 52.3846811,
    "lon": 9.6515452
  },
  "nodes": [
    255541973,
    255541974,
    1562386006,
    1562386010,
    255541975,
    1562386029,
    687903185,
    2176921258,
    687903186,
    2176921261,
    3441029181,
    1028210159,
    255541976,
    687903187,
    687903188,
    255541973
  ],
  "tags": {
    "alt_name": "Ahlemer Waldfriedhof",
    "heritage": "4",
    "heritage:operator": "nld",
    "landuse": "cemetery",
    "name": "Stadtfriedhof Ahlem",
    "note": "FIXME: Please Track!",
    "ref:nld": "30758074",
    "source": "local_knowledge",
    "start_date": "1913",
    "toilets:wheelchair": "no",
    "wheelchair": "yes",
    "wikidata": "Q21037060",
    "wikimedia_commons": "File:2015-08-15 Wald- und Stadtteilfriedhof Ahlem, Hannover, 1.JPG",
    "wikipedia": "de:Stadtteilfriedhof Ahlem"
  }
},
{
  "type": "way",
  "id": 23682077,
  "center": {
    "lat": 52.3794690,
    "lon": 9.5555268
  },
  "nodes": [
    256438235,
    256438236,
    256438237,
    256438238,
    256438235
  ],
  "tags": {
    "created_by": "Potlatch 0.9",
    "landuse": "cemetery"
  }
},
{
  "type": "way",
  "id": 23699512,
  "center": {
    "lat": 52.5586687,
    "lon": 9.7301051
  },
  "nodes": [
    256614118,
    256614120,
    2133740862,
    256614122,
    2476773064,
    256614125,
    256614118
  ],
  "tags": {
    "landuse": "cemetery"
  }
},
{
  "type": "way",
  "id": 23749786,
  "center": {
    "lat": 52.3569661,
    "lon": 9.8308455
  },
  "nodes": [
    257292648,
    10170305517,
    10170299316,
    1993668840,
    10170299314,
    10170305523,
    12810500187,
    10170305522,
    1993668842,
    5650120042,
    5650120043,
    5650120044,
    1993668733,
    1993668735,
    257504428,
    257292653,
    1993668817,
    257292648
  ],
  "tags": {
    "alt_name": "Friedhof Anderten",
    "alt_name_1": "Andertener Friedhof",
    "heritage": "4",
    "heritage:operator": "nld",
    "landuse": "cemetery",
    "name": "Stadtteilfriedhof Anderten",
    "opening_hours": "Mar 15-Nov 01 08:00-20:00; Nov 02-Mar 14 09:00-17:00",
    "operator": "Stadt Hannover",
    "ref:nld": "30694185",
    "source": "HiRes aerial imagery 2009;Stadt Hannover",
    "start_date": "1876",
    "wikidata": "Q31920395",
    "wikipedia": "de:Stadtteilfriedhof Anderten"
  }
},
{
  "type": "way",
  "id": 23759147,
  "center": {
    "lat": 52.3391527,
    "lon": 9.7908439
  },
  "nodes": [
    257415925,
    265707206,
    393356996,
    257415926,
    6920242457,
    1629708971,
    257415927,
    1629708970,
    1629708951,
    257415928,
    1629708952,
    308536304,
    308536302,
    308536301,
    9949726102,
    9949726101,
    9949726100,
    257415929,
    13035429955,
    257415931,
    1629708973,
    1629708972,
    2022755062,
    2022755064,
    2022755070,
    2022755072,
    1629708974,
    1629708980,
    9949718059,
    9949718054,
    9949718055,
    9949718056,
    9949718057,
    9949718058,
    1135820873,
    257415933,
    393356947,
    265707205,
    257415925
  ],
  "tags": {
    "landuse": "cemetery",
    "name": "Stadtfriedhof Seelhorst",
    "start_date": "1920",
    "website": "https://www.hannover.de/Kultur-Freizeit/Naherholung/G%C3%A4rten-genie%C3%9Fen/Friedh%C3%B6fe-in-Hannover/Die-Friedh%C3%B6fe-der-Landeshauptstadt-Hannover/Stadtfriedhof-Seelhorst",
    "wikidata": "Q2327125",
    "wikimedia_commons": "Category:Stadtfriedhof Seelhorst (Hannover)",
    "wikipedia": "de:Stadtfriedhof Seelhorst"
  }
},
{
  "type": "way",
  "id": 23842223,
  "center": {
    "lat": 52.4100486,
    "lon": 9.6300713
  },
  "nodes": [
    258359847,
    294757919,
    2289735024,
    2289735022,
    297461928,
    2289735015,
    2289735012,
    2289735010,
    2289735011,
    297371876,
    297371260,
    297371249,
    258359848,
    2289734988,
    309642677,
    258359849,
    12925829131,
    294757909,
    258359847
  ],
  "tags": {
    "denomination": "lutheran",
    "landuse": "cemetery",
    "name": "Friedhof Marienwerder",
    "religion": "christian",
    "wikidata": "Q26822100",
    "wikipedia": "de:Friedhof Marienwerder"
  }
},
{
  "type": "way",
  "id": 23905758,
  "center": {
    "lat": 52.3729389,
    "lon": 9.6568061
  },
  "nodes": [
    259101353,
    1708363275,
    1708363212,
    10593466572,
    1708363209,
    10593466565,
    10593466566,
    259101357,
    259101353
  ],
  "tags": {
    "fenced": "yes",
    "landuse": "cemetery",
    "name": "Friedhof Velber",
    "wikidata": "Q117717202",
    "wikimedia_commons": "Category:Friedhof Velber"
  }
},
{
  "type": "way",
  "id": 23941734,
  "center": {
    "lat": 52.4116571,
    "lon": 9.7963553
  },
  "nodes": [
    259509131,
    12438172097,
    259509134,
    259509133,
    259509132,
    259509131
  ],
  "tags": {
    "addr:city": "Hannover",
    "addr:housenumber": "54",
    "addr:postcode": "30659",
    "addr:street": "Ebelingstraße",
    "alt_name": "Friedhof an der St. Nicolai-Kirche",
    "denomination": "lutheran",
    "heritage": "4",
    "heritage:operator": "nld",
    "landuse": "cemetery",
    "name": "Alter Bothfelder Friedhof",
    "nld:criteria": "Baudenkmal",
    "ref:nld": "30596648",
    "religion": "christian",
    "source": "HiRes aerial imagery 2009",
    "start_date": "1847",
    "wikidata": "Q56089120",
    "wikimedia_commons": "Category:Alter Friedhof Bothfeld",
    "wikipedia": "de:Alter Bothfelder Friedhof"
  }
},
{
  "type": "way",
  "id": 24205328,
  "center": {
    "lat": 52.5427600,
    "lon": 9.7313101
  },
  "nodes": [
    262093727,
    262093738,
    5440605466,
    5440605465,
    262093739,
    262093740,
    262093727
  ],
  "tags": {
    "landuse": "cemetery",
    "layer": "-1",
    "name": "Friedhof Mellendorf",
    "wikidata": "Q117717348"
  }
},
{
  "type": "way",
  "id": 24308923,
  "center": {
    "lat": 52.7599183,
    "lon": 9.5455051
  },
  "nodes": [
    263451148,
    263451153,
    2125037100,
    603241104,
    603241105,
    263451156,
    263451157,
    603241155,
    263451148
  ],
  "tags": {
    "barrier": "wall",
    "landuse": "cemetery"
  }
},
{
  "type": "way",
  "id": 24353637,
  "center": {
    "lat": 52.1065518,
    "lon": 9.3679634
  },
  "nodes": [
    264184952,
    264184953,
    496285834,
    1401623021,
    1401623019,
    264184954,
    1401623015,
    1401623012,
    496302622,
    1401623008,
    1401623007,
    1401623006,
    1401623003,
    496302623,
    264184955,
    1401622999,
    1401622997,
    1401622983,
    264184956,
    1401622944,
    1401622934,
    264184957,
    1401622928,
    496285716,
    496285698,
    264184958,
    1401623000,
    1401623001,
    1415449311,
    1401623002,
    1401623004,
    496285730,
    496302617,
    264184952
  ],
  "tags": {
    "landuse": "cemetery",
    "name": "Deisterfriedhof"
  }
},
{
  "type": "way",
  "id": 24377885,
  "center": {
    "lat": 52.1229576,
    "lon": 9.4297359
  },
  "nodes": [
    3127516929,
    3127516322,
    3127516308,
    264504723,
    1446632813,
    264504724,
    3127512649,
    3127516319,
    3127516929
  ],
  "tags": {
    "landuse": "cemetery",
    "name": "Friedhof Hilligsfeld"
  }
},
{
  "type": "way",
  "id": 24521388,
  "center": {
    "lat": 52.7047671,
    "lon": 9.6610553
  },
  "nodes": [
    266648032,
    266648034,
    266648035,
    266648036,
    266648037,
    266648039,
    266648040,
    266648041,
    266648043,
    266648044,
    266648045,
    266648047,
    266648048,
    266648032
  ],
  "tags": {
    "historic": "memorial",
    "landuse": "cemetery",
    "name": "Soldatenfriedhof Essel"
  }
},
{
  "type": "way",
  "id": 24528219,
  "center": {
    "lat": 52.9066450,
    "lon": 9.7740839
  },
  "nodes": [
    266714496,
    1521737044,
    1521737042,
    266714498,
    266714499,
    266714505,
    266714507,
    266714508,
    266714496
  ],
  "tags": {
    "landuse": "cemetery",
    "name": "Friedhof Dorfmark"
  }
},
{
  "type": "way",
  "id": 24536627,
  "center": {
    "lat": 52.4193813,
    "lon": 9.7015778
  },
  "nodes": [
    266800994,
    266800995,
    266800997,
    8114317679,
    12681242683,
    8114317681,
    266800999,
    266801000,
    8114635792,
    1077520589,
    438285975,
    1077549431,
    266800994
  ],
  "tags": {
    "landuse": "cemetery",
    "name": "Stadtteilfriedhof Vinnhorst",
    "opening_hours": "Mar 15-Oct 31: 08:00-20:00; Nov 01-Mar 14: 09:00-17:00",
    "religion": "christian",
    "wikidata": "Q105154786",
    "wikimedia_commons": "Category:Stadtteilfriedhof Vinnhorst (Hannover)"
  }
},
{
  "type": "way",
  "id": 24754993,
  "center": {
    "lat": 52.2108376,
    "lon": 9.5600384
  },
  "nodes": [
    269020378,
    269020379,
    7034040408,
    7034040409,
    7034040410,
    269020380,
    7034040411,
    366039195,
    11459430384,
    11459430383,
    269020381,
    269020382,
    1380966745,
    1380966740,
    472352705,
    472352706,
    269020378
  ],
  "tags": {
    "heritage": "4",
    "heritage:operator": "nld",
    "landuse": "cemetery",
    "name": "Alter Friedhof",
    "wikidata": "Q107685228",
    "wikipedia": "de:Alter Friedhof (Springe)"
  }
},
{
  "type": "way",
  "id": 24758541,
  "center": {
    "lat": 52.2063798,
    "lon": 9.5417890
  },
  "nodes": [
    269053486,
    11281961871,
    3751186906,
    269053487,
    11414418952,
    11414418953,
    269053488,
    11414418955,
    11414418954,
    769029458,
    269053489,
    269053560,
    2874546758,
    11414418947,
    11414418948,
    2874546750,
    2874546752,
    2874546754,
    269053490,
    1250023940,
    1250023821,
    269053486
  ],
  "tags": {
    "landuse": "cemetery",
    "name": "Neuer Friedhof"
  }
},
{
  "type": "way",
  "id": 24769569,
  "center": {
    "lat": 52.1321877,
    "lon": 9.3200047
  },
  "nodes": [
    269170318,
    1390767666,
    1390767668,
    1390767669,
    1390767670,
    1390767667,
    269170319,
    1345192948,
    269170320,
    1406964000,
    269170318
  ],
  "tags": {
    "barrier": "fence",
    "landuse": "cemetery",
    "layer": "1",
    "name": "Waldfriedhof Wehrbergen"
  }
},
{
  "type": "way",
  "id": 24810359,
  "center": {
    "lat": 52.3816121,
    "lon": 9.7227224
  },
  "nodes": [
    1336896475,
    1336896506,
    1336896491,
    1336896458,
    1336896480,
    1336896487,
    1336896428,
    1336896469,
    1336896486,
    1336896419,
    1336896450,
    2294078585,
    2294078588,
    1690460150,
    2294078580,
    1322320768,
    1690460147,
    1336896475
  ],
  "tags": {
    "alt_name": "Alter Jüdischer Friedhof an der Oberstraße",
    "historic": "yes",
    "landuse": "cemetery",
    "name": "Alter Jüdischer Friedhof",
    "name:en": "Old Jewish Cemetery",
    "religion": "jewish",
    "wikidata": "Q438027",
    "wikimedia_commons": "Category:Alter Jüdischer Friedhof an der Oberstraße",
    "wikipedia": "de:Alter Jüdischer Friedhof an der Oberstraße"
  }
},
{
  "type": "way",
  "id": 24929468,
  "center": {
    "lat": 52.1046871,
    "lon": 9.3664285
  },
  "nodes": [
    3823066476,
    270907846,
    270907847,
    270907848,
    1401622931,
    3823066476
  ],
  "tags": {
    "landuse": "cemetery",
    "name": "Soldatenfriedhof"
  }
},
{
  "type": "way",
  "id": 24969893,
  "center": {
    "lat": 52.1410364,
    "lon": 9.2709609
  },
  "nodes": [
    271336872,
    271336874,
    271336875,
    2280888776,
    2280888774,
    2280888777,
    271336872
  ],
  "tags": {
    "landuse": "cemetery",
    "name": "Friedhof Lachem"
  }
},
{
  "type": "way",
  "id": 24975012,
  "center": {
    "lat": 52.2071395,
    "lon": 9.9097025
  },
  "nodes": [
    271383789,
    2085668042,
    2085668043,
    2085668044,
    271383812,
    271383802,
    1496719791,
    271383805,
    271383808,
    2085668035,
    1496719770,
    271383809,
    271383789
  ],
  "tags": {
    "landuse": "cemetery",
    "religion": "christian"
  }
},
{
  "type": "way",
  "id": 24998034,
  "center": {
    "lat": 52.9914616,
    "lon": 9.5872097
  },
  "nodes": [
    271752330,
    271752332,
    271752334,
    271752335,
    271752337,
    271752338,
    271752340,
    271752346,
    271752348,
    271752349,
    271752351,
    271752353,
    271752354,
    271752356,
    271752357,
    271752359,
    271752330
  ],
  "tags": {
    "landuse": "cemetery"
  }
},
{
  "type": "way",
  "id": 25055190,
  "center": {
    "lat": 52.1783631,
    "lon": 9.0787764
  },
  "nodes": [
    272588663,
    272588665,
    272588666,
    272588667,
    272588668,
    272588669,
    272588670,
    272588671,
    272588672,
    272588673,
    272588674,
    272588675,
    272588663
  ],
  "tags": {
    "landuse": "cemetery",
    "name": "Seetor-Friedhof"
  }
},
{
  "type": "way",
  "id": 25150811,
  "center": {
    "lat": 52.3830512,
    "lon": 9.6146862
  },
  "nodes": [
    274099207,
    274099208,
    1111364358,
    1111364357,
    1111364332,
    274099209,
    274099210,
    3496567139,
    274099211,
    1111364384,
    274099207
  ],
  "tags": {
    "landuse": "cemetery",
    "name": "Friedhof Harenberg"
  }
},
{
  "type": "way",
  "id": 25185631,
  "center": {
    "lat": 52.0503567,
    "lon": 9.9390987
  },
  "nodes": [
    274558383,
    344586075,
    344586074,
    274558386,
    274558383
  ],
  "tags": {
    "landuse": "cemetery"
  }
},
{
  "type": "way",
  "id": 25261396,
  "center": {
    "lat": 52.1377186,
    "lon": 9.9429358
  },
  "nodes": [
    2689386066,
    2689386064,
    2689386062,
    1863917061,
    1863917048,
    275270402,
    275270403,
    275270404,
    275270405,
    3469222811,
    3469222814,
    3469222812,
    3469222813,
    275269370,
    275269267,
    5835863456,
    5835863455,
    5835863454,
    5835863453,
    5835863452,
    5835863451,
    2689386066
  ],
  "tags": {
    "landuse": "cemetery",
    "name": "Domfriedhof",
    "source": "bing"
  }
},
{
  "type": "way",
  "id": 25395946,
  "center": {
    "lat": 52.1278636,
    "lon": 9.9726452
  },
  "nodes": [
    276880551,
    3023819289,
    3023819288,
    3023819286,
    3023819287,
    3023819284,
    276777287,
    276780451,
    3023819285,
    475352525,
    475352527,
    276780453,
    276780454,
    3769962671,
    470048795,
    470048798,
    470048799,
    469393183,
    1387458197,
    1387458201,
    276780436,
    276780447,
    7528505642,
    3480747057,
    3480747058,
    3480747061,
    3480747062,
    3480747060,
    3480747059,
    276880551
  ],
  "tags": {
    "landuse": "cemetery",
    "name": "Südfriedhof",
    "religion": "christian"
  }
},
{
  "type": "way",
  "id": 25456014,
  "center": {
    "lat": 52.2128575,
    "lon": 9.9284071
  },
  "nodes": [
    277403517,
    1721606633,
    1721606634,
    884141282,
    412352877,
    277403517
  ],
  "tags": {
    "landuse": "cemetery",
    "religion": "christian"
  }
},
{
  "type": "way",
  "id": 25456023,
  "center": {
    "lat": 52.2003598,
    "lon": 9.9028719
  },
  "nodes": [
    277403540,
    277403537,
    277403538,
    277403539,
    935754919,
    2656287926,
    277403540
  ],
  "tags": {
    "barrier": "hedge",
    "landuse": "cemetery",
    "religion": "christian"
  }
},
{
  "type": "way",
  "id": 25456024,
  "center": {
    "lat": 52.1953781,
    "lon": 9.9233454
  },
  "nodes": [
    277403541,
    450234893,
    2458746677,
    450234895,
    277403544,
    277403541
  ],
  "tags": {
    "landuse": "cemetery",
    "religion": "christian"
  }
},
{
  "type": "way",
  "id": 25456025,
  "center": {
    "lat": 52.2054073,
    "lon": 9.9548455
  },
  "nodes": [
    277403547,
    1902440849,
    2677206128,
    259144786,
    259144785,
    259144783,
    1902440861,
    1902440862,
    1902440863,
    277403547
  ],
  "tags": {
    "barrier": "fence",
    "fence_type": "hedge",
    "landuse": "cemetery",
    "religion": "christian"
  }
},
{
  "type": "way",
  "id": 25623929,
  "center": {
    "lat": 52.3490949,
    "lon": 9.7551000
  },
  "nodes": [
    9947797390,
    9947797400,
    9947797399,
    9947797398,
    9947797397,
    9947797396,
    9947797395,
    9947797394,
    9947797393,
    9947797392,
    9947797391,
    9947797402,
    732163632,
    279271178,
    279271181,
    298949954,
    732112351,
    732112350,
    298949956,
    298949955,
    279271182,
    279271183,
    279271184,
    298949953,
    732123028,
    279271185,
    279271186,
    279271187,
    279271188,
    279271190,
    279271192,
    279271193,
    279271194,
    279271195,
    333008036,
    279271196,
    279271197,
    732123024,
    279271198,
    279271199,
    279271201,
    2026305634,
    2026305632,
    9947848128,
    9947848127,
    9947848149,
    9947797408,
    9947797410,
    9947797409,
    2026305637,
    9947797407,
    9947848151,
    2026305641,
    279271202,
    279271174,
    9947797390
  ],
  "tags": {
    "landuse": "cemetery",
    "name": "Stadtfriedhof Engesohde",
    "name:de": "Stadtfriedhof Engesohde",
    "name:en": "Engesohde City Cemetery",
    "name:ja": "エンゲゾーデ墓地",
    "start_date": "1861",
    "website": "https://www.visit-hannover.com/Sehensw%C3%BCrdigkeiten-Stadttouren/G%C3%A4rten,-Parks-und-Zoo/Stadtfriedhof-Engesohde",
    "wikidata": "Q2327118",
    "wikimedia_commons": "Category:Stadtfriedhof Engesohde",
    "wikipedia": "de:Stadtfriedhof Engesohde"
  }
},
{
  "type": "way",
  "id": 25687135,
  "center": {
    "lat": 52.3629689,
    "lon": 9.5389133
  },
  "nodes": [
    280060595,
    2473514656,
    2473514655,
    280060743,
    280060598,
    4240036152,
    13119578800,
    280060595
  ],
  "tags": {
    "landuse": "cemetery",
    "source": "Bing 2012"
  }
},
{
  "type": "way",
  "id": 25827667,
  "center": {
    "lat": 52.1432477,
    "lon": 9.9602542
  },
  "nodes": [
    2467417321,
    1635176517,
    281716599,
    1635176546,
    281716473,
    281716654,
    1635176580,
    273123781,
    273123784,
    2467417321
  ],
  "tags": {
    "landuse": "cemetery",
    "name": "St. Lamberti"
  }
},
{
  "type": "way",
  "id": 25978867,
  "center": {
    "lat": 52.4624810,
    "lon": 9.8753315
  },
  "nodes": [
    283404846,
    283404847,
    283404848,
    283404849,
    283404846
  ],
  "tags": {
    "amenity": "grave_yard",
    "description": "Grabstätte Gerhardt Hoyermann",
    "historic": "tomb",
    "tomb": "mausoleum"
  }
},
{
  "type": "way",
  "id": 25997732,
  "center": {
    "lat": 52.4676047,
    "lon": 9.8948388
  },
  "nodes": [
    283624763,
    283624764,
    2137899251,
    2137899041,
    2137899040,
    283624763
  ],
  "tags": {
    "landuse": "cemetery"
  }
},
{
  "type": "way",
  "id": 26211076,
  "center": {
    "lat": 52.3942615,
    "lon": 9.6055589
  },
  "nodes": [
    287014111,
    2071146095,
    2071146091,
    4448557138,
    287014112,
    287014113,
    287014114,
    2022106655,
    2022106652,
    12553964033,
    287014111
  ],
  "tags": {
    "landuse": "cemetery",
    "name": "Friedhof Seelze"
  }
},
{
  "type": "way",
  "id": 26279505,
  "center": {
    "lat": 52.2498486,
    "lon": 9.9695014
  },
  "nodes": [
    287854592,
    287854600,
    6090143721,
    6090143718,
    287854611,
    287854628,
    287854642,
    287854655,
    287854666,
    287854667,
    287854668,
    287854592
  ],
  "tags": {
    "landuse": "cemetery",
    "name": "Friedhof",
    "religion": "christian"
  }
},
{
  "type": "way",
  "id": 26311280,
  "center": {
    "lat": 52.3899470,
    "lon": 9.7197129
  },
  "nodes": [
    1390286786,
    1390286787,
    1390286788,
    1365423086,
    1365423088,
    1390286789,
    288250602,
    1378429603,
    1389400642,
    288250601,
    1558263231,
    1558263240,
    1558263244,
    1558263250,
    1558263292,
    1390286786
  ],
  "tags": {
    "barrier": "wall",
    "heritage": "4",
    "heritage:operator": "nld",
    "landuse": "cemetery",
    "name": "Jüdischer Friedhof An der Strangriede",
    "religion": "jewish",
    "start_date": "1864",
    "wikidata": "Q1716635",
    "wikimedia_commons": "Category:Jüdischer Friedhof An der Strangriede",
    "wikipedia": "de:Jüdischer Friedhof An der Strangriede"
  }
},
{
  "type": "way",
  "id": 26347494,
  "center": {
    "lat": 52.4971974,
    "lon": 9.9112278
  },
  "nodes": [
    2109651882,
    2109651930,
    2109651558,
    12568314526,
    12568314516,
    2109651882
  ],
  "tags": {
    "landuse": "cemetery"
  }
},
{
  "type": "way",
  "id": 26353202,
  "center": {
    "lat": 52.1679241,
    "lon": 9.9528680
  },
  "nodes": [
    288735321,
    921169041,
    288735322,
    288733021,
    288733022,
    288735325,
    412123281,
    288735326,
    288735327,
    412123290,
    288735328,
    288735329,
    1695006280,
    288735331,
    288735332,
    288735333,
    288735334,
    288735335,
    288735336,
    288735337,
    288735338,
    288735339,
    288735340,
    288735341,
    288735343,
    1695680742,
    3452235174,
    288735345,
    288735346,
    1344389160,
    1344389208,
    288735347,
    3452188813,
    288735350,
    568239586,
    288735321
  ],
  "tags": {
    "landuse": "cemetery",
    "name": "Nord-Friedhof",
    "wikidata": "Q121599635"
  }
},
{
  "type": "way",
  "id": 26394813,
  "center": {
    "lat": 52.4438748,
    "lon": 9.8985179
  },
  "nodes": [
    289161866,
    289161869,
    594972645,
    289161875,
    1187930478,
    289161876,
    289161866
  ],
  "tags": {
    "landuse": "cemetery",
    "layer": "1",
    "name": "Friedhof Kirchhorst"
  }
},
{
  "type": "way",
  "id": 26519968,
  "center": {
    "lat": 52.9035767,
    "lon": 9.6520103
  },
  "nodes": [
    290666297,
    292136529,
    292136530,
    290667604,
    290666306,
    290666308,
    290666810,
    290666315,
    290666297
  ],
  "tags": {
    "landuse": "cemetery"
  }
},
{
  "type": "way",
  "id": 26522875,
  "center": {
    "lat": 52.4212425,
    "lon": 9.3764394
  },
  "nodes": [
    290703862,
    290703863,
    1280628788,
    1280628676,
    1280628700,
    290703865,
    2240369741,
    290703866,
    290703867,
    290703862
  ],
  "tags": {
    "landuse": "cemetery",
    "name": "Friedhof Bokeloh",
    "religion": "christian"
  }
},
{
  "type": "way",
  "id": 26600781,
  "center": {
    "lat": 52.3979480,
    "lon": 9.3557295
  },
  "nodes": [
    291717875,
    291717880,
    291717885,
    291717890,
    10946840576,
    291717875
  ],
  "tags": {
    "landuse": "cemetery",
    "name": "Friedhof Idensen",
    "religion": "christian"
  }
},
{
  "type": "way",
  "id": 26601793,
  "center": {
    "lat": 52.4134679,
    "lon": 9.3527540
  },
  "nodes": [
    291728798,
    3695857520,
    876234958,
    291728799,
    291728814,
    291728828,
    291728830,
    291728798
  ],
  "tags": {
    "landuse": "cemetery",
    "name": "Friedhof Mesmerode",
    "religion": "christian"
  }
},
{
  "type": "way",
  "id": 26605039,
  "center": {
    "lat": 52.4324632,
    "lon": 9.4742366
  },
  "nodes": [
    291767781,
    291767782,
    291767783,
    291767784,
    291767785,
    291767786,
    3019723966,
    291767787,
    291767788,
    291767789,
    291767781
  ],
  "tags": {
    "landuse": "cemetery",
    "name": "Friedhof Luthe",
    "religion": "christian"
  }
},
{
  "type": "way",
  "id": 26605310,
  "center": {
    "lat": 52.3843003,
    "lon": 9.4518553
  },
  "nodes": [
    291771061,
    2712403897,
    291771062,
    291771063,
    2712403890,
    291771064,
    291771061
  ],
  "tags": {
    "landuse": "cemetery",
    "name": "Friedhof Kolenfeld",
    "religion": "christian",
    "source:geometry": "Bing 2012"
  }
},
{
  "type": "way",
  "id": 26844379,
  "center": {
    "lat": 52.4527761,
    "lon": 9.1500753
  },
  "nodes": [
    294858553,
    294858600,
    294858555,
    294858601,
    294858558,
    294858553
  ],
  "tags": {
    "landuse": "cemetery",
    "religion": "christian"
  }
},
{
  "type": "way",
  "id": 26922340,
  "center": {
    "lat": 52.4649323,
    "lon": 9.4529563
  },
  "nodes": [
    294997881,
    294997882,
    294997883,
    590020153,
    3088982049,
    3088982046,
    312788661,
    294997881
  ],
  "tags": {
    "landuse": "cemetery",
    "name": "Waldfriedhof Poggenhagen",
    "religion": "christian"
  }
},
{
  "type": "way",
  "id": 26924720,
  "center": {
    "lat": 52.1550972,
    "lon": 9.9391634
  },
  "nodes": [
    295025245,
    295025247,
    295025242,
    2332760334,
    9659337401,
    295025245
  ],
  "tags": {
    "landuse": "cemetery",
    "name": "Sankt Magdalenen Friedhof",
    "religion": "christian"
  }
},
{
  "type": "way",
  "id": 26934365,
  "center": {
    "lat": 52.3209746,
    "lon": 9.5978650
  },
  "nodes": [
    295136499,
    295136501,
    295136502,
    295136505,
    2042103272,
    295136506,
    295136508,
    295136510,
    295136512,
    295136518,
    295136519,
    295136523,
    295136527,
    295136528,
    295136499
  ],
  "tags": {
    "landuse": "cemetery",
    "name": "Friedhof Gehrden",
    "source": "Bing 2012"
  }
},
{
  "type": "way",
  "id": 26954850,
  "center": {
    "lat": 52.3741438,
    "lon": 9.6965201
  },
  "nodes": [
    295361326,
    295361327,
    10600574607,
    295361328,
    1408801945,
    1408801948,
    1408801951,
    1408801955,
    1408801956,
    295361330,
    295361331,
    295361326
  ],
  "tags": {
    "alt_name": "Stadtfriedhof Fössefeld",
    "alt_name_1": "Garnisonsfriedhof",
    "heritage": "4",
    "heritage:operator": "nld",
    "landuse": "cemetery",
    "name": "Stadtteilfriedhof Fössefeld",
    "ref:nld": "30775711",
    "start_date": "1868",
    "wikidata": "Q24258885",
    "wikimedia_commons": "Category:Stadtfriedhof Fössefeld",
    "wikipedia": "de:Stadtteilfriedhof Fössefeld"
  }
},
{
  "type": "way",
  "id": 27048559,
  "center": {
    "lat": 52.3901225,
    "lon": 9.7134670
  },
  "nodes": [
    1597036910,
    1597036908,
    1597036895,
    1597036893,
    1597036890,
    1597036886,
    1597036878,
    1597036867,
    1725638923,
    259609274,
    1597036847,
    1597036846,
    1526914205,
    259609275,
    1725638694,
    1725638656,
    1597036749,
    1725638686,
    1725638682,
    1526914096,
    1725638674,
    1526914076,
    1725638662,
    11982779823,
    1597036609,
    1725638672,
    1597036626,
    13154805204,
    259609270,
    259609271,
    1580302647,
    1580302723,
    1580302840,
    1725639025,
    1725639029,
    1725639102,
    1725639050,
    1725639074,
    1725639078,
    1526914334,
    1725639083,
    1725639086,
    1725639089,
    1725639093,
    1597036910
  ],
  "tags": {
    "denomination": "protestant",
    "heritage": "4",
    "heritage:operator": "nld",
    "landuse": "cemetery",
    "name": "Neuer Sankt-Nikolai-Friedhof",
    "religion": "christian",
    "start_date": "1866",
    "wikidata": "Q1980225",
    "wikimedia_commons": "Category:Neuer St. Nikolai Friedhof (Hannover)",
    "wikipedia": "de:Neuer St.-Nikolai-Friedhof"
  }
},
{
  "type": "way",
  "id": 27064083,
  "center": {
    "lat": 52.5730109,
    "lon": 9.7098036
  },
  "nodes": [
    2502826025,
    2502826029,
    2508870133,
    296939871,
    296940062,
    296939873,
    296940063,
    2502826027,
    2502826025
  ],
  "tags": {
    "amenity": "grave_yard",
    "layer": "-1",
    "name": "Friedhof Bennemühlen",
    "religion": "christian"
  }
},
{
  "type": "way",
  "id": 27182219,
  "center": {
    "lat": 52.5592120,
    "lon": 9.6814944
  },
  "nodes": [
    298258705,
    298258892,
    298258709,
    298258895,
    298258705
  ],
  "tags": {
    "landuse": "cemetery",
    "name": "Friedhof Brelingen",
    "religion": "christian"
  }
},
{
  "type": "way",
  "id": 27211432,
  "center": {
    "lat": 52.1115189,
    "lon": 9.6261726
  },
  "nodes": [
    298609696,
    298610073,
    298610074,
    298610075,
    298609702,
    298609703,
    298609704,
    298609705,
    298610076,
    2258211747,
    298609706,
    298426495,
    298609696
  ],
  "tags": {
    "landuse": "cemetery",
    "religion": "christian",
    "wheelchair": "limited"
  }
},
{
  "type": "way",
  "id": 27291706,
  "center": {
    "lat": 52.7632375,
    "lon": 9.8950717
  },
  "nodes": [
    299599863,
    299599864,
    6416646348,
    299656463,
    299599866,
    299599868,
    299599869,
    299599871,
    299599873,
    299599874,
    6416646330,
    299599878,
    299599881,
    6416646358,
    299599863
  ],
  "tags": {
    "denomination": "orthodox",
    "landuse": "cemetery",
    "memorial:conflict": "WW2",
    "name": "Sowjetischer Kriegsgefangenenfriedhof Hörsten"
  }
},
{
  "type": "way",
  "id": 27296464,
  "center": {
    "lat": 52.7592820,
    "lon": 9.9035325
  },
  "nodes": [
    299656569,
    299656572,
    299656574,
    299656576,
    299656578,
    299656581,
    299656584,
    2338468930,
    299656586,
    299656569
  ],
  "tags": {
    "landuse": "cemetery",
    "name": "Massengrab mit einer unbekannten Anzahl von Toten"
  }
},
{
  "type": "way",
  "id": 27296465,
  "center": {
    "lat": 52.7612233,
    "lon": 9.9117593
  },
  "nodes": [
    299656588,
    2338468962,
    299656590,
    299656593,
    299656594,
    299656588
  ],
  "tags": {
    "landuse": "cemetery",
    "name": "Massengrab mit 1000 Toten"
  }
},
{
  "type": "way",
  "id": 27296480,
  "center": {
    "lat": 52.7619745,
    "lon": 9.9064007
  },
  "nodes": [
    299656762,
    2338468983,
    299656763,
    299656764,
    299656765,
    299656762
  ],
  "tags": {
    "historic": "memorial",
    "landuse": "cemetery",
    "name": "Massengrab 8 mit 2500 Toten"
  }
},
{
  "type": "way",
  "id": 27296482,
  "center": {
    "lat": 52.7586683,
    "lon": 9.9086801
  },
  "nodes": [
    299656804,
    299656805,
    2338468910,
    299656807,
    299656808,
    299656804
  ],
  "tags": {
    "landuse": "cemetery",
    "name": "Massengrab für 1000 Tote"
  }
},
{
  "type": "way",
  "id": 27296483,
  "center": {
    "lat": 52.7580065,
    "lon": 9.9088191
  },
  "nodes": [
    299656810,
    2338468898,
    299656811,
    299656813,
    299656814,
    299656810
  ],
  "tags": {
    "landuse": "cemetery",
    "name": "Massengrab für 800 Tote"
  }
},
{
  "type": "way",
  "id": 27296484,
  "center": {
    "lat": 52.7584401,
    "lon": 9.9092146
  },
  "nodes": [
    299656811,
    299656813,
    299656819,
    299656820,
    2338468908,
    299656811
  ],
  "tags": {
    "landuse": "cemetery",
    "name": "Massengrab für 2500 Tote"
  }
},
{
  "type": "way",
  "id": 27296485,
  "center": {
    "lat": 52.7572949,
    "lon": 9.9068257
  },
  "nodes": [
    299656840,
    2338468853,
    299656843,
    299656846,
    299656848,
    299656840
  ],
  "tags": {
    "landuse": "cemetery",
    "name": "Massengrab für 800 Tote"
  }
},
{
  "type": "way",
  "id": 27296486,
  "center": {
    "lat": 52.7573250,
    "lon": 9.9074428
  },
  "nodes": [
    299656850,
    299656852,
    299656855,
    299656857,
    2338468854,
    299656850
  ],
  "tags": {
    "landuse": "cemetery",
    "name": "Massengrab für 800 Tote"
  }
},
{
  "type": "way",
  "id": 27296490,
  "center": {
    "lat": 52.7603868,
    "lon": 9.9042144
  },
  "nodes": [
    299656911,
    299656913,
    299656914,
    299656916,
    299656911
  ],
  "tags": {
    "landuse": "cemetery",
    "name": "Massengrab einer unbekannten Anzahl von Toten"
  }
},
{
  "type": "way",
  "id": 27296491,
  "center": {
    "lat": 52.7572438,
    "lon": 9.9046885
  },
  "nodes": [
    299656981,
    299656982,
    2338468848,
    299656984,
    299656985,
    299656981
  ],
  "tags": {
    "landuse": "cemetery",
    "name": "Massengrab für 800 Tote"
  }
},
{
  "type": "way",
  "id": 27296493,
  "center": {
    "lat": 52.7572582,
    "lon": 9.9052281
  },
  "nodes": [
    299656997,
    299656999,
    2338468847,
    299657000,
    299657002,
    299656997
  ],
  "tags": {
    "landuse": "cemetery",
    "name": "Massengrab für 1000 Tote"
  }
},
{
  "type": "way",
  "id": 27296494,
  "center": {
    "lat": 52.7574397,
    "lon": 9.9051821
  },
  "nodes": [
    299657003,
    299657005,
    299657006,
    299657008,
    2338468874,
    299657009,
    299657003
  ],
  "tags": {
    "landuse": "cemetery",
    "name": "Massengrab für 2000 Tote"
  }
},
{
  "type": "way",
  "id": 27296495,
  "center": {
    "lat": 52.7574241,
    "lon": 9.9056393
  },
  "nodes": [
    299657011,
    299657013,
    2338468852,
    299657014,
    299657016,
    299657011
  ],
  "tags": {
    "landuse": "cemetery",
    "name": "Massengrab für 5000 Tote"
  }
},
{
  "type": "way",
  "id": 27296503,
  "center": {
    "lat": 52.7577660,
    "lon": 9.9058235
  },
  "nodes": [
    299657098,
    299657099,
    299657101,
    299657102,
    2338468891,
    299657098
  ],
  "tags": {
    "landuse": "cemetery",
    "name": "Massengrab für 5000 Tote"
  }
},
{
  "type": "way",
  "id": 27429432,
  "center": {
    "lat": 52.6525398,
    "lon": 9.8409660
  },
  "nodes": [
    301139558,
    301139560,
    301139562,
    301139563,
    301139565,
    301139566,
    301139568,
    301139569,
    301139573,
    2211274763,
    301139558
  ],
  "tags": {
    "landuse": "cemetery",
    "religion": "christian",
    "source": "Bing 2012"
  }
},
{
  "type": "way",
  "id": 27448844,
  "center": {
    "lat": 52.3783033,
    "lon": 9.6542181
  },
  "nodes": [
    301379733,
    1817626336,
    1817626344,
    1817626349,
    1817626357,
    1817626360,
    1817626371,
    1817626375,
    1817626377,
    301379739,
    1817626373,
    1817626361,
    1817626358,
    1817626352,
    1817626347,
    1817626338,
    1817626334,
    301379741,
    301379742,
    2345193988,
    301379743,
    301379744,
    301379710,
    301379712,
    301379791,
    301379792,
    301379713,
    1817626602,
    301379714,
    1817626606,
    728172102,
    1817626604,
    301379715,
    1817626600,
    1817626592,
    1817626581,
    301379717,
    1817626577,
    1817626534,
    1817626532,
    1817626341,
    301379733
  ],
  "tags": {
    "landuse": "cemetery",
    "loc_name": "Englischer Friedhof",
    "name": "Military Cemetery Limmer",
    "name:en": "Military Cemetery Limmer",
    "operator": "Commonwealth War Graves Commission (CWGC)",
    "website": "https://www.cwgc.org/find-a-cemetery/cemetery/4007246/HANOVER%20MILITARY%20CEMETERY",
    "wheelchair": "yes"
  }
},
{
  "type": "way",
  "id": 27712087,
  "center": {
    "lat": 52.3419013,
    "lon": 9.6096621
  },
  "nodes": [
    304310705,
    304310706,
    304310707,
    304310708,
    304310709,
    304310705
  ],
  "tags": {
    "amenity": "grave_yard",
    "landuse": "cemetery",
    "name": "Friedhof Northen",
    "note": "TRACKME",
    "source": "Bing"
  }
},
{
  "type": "way",
  "id": 27867597,
  "center": {
    "lat": 52.4178195,
    "lon": 9.5824372
  },
  "nodes": [
    305959354,
    305959356,
    2626920855,
    310406568,
    305959357,
    310406569,
    310264755,
    11837830344,
    305959354
  ],
  "tags": {
    "addr:city": "Garbsen",
    "addr:housenumber": "23-29",
    "addr:postcode": "30823",
    "addr:street": "Alte Ricklinger Straße",
    "landuse": "cemetery",
    "layer": "-1",
    "name": "Friedhof Altgarbsen",
    "wikidata": "Q117662269"
  }
},
{
  "type": "way",
  "id": 27886857,
  "center": {
    "lat": 52.4656649,
    "lon": 9.4823166
  },
  "nodes": [
    306177427,
    306177428,
    306177429,
    306177430,
    306177427
  ],
  "tags": {
    "landuse": "cemetery",
    "source": "Bing 2012"
  }
},
{
  "type": "way",
  "id": 27889005,
  "center": {
    "lat": 52.4394461,
    "lon": 9.5347643
  },
  "nodes": [
    306207119,
    307682635,
    307682636,
    306207121,
    306207123,
    2234036405,
    306207125,
    306207119
  ],
  "tags": {
    "landuse": "cemetery",
    "source": "Bing 2012"
  }
},
{
  "type": "way",
  "id": 27959137,
  "center": {
    "lat": 52.4251088,
    "lon": 9.9603205
  },
  "nodes": [
    307179213,
    307179215,
    307179216,
    307179217,
    307179213
  ],
  "tags": {
    "landuse": "cemetery",
    "name": "Friedhof Kolshorn",
    "wikidata": "Q117716902"
  }
},
{
  "type": "way",
  "id": 27989086,
  "center": {
    "lat": 52.2940111,
    "lon": 9.7678984
  },
  "nodes": [
    307348970,
    1213782938,
    307348974,
    307348971,
    307348972,
    307348970
  ],
  "tags": {
    "landuse": "cemetery"
  }
},
{
  "type": "way",
  "id": 27989087,
  "center": {
    "lat": 52.2937496,
    "lon": 9.7671843
  },
  "nodes": [
    307348964,
    307348966,
    7375288484,
    7375288481,
    307348967,
    307349399,
    7375296785,
    600031418,
    307348964
  ],
  "tags": {
    "landuse": "cemetery"
  }
},
{
  "type": "way",
  "id": 28026908,
  "center": {
    "lat": 52.4553666,
    "lon": 9.5818678
  },
  "nodes": [
    307743249,
    2665345511,
    2665345517,
    2665345514,
    2665345520,
    307743256,
    307743260,
    12652510603,
    307743249
  ],
  "tags": {
    "landuse": "cemetery",
    "layer": "-1",
    "name": "Friedhof Osterwald"
  }
},
{
  "type": "way",
  "id": 28050743,
  "center": {
    "lat": 52.4427418,
    "lon": 9.6238006
  },
  "nodes": [
    308018814,
    7649498684,
    7649498681,
    308018816,
    308018817,
    308018818,
    308018814
  ],
  "tags": {
    "landuse": "cemetery",
    "name": "Friedhof Stelingen"
  }
},
{
  "type": "way",
  "id": 28051046,
  "center": {
    "lat": 52.4405907,
    "lon": 9.6285793
  },
  "nodes": [
    308021990,
    308021991,
    13232483323,
    13232483324,
    308022231,
    8857260306,
    305177282,
    11660029997,
    271026983,
    3999846037,
    308020927,
    11660030000,
    305176943,
    308023100,
    937827163,
    3999846052,
    3999846561,
    1116195967,
    3999846562,
    308021990
  ],
  "tags": {
    "landuse": "cemetery",
    "name": "Friedhof Berenbostel",
    "wikidata": "Q33127856",
    "wikipedia": "de:Stadtfriedhof Berenbostel"
  }
},
{
  "type": "way",
  "id": 28106635,
  "center": {
    "lat": 52.5039438,
    "lon": 9.6195460
  },
  "nodes": [
    308745931,
    308745932,
    308745933,
    11102610659,
    308745934,
    308746469,
    308738893,
    308738892,
    308745931
  ],
  "tags": {
    "landuse": "cemetery",
    "name": "Friedhof Resse"
  }
},
{
  "type": "way",
  "id": 28110508,
  "center": {
    "lat": 52.4164327,
    "lon": 9.6140552
  },
  "nodes": [
    308779056,
    370796879,
    308779057,
    308779058,
    308779059,
    308779060,
    308779061,
    4139202741,
    370792776,
    308779062,
    308779063,
    370792778,
    308779064,
    309891661,
    309891663,
    309891808,
    309891664,
    309891665,
    308779065,
    9429343249,
    310080047,
    308779066,
    370796881,
    308779056
  ],
  "tags": {
    "landuse": "cemetery",
    "name": "Friedhof Auf der Horst",
    "wikidata": "Q117662087"
  }
},
{
  "type": "way",
  "id": 28201229,
  "center": {
    "lat": 52.4979621,
    "lon": 9.4602123
  },
  "nodes": [
    309750272,
    1295154617,
    309750274,
    1295154618,
    309750275,
    1295282149,
    309750276,
    1295282144,
    309750272
  ],
  "tags": {
    "denomination": "lutheran",
    "landuse": "cemetery",
    "name": "Friedhof Lindenstraße",
    "religion": "christian"
  }
},
{
  "type": "way",
  "id": 28279102,
  "center": {
    "lat": 52.3824837,
    "lon": 9.9884908
  },
  "nodes": [
    310540274,
    310540275,
    4173431587,
    4173432397,
    310540274
  ],
  "tags": {
    "landuse": "cemetery",
    "name": "kirchlicher Friedhof",
    "religion": "ev.-luth._matthäus-kirchengemeinde_lehrte"
  }
},
{
  "type": "way",
  "id": 28283704,
  "center": {
    "lat": 52.2832564,
    "lon": 9.7809178
  },
  "nodes": [
    10899650993,
    10899650992,
    310601373,
    10899658524,
    10899650996,
    10899658506,
    10899658505,
    10899650995,
    10899650993
  ],
  "tags": {
    "landuse": "cemetery",
    "name": "Friedhof Reden",
    "source": "Bing"
  }
},
{
  "type": "way",
  "id": 28381794,
  "center": {
    "lat": 52.5297006,
    "lon": 9.5554803
  },
  "nodes": [
    311752483,
    311752486,
    311752485,
    311752484,
    311752483
  ],
  "tags": {
    "landuse": "cemetery"
  }
},
{
  "type": "way",
  "id": 28383215,
  "center": {
    "lat": 52.5121152,
    "lon": 9.5277558
  },
  "nodes": [
    311774181,
    311774334,
    311774335,
    311774182,
    12648270761,
    311774183,
    1135643046,
    311774184,
    311774181
  ],
  "tags": {
    "landuse": "cemetery"
  }
},
{
  "type": "way",
  "id": 28389340,
  "center": {
    "lat": 52.3719526,
    "lon": 9.8044369
  },
  "nodes": [
    1605668003,
    1605667994,
    1605667993,
    1605667992,
    10744880256,
    311828118,
    1605667974,
    2852784299,
    2852784300,
    311828112,
    308893752,
    1605668003
  ],
  "tags": {
    "alt_name": "Stadtteilfriedhof Nackenberg",
    "heritage": "4",
    "heritage:operator": "nld",
    "landuse": "cemetery",
    "name": "Friedhof Nackenberg",
    "ref:nld": "30697543",
    "source": "Bing 2012",
    "start_date": "1886",
    "wikidata": "Q23787558",
    "wikimedia_commons": "Category:Stadtteilfriedhof Nackenberg (Hannover)",
    "wikipedia": "de:Stadtteilfriedhof Nackenberg"
  }
},
{
  "type": "way",
  "id": 28463740,
  "center": {
    "lat": 52.3459125,
    "lon": 9.9255772
  },
  "nodes": [
    312711556,
    312712434,
    1043705718,
    312711557,
    312711558,
    7777464736,
    7777464735,
    312712529,
    2641503298,
    2641503301,
    312711556
  ],
  "tags": {
    "landuse": "cemetery",
    "name": "Friedhof Ilten"
  }
},
{
  "type": "way",
  "id": 28467452,
  "center": {
    "lat": 52.2140956,
    "lon": 9.7960717
  },
  "nodes": [
    322430866,
    1659394776,
    322430864,
    312751303,
    30770119,
    322430866
  ],
  "tags": {
    "landuse": "cemetery",
    "source": "Bing 2012"
  }
},
{
  "type": "way",
  "id": 28556819,
  "center": {
    "lat": 52.3130738,
    "lon": 9.6011513
  },
  "nodes": [
    313713538,
    307761433,
    313713546,
    313713547,
    313713548,
    313713549,
    313713538
  ],
  "tags": {
    "amenity": "grave_yard",
    "leisure": "park"
  }
},
{
  "type": "way",
  "id": 28563503,
  "center": {
    "lat": 52.4213656,
    "lon": 9.9811954
  },
  "nodes": [
    313778155,
    2062969625,
    309116275,
    313778158,
    313778159,
    313778155
  ],
  "tags": {
    "landuse": "cemetery",
    "name": "Friedhof Röddensen",
    "source": "Bing 2012",
    "wikidata": "Q117716871"
  }
},
{
  "type": "way",
  "id": 28686831,
  "center": {
    "lat": 52.4552066,
    "lon": 9.3615251
  },
  "nodes": [
    315306906,
    1780368226,
    315306908,
    2502874911,
    315306909,
    315306910,
    315306911,
    2502874934,
    315306912,
    8893194002,
    3193261703,
    8893193997,
    315306915,
    315306906
  ],
  "tags": {
    "landuse": "cemetery",
    "name": "Friedhof Steinhude",
    "religion": "christian",
    "source": "Bing 2012"
  }
},
{
  "type": "way",
  "id": 28904435,
  "center": {
    "lat": 52.1592738,
    "lon": 9.9140066
  },
  "nodes": [
    317721657,
    317721659,
    317721660,
    317721661,
    316878452,
    317721662,
    317721664,
    317721665,
    317721657
  ],
  "tags": {
    "landuse": "cemetery"
  }
},
{
  "type": "way",
  "id": 28921535,
  "center": {
    "lat": 52.0087824,
    "lon": 9.0636246
  },
  "nodes": [
    317931959,
    2876087307,
    2876087309,
    2876087316,
    2876087314,
    317931957,
    317931961,
    317931960,
    317931959
  ],
  "tags": {
    "landuse": "cemetery"
  }
},
{
  "type": "way",
  "id": 28930666,
  "center": {
    "lat": 52.4428906,
    "lon": 9.9716263
  },
  "nodes": [
    318031040,
    318031041,
    318031042,
    318030944,
    318030945,
    318030946,
    318030941,
    318030942,
    318031040
  ],
  "tags": {
    "created_by": "Merkaartor 0.13",
    "landuse": "cemetery",
    "name": "Friedhof Heeßel"
  }
},
{
  "type": "way",
  "id": 28930668,
  "center": {
    "lat": 52.4421610,
    "lon": 9.9721253
  },
  "nodes": [
    318031042,
    318030944,
    318030943,
    318031047,
    318031042
  ],
  "tags": {
    "created_by": "Merkaartor 0.13",
    "landuse": "cemetery"
  }
},
{
  "type": "way",
  "id": 28930844,
  "center": {
    "lat": 52.4667175,
    "lon": 9.9844597
  },
  "nodes": [
    318035075,
    318035076,
    318035077,
    318035078,
    318035079,
    318035080,
    318035081,
    318035075
  ],
  "tags": {
    "created_by": "Merkaartor 0.13",
    "landuse": "cemetery",
    "name": "Friedhof Schillerslage"
  }
},
{
  "type": "way",
  "id": 29042837,
  "center": {
    "lat": 52.2682177,
    "lon": 9.0573458
  },
  "nodes": [
    319435215,
    4903256034,
    4903256042,
    4903256033,
    4903256043,
    4903256035,
    319435216,
    319435217,
    3414885556,
    319435218,
    319732649,
    319942957,
    319942956,
    4903256036,
    4903256040,
    319435222,
    4903256037,
    4903256038,
    319435223,
    319435224,
    4903256039,
    319435225,
    319435226,
    319435227,
    4508678112,
    319435228,
    319435229,
    319435230,
    319435231,
    4903256032,
    319435232,
    319435233,
    319435215
  ],
  "tags": {
    "landuse": "cemetery",
    "name": "Friedhof Bückeburg",
    "religion": "christian"
  }
},
{
  "type": "way",
  "id": 29061895,
  "center": {
    "lat": 52.9182418,
    "lon": 9.9876378
  },
  "nodes": [
    307671852,
    307671853,
    319673821,
    319673822,
    1357944798,
    307671851,
    320149928,
    307671852
  ],
  "tags": {
    "landuse": "cemetery",
    "name": "Neuer Friedhof"
  }
},
{
  "type": "way",
  "id": 29080999,
  "center": {
    "lat": 52.2653613,
    "lon": 9.0419771
  },
  "nodes": [
    319883698,
    319883699,
    319883700,
    319883701,
    319883702,
    4423317369,
    319883704,
    319883705,
    319883706,
    319883707,
    319883698
  ],
  "tags": {
    "landuse": "cemetery",
    "name": "ev.-ref. Friedhof"
  }
},
{
  "type": "way",
  "id": 29102204,
  "center": {
    "lat": 52.1616286,
    "lon": 9.8769430
  },
  "nodes": [
    314668354,
    314668355,
    314668356,
    314668348,
    314668354
  ],
  "tags": {
    "landuse": "cemetery",
    "religion": "christian"
  }
},
{
  "type": "way",
  "id": 29124115,
  "center": {
    "lat": 52.2257190,
    "lon": 9.0817575
  },
  "nodes": [
    320409139,
    7167366340,
    7167366339,
    7167366361,
    320409139
  ],
  "tags": {
    "barrier": "wall",
    "landuse": "cemetery",
    "name": "Friedhof Luhden"
  }
},
{
  "type": "way",
  "id": 29180612,
  "center": {
    "lat": 52.0498244,
    "lon": 9.2683119
  },
  "nodes": [
    320910063,
    320910064,
    1617464943,
    12194575485,
    320910065,
    1439219816,
    12194575480,
    320910066,
    1439607934,
    12194575479,
    12194575478,
    12194575477,
    320910063
  ],
  "tags": {
    "landuse": "cemetery"
  }
},
{
  "type": "way",
  "id": 29237506,
  "center": {
    "lat": 52.3581521,
    "lon": 9.2548112
  },
  "nodes": [
    321579913,
    321579898,
    1059574427,
    321579914,
    321579915,
    1398916760,
    321579916,
    321749829,
    321579917,
    321579919,
    1315577752,
    321579913
  ],
  "tags": {
    "landuse": "cemetery"
  }
},
{
  "type": "way",
  "id": 29276773,
  "center": {
    "lat": 52.2940363,
    "lon": 9.0562640
  },
  "nodes": [
    321935410,
    321935411,
    10257750732,
    10257750733,
    321935412,
    3496632066,
    3496632067,
    3496632061,
    3496632062,
    321935413,
    3496632063,
    3488425809,
    321935415,
    321935416,
    321935417,
    3496632065,
    3496632064,
    321935410
  ],
  "tags": {
    "landuse": "cemetery",
    "name": "Friedhof Meinsen"
  }
},
{
  "type": "way",
  "id": 29301131,
  "center": {
    "lat": 52.0641651,
    "lon": 9.1252660
  },
  "nodes": [
    322251363,
    322251364,
    322251365,
    322251366,
    322251368,
    322251369,
    2217332044,
    2217332058,
    322251370,
    4947419785,
    4947419783,
    4947419784,
    4947419782,
    4947419781,
    4947419780,
    4947419779,
    4947419778,
    322251363
  ],
  "tags": {
    "denomination": "reformed",
    "landuse": "cemetery",
    "name": "Friedhof Bösingfeld",
    "religion": "christian"
  }
},
{
  "type": "way",
  "id": 29308715,
  "center": {
    "lat": 52.2338731,
    "lon": 9.0990028
  },
  "nodes": [
    322422365,
    3068152354,
    2655754591,
    322422366,
    3068152360,
    322422367,
    322422368,
    322422370,
    322422371,
    3068152409,
    322422372,
    2655754607,
    322422373,
    322422374,
    322422365
  ],
  "tags": {
    "landuse": "cemetery",
    "name": "Friedhof Bad Eilsen"
  }
},
{
  "type": "way",
  "id": 29308752,
  "center": {
    "lat": 52.2634958,
    "lon": 9.1318711
  },
  "nodes": [
    322424603,
    322424604,
    9904559017,
    9904550616,
    9904550615,
    322424605,
    322424606,
    322424608,
    322424609,
    322424610,
    322424611,
    322424612,
    322424613,
    322424614,
    322424615,
    322424603
  ],
  "tags": {
    "landuse": "cemetery",
    "name": "Friedhof Obernkirchen"
  }
},
{
  "type": "way",
  "id": 29380474,
  "center": {
    "lat": 52.3074938,
    "lon": 9.4858206
  },
  "nodes": [
    323169457,
    323169458,
    323169459,
    6716386217,
    348084254,
    2335032843,
    2335032845,
    2335032844,
    323169460,
    323169457
  ],
  "tags": {
    "landuse": "cemetery",
    "name": "Neuer Friedhof"
  }
},
{
  "type": "way",
  "id": 29382342,
  "center": {
    "lat": 52.3199081,
    "lon": 9.9256288
  },
  "nodes": [
    323186688,
    323186689,
    323186690,
    323186691,
    323186688
  ],
  "tags": {
    "landuse": "cemetery",
    "name": "Friedhof Wassel",
    "source:geometry": "Bing 2012",
    "wikidata": "Q136164722",
    "wikimedia_commons": "Category:Friedhof Wassel"
  }
},
{
  "type": "way",
  "id": 29403885,
  "center": {
    "lat": 52.6397758,
    "lon": 9.0273978
  },
  "nodes": [
    5153040895,
    324244018,
    323902956,
    323902615,
    323902975,
    323902612,
    323902617,
    323902658,
    323902665,
    323902968,
    5153040896,
    5153040894,
    5153040895
  ],
  "tags": {
    "landuse": "cemetery",
    "name": "Friedhof Pennigsehl"
  }
},
{
  "type": "way",
  "id": 29454660,
  "center": {
    "lat": 52.6325578,
    "lon": 9.0110566
  },
  "nodes": [
    324622302,
    324622305,
    324622308,
    324622310,
    324622302
  ],
  "tags": {
    "landuse": "cemetery"
  }
},
{
  "type": "way",
  "id": 29975888,
  "center": {
    "lat": 52.3580514,
    "lon": 9.6621139
  },
  "nodes": [
    289524907,
    329999154,
    1676035752,
    329999153,
    289524904,
    289524906,
    289524907
  ],
  "tags": {
    "alt_name": "Stadtteilfriedhof Badenstedt neu",
    "landuse": "cemetery",
    "name": "Friedhof Badenstedt",
    "source": "HiRes aerial imagery 2009",
    "start_date": "1909",
    "wikidata": "Q47087884",
    "wikimedia_commons": "Category:Friedhof Badenstedt",
    "wikipedia": "de:Stadtteilfriedhof Badenstedt neu"
  }
},
{
  "type": "way",
  "id": 29978380,
  "center": {
    "lat": 52.3981118,
    "lon": 9.6391902
  },
  "nodes": [
    330019475,
    1743179960,
    330019476,
    1743179962,
    330019477,
    330019478,
    330019475
  ],
  "tags": {
    "fixme": "tracking needed",
    "landuse": "cemetery",
    "name": "Alter Friedhof",
    "wikidata": "Q117717172"
  }
},
{
  "type": "way",
  "id": 30048325,
  "center": {
    "lat": 52.1984730,
    "lon": 9.8898558
  },
  "nodes": [
    412065378,
    1689533843,
    9344943744,
    9344943743,
    330945579,
    307511596,
    330945586,
    411078540,
    411078532,
    412065378
  ],
  "tags": {
    "amenity": "grave_yard"
  }
},
{
  "type": "way",
  "id": 30048326,
  "center": {
    "lat": 52.1987252,
    "lon": 9.8923619
  },
  "nodes": [
    330945590,
    330945596,
    330945600,
    330945602,
    330945590
  ],
  "tags": {
    "amenity": "grave_yard"
  }
},
{
  "type": "way",
  "id": 30090442,
  "center": {
    "lat": 52.3747418,
    "lon": 9.5959739
  },
  "nodes": [
    331429555,
    336326339,
    336326337,
    331429556,
    331429557,
    331429558,
    331429555
  ],
  "tags": {
    "created_by": "Potlatch 0.10f",
    "denomination": "lutheran",
    "landuse": "cemetery",
    "name": "Friedhof Döteberg",
    "religion": "christian"
  }
},
{
  "type": "way",
  "id": 30100471,
  "center": {
    "lat": 52.4405876,
    "lon": 9.9524648
  },
  "nodes": [
    310323008,
    331561961,
    331561967,
    331557897,
    10779328556,
    310323008
  ],
  "tags": {
    "landuse": "cemetery",
    "name": "Friedhof Beinhorn",
    "religion": "christian"
  }
},
{
  "type": "way",
  "id": 30392034,
  "center": {
    "lat": 52.1409974,
    "lon": 9.1030901
  },
  "nodes": [
    2537605427,
    2537605425,
    335462194,
    335462198,
    10719375060,
    10719375061,
    10719375059,
    10719375051,
    2537605427
  ],
  "tags": {
    "landuse": "cemetery"
  }
},
{
  "type": "way",
  "id": 30484196,
  "center": {
    "lat": 52.3034344,
    "lon": 9.4717097
  },
  "nodes": [
    344471375,
    344471373,
    336378226,
    2947877846,
    344471377,
    336378241,
    2947877855,
    296479596,
    336378256,
    2947877858,
    2947877859,
    336378270,
    344471372,
    344471371,
    344471370,
    344471375
  ],
  "tags": {
    "denomination": "lutheran",
    "landuse": "cemetery",
    "name": "Friedhof Osterfeld",
    "religion": "christian",
    "wikidata": "Q117715566"
  }
},
{
  "type": "way",
  "id": 30501234,
  "center": {
    "lat": 52.3382412,
    "lon": 9.7289364
  },
  "nodes": [
    336653512,
    336653523,
    336653670,
    331795411,
    1550582782,
    1550582776,
    6052739992,
    336653533,
    545788191,
    336653539,
    336653543,
    336653548,
    336653552,
    336653666,
    336653686,
    336653512
  ],
  "tags": {
    "heritage": "4",
    "heritage:operator": "nld",
    "landuse": "cemetery",
    "name": "Michaelis-Friedhof",
    "ref:nld": "30804661",
    "source": "HiRes aerial imagery 2009",
    "start_date": "mid C19",
    "website": "http://www.michaelis-hannover.de/friedhof/",
    "wikidata": "Q15120161",
    "wikimedia_commons": "Category:Michaelisfriedhof (Hannover)",
    "wikipedia": "de:Michaelisfriedhof (Hannover)"
  }
},
{
  "type": "way",
  "id": 30700882,
  "center": {
    "lat": 52.1684529,
    "lon": 9.6621619
  },
  "nodes": [
    339508491,
    367309906,
    9171760870,
    9171760865,
    339508504,
    9171760866,
    367308322,
    367311686,
    1858252483,
    367311690,
    367311694,
    367311696,
    339508499,
    367299414,
    367299420,
    339508495,
    1858252487,
    339508491
  ],
  "tags": {
    "landuse": "cemetery",
    "name": "Friedhof Eldagsen",
    "wikidata": "Q117717238"
  }
},
{
  "type": "way",
  "id": 30700883,
  "center": {
    "lat": 52.1720569,
    "lon": 9.6553312
  },
  "nodes": [
    339508507,
    339508511,
    339508515,
    339508519,
    339508507
  ],
  "tags": {
    "fixme": "Lage scheint gemäß Bing-Luftbildern recht ungenau",
    "landuse": "cemetery",
    "name": "Jüdischer Friedhof",
    "religion": "jewish",
    "wikidata": "Q15115875",
    "wikipedia": "de:Jüdischer Friedhof (Eldagsen)"
  }
},
{
  "type": "way",
  "id": 30828475,
  "center": {
    "lat": 52.2142855,
    "lon": 9.0452834
  },
  "nodes": [
    342385516,
    8592626369,
    342385403,
    342385517,
    342385518,
    8592626357,
    342385516
  ],
  "tags": {
    "landuse": "cemetery"
  }
},
{
  "type": "way",
  "id": 30951245,
  "center": {
    "lat": 52.0509428,
    "lon": 9.9012829
  },
  "nodes": [
    344132290,
    344132291,
    344132292,
    344132293,
    344132290
  ],
  "tags": {
    "amenity": "grave_yard",
    "note": "extend estimated"
  }
},
{
  "type": "way",
  "id": 31097772,
  "center": {
    "lat": 52.0113989,
    "lon": 9.0147375
  },
  "nodes": [
    345579677,
    4616972579,
    345579680,
    11385314636,
    345579681,
    11385314637,
    345579682,
    345579683,
    345579677
  ],
  "tags": {
    "denomination": "protestant",
    "description": "Friedhof",
    "landuse": "cemetery",
    "religion": "christian"
  }
},
{
  "type": "way",
  "id": 31144976,
  "center": {
    "lat": 52.0220497,
    "lon": 9.7696428
  },
  "nodes": [
    346405012,
    6019907795,
    346404962,
    6174823738,
    6174823739,
    346405012
  ],
  "tags": {
    "landuse": "cemetery",
    "name": "Friedhof Dehnsen",
    "religion": "christian"
  }
},
{
  "type": "way",
  "id": 31253282,
  "center": {
    "lat": 52.0232048,
    "lon": 9.4198334
  },
  "nodes": [
    347474022,
    347474024,
    347474025,
    347474026,
    347474022
  ],
  "tags": {
    "landuse": "cemetery"
  }
},
{
  "type": "way",
  "id": 31304515,
  "center": {
    "lat": 52.0028853,
    "lon": 9.7985404
  },
  "nodes": [
    348315923,
    348315927,
    348305310,
    348305313,
    348305317,
    348315923
  ],
  "tags": {
    "created_by": "Potlatch 0.10f",
    "landuse": "cemetery"
  }
},
{
  "type": "way",
  "id": 31421253,
  "center": {
    "lat": 52.2883203,
    "lon": 9.4993025
  },
  "nodes": [
    325138795,
    350304257,
    350304269,
    2937996869,
    350304386,
    350304371,
    350304290,
    350304357,
    325138795
  ],
  "tags": {
    "landuse": "cemetery",
    "name": "Friedhof Egestorf",
    "religion": "christian",
    "source": "Bing 2012",
    "wikidata": "Q117715712"
  }
},
{
  "type": "way",
  "id": 31470676,
  "center": {
    "lat": 52.3024571,
    "lon": 9.5044483
  },
  "nodes": [
    351600648,
    351600498,
    351600509,
    351600518,
    351600589,
    351600602,
    351600615,
    351600627,
    351600648
  ],
  "tags": {
    "landuse": "cemetery",
    "name": "Kirchdorfer Friedhof",
    "religion": "christian"
  }
},
{
  "type": "way",
  "id": 31505214,
  "center": {
    "lat": 52.4074497,
    "lon": 9.9881574
  },
  "nodes": [
    352570980,
    6263640984,
    6264726608,
    352571002,
    352571213,
    352571401,
    352571454,
    352571025,
    352571048,
    352571074,
    352571096,
    352571121,
    352570980
  ],
  "tags": {
    "landuse": "cemetery",
    "religion": "christian"
  }
},
{
  "type": "way",
  "id": 31561192,
  "center": {
    "lat": 52.0399395,
    "lon": 9.7812501
  },
  "nodes": [
    353152387,
    353152388,
    353152389,
    9613538680,
    9613538681,
    353152390,
    353152394,
    353152391,
    353152392,
    353152393,
    9613538679,
    353152387
  ],
  "tags": {
    "landuse": "cemetery",
    "religion": "christian"
  }
},
{
  "type": "way",
  "id": 31764478,
  "center": {
    "lat": 52.2723223,
    "lon": 9.9297310
  },
  "nodes": [
    355574826,
    355574827,
    355574828,
    868664817,
    1039441046,
    355574826
  ],
  "tags": {
    "landuse": "cemetery",
    "religion": "christian"
  }
},
{
  "type": "way",
  "id": 31764479,
  "center": {
    "lat": 52.2711521,
    "lon": 9.9257858
  },
  "nodes": [
    355574830,
    6618523962,
    6618523961,
    6618523967,
    6618523968,
    355574832,
    355574833,
    355574834,
    355574830
  ],
  "tags": {
    "landuse": "cemetery",
    "religion": "christian"
  }
},
{
  "type": "way",
  "id": 31869061,
  "center": {
    "lat": 52.4009166,
    "lon": 9.8562500
  },
  "nodes": [
    1705105711,
    1705105681,
    572641893,
    1705105534,
    559302556,
    1705105528,
    178453210,
    1705105575,
    1705105579,
    559302533,
    1705105622,
    1705105656,
    1705105715,
    1705105777,
    1705105820,
    1705105781,
    1863317735,
    1863317737,
    1705105838,
    9956744618,
    9956718216,
    9956744619,
    1705105792,
    1705105739,
    1705105720,
    1705105711
  ],
  "tags": {
    "alt_name": "Stadtfriedhof Misburg",
    "landuse": "cemetery",
    "name": "Waldfriedhof Misburg",
    "official_name": "Stadtteilfriedhof Misburg (Waldfriedhof)",
    "opening_hours": "Mar 15-Nov 1 Mo-Su,PH 08:00-20:00; Nov 2 - Mar 14 Mo-Su,PH 09:00-17:00",
    "source": "HiRes aerial imagery 2009",
    "start_date": "1921",
    "wikidata": "Q24395240",
    "wikimedia_commons": "Category:Stadtteilfriedhof Misburg",
    "wikipedia": "de:Waldfriedhof Misburg"
  }
},
{
  "type": "way",
  "id": 31892606,
  "center": {
    "lat": 52.1144067,
    "lon": 9.9200597
  },
  "nodes": [
    357170120,
    2149963409,
    357170127,
    7278241190,
    357170124,
    7142748218,
    7142748217,
    353061481,
    357170121,
    7142748219,
    357170120
  ],
  "tags": {
    "barrier": "hedge",
    "landuse": "cemetery",
    "religion": "christian"
  }
},
{
  "type": "way",
  "id": 31901963,
  "center": {
    "lat": 52.3094742,
    "lon": 9.5316530
  },
  "nodes": [
    2947969653,
    357337776,
    357337772,
    2948004215,
    2947969654,
    2947969653
  ],
  "tags": {
    "denomination": "protestant",
    "landuse": "cemetery",
    "name": "Friedhof Langreder",
    "religion": "christian"
  }
},
{
  "type": "way",
  "id": 31962355,
  "center": {
    "lat": 52.2690899,
    "lon": 9.8495030
  },
  "nodes": [
    10973415802,
    358041519,
    358041520,
    10973415801,
    10973415802
  ],
  "tags": {
    "amenity": "grave_yard",
    "name": "Jüdischer Friedhof",
    "religion": "jewish",
    "wikidata": "Q2737710",
    "wikipedia": "de:Jüdischer Friedhof (Gleidingen)"
  }
},
{
  "type": "way",
  "id": 31963324,
  "center": {
    "lat": 52.2829096,
    "lon": 9.8333927
  },
  "nodes": [
    358048731,
    566313936,
    566313939,
    358056455,
    1841107159,
    358056452,
    358048714,
    358048721,
    358048725,
    358048731
  ],
  "tags": {
    "landuse": "cemetery",
    "name": "Friedhof Rethen",
    "source": "HiRes aerial imagery 2007"
  }
},
{
  "type": "way",
  "id": 32252502,
  "center": {
    "lat": 52.1000614,
    "lon": 9.9922420
  },
  "nodes": [
    362115083,
    9417730132,
    9417730133,
    362115086,
    2184287200,
    362115089,
    362115093,
    569689807,
    362115083
  ],
  "tags": {
    "landuse": "cemetery",
    "name": "Friedhof Egenstedt"
  }
},
{
  "type": "way",
  "id": 32276353,
  "center": {
    "lat": 52.0743683,
    "lon": 9.1062858
  },
  "nodes": [
    322652886,
    322652890,
    362795104,
    362795107,
    11350798104,
    11350798105,
    362795110,
    362795114,
    6542832872,
    362795118,
    362795123,
    11350798106,
    322652886
  ],
  "tags": {
    "landuse": "cemetery",
    "name": "Friedhof Asmissen",
    "operator": "Gemeinde Extertal",
    "religion": "multifaith"
  }
},
{
  "type": "way",
  "id": 32860958,
  "center": {
    "lat": 52.4060222,
    "lon": 9.6642564
  },
  "nodes": [
    370157682,
    370157688,
    1547810058,
    1547810061,
    370157692,
    1547810072,
    1547810060,
    1547810056,
    370157698,
    1547810033,
    370157702,
    1547810022,
    1547810007,
    370157709,
    1547810002,
    370157713,
    370157718,
    1547810006,
    1547810024,
    370157731,
    1547810032,
    370157734,
    370157682
  ],
  "tags": {
    "cemetery": "sector",
    "landuse": "cemetery",
    "name": "Urnen-Insel",
    "place": "islet",
    "ref": "A33",
    "source": "HiRes aerial imagery 2009"
  }
},
{
  "type": "way",
  "id": 32878442,
  "center": {
    "lat": 52.3633677,
    "lon": 9.7373046
  },
  "nodes": [
    370336184,
    370336185,
    1516647668,
    370336186,
    1516647648,
    370336184
  ],
  "tags": {
    "amenity": "grave_yard",
    "heritage": "4",
    "heritage:operator": "nld",
    "name": "Ehrenfriedhof am Maschsee-Nordufer",
    "start_date": "1945",
    "wikidata": "Q1300114",
    "wikimedia_commons": "Category:Ehrenfriedhof am Maschsee-Nordufer (Hannover)",
    "wikipedia": "de:Ehrenfriedhof am Maschsee-Nordufer"
  }
},
{
  "type": "way",
  "id": 32885563,
  "center": {
    "lat": 52.0684339,
    "lon": 9.1144822
  },
  "nodes": [
    370391009,
    370391012,
    3803364052,
    3803364025,
    370391015,
    370391017,
    3803364074,
    370391009
  ],
  "tags": {
    "denomination": "orthodox",
    "landuse": "cemetery",
    "name": "jüdischer Friedhof Bösingfeld",
    "religion": "jewish",
    "wikidata": "Q15822240"
  }
},
{
  "type": "way",
  "id": 32889244,
  "center": {
    "lat": 52.1707023,
    "lon": 9.2613364
  },
  "nodes": [
    370431184,
    1376577148,
    1376577150,
    370431188,
    370431191,
    370431195,
    2228928410,
    1376497800,
    2228928407,
    370431184
  ],
  "tags": {
    "landuse": "cemetery"
  }
},
{
  "type": "way",
  "id": 32906983,
  "center": {
    "lat": 52.3902928,
    "lon": 9.7126999
  },
  "nodes": [
    370600278,
    1725638823,
    370600276
  ],
  "tags": {
    "bicycle": "no",
    "cemetery": "sector",
    "foot": "yes",
    "highway": "footway",
    "horse": "no",
    "motor_vehicle": "no",
    "surface": "sett"
  }
},
{
  "type": "way",
  "id": 32956768,
  "center": {
    "lat": 52.2775988,
    "lon": 9.7137634
  },
  "nodes": [
    6466381871,
    371174176,
    371174177,
    2175774555,
    1665842192,
    6466381871
  ],
  "tags": {
    "landuse": "cemetery",
    "religion": "christian"
  }
},
{
  "type": "way",
  "id": 33041065,
  "center": {
    "lat": 52.5579889,
    "lon": 9.1242227
  },
  "nodes": [
    372508985,
    372508992,
    9987011740,
    372509258,
    372508997,
    372509003,
    372509255,
    372508985
  ],
  "tags": {
    "amenity": "grave_yard",
    "layer": "-1"
  }
},
{
  "type": "way",
  "id": 33473219,
  "center": {
    "lat": 52.3203039,
    "lon": 9.7385759
  },
  "nodes": [
    380985957,
    380985981,
    380985959,
    380985963,
    380985967,
    380985969,
    381012189,
    380985976,
    381012194,
    380985957
  ],
  "tags": {
    "heritage": "4",
    "heritage:operator": "nld",
    "landuse": "cemetery"
  }
},
{
  "type": "way",
  "id": 33473220,
  "center": {
    "lat": 52.3216953,
    "lon": 9.7396124
  },
  "nodes": [
    380985986,
    381012187,
    380985990,
    380985998,
    380986002,
    380986011,
    381012185,
    380985986
  ],
  "tags": {
    "landuse": "cemetery"
  }
},
{
  "type": "way",
  "id": 33875645,
  "center": {
    "lat": 52.4330632,
    "lon": 9.8603686
  },
  "nodes": [
    388121868,
    388122273,
    2463939540,
    388121869,
    388121870,
    388121871,
    2463939551,
    388121868
  ],
  "tags": {
    "landuse": "cemetery",
    "name": "Friedhof Altwarmbüchen",
    "source": "Bing 2012"
  }
},
{
  "type": "way",
  "id": 33912766,
  "center": {
    "lat": 52.2301696,
    "lon": 9.1969344
  },
  "nodes": [
    7996933882,
    12864860390,
    7996933885,
    388566296,
    388566297,
    7996933882
  ],
  "tags": {
    "amenity": "grave_yard",
    "layer": "-2",
    "name": "Friedhof Borstel",
    "religion": "christian"
  }
},
{
  "type": "way",
  "id": 34002166,
  "center": {
    "lat": 52.2029402,
    "lon": 9.1199126
  },
  "nodes": [
    389504849,
    389504850,
    389504851,
    458104805,
    389504758,
    389504853,
    389504854,
    389504855,
    2364736964,
    2364736972,
    2364736951,
    269043913,
    2023079366,
    389504856,
    2023079370,
    4608386169,
    390547066,
    389504858,
    2364736969,
    2364736950,
    389504849
  ],
  "tags": {
    "landuse": "cemetery"
  }
},
{
  "type": "way",
  "id": 34030384,
  "center": {
    "lat": 52.1854343,
    "lon": 9.0874364
  },
  "nodes": [
    389990402,
    389990406,
    389990408,
    389990409,
    389990402
  ],
  "tags": {
    "denomination": "evangelical",
    "landuse": "cemetery",
    "name": "Reformierter Friedhof",
    "religion": "christian"
  }
},
{
  "type": "way",
  "id": 34196739,
  "center": {
    "lat": 52.4865048,
    "lon": 9.4709788
  },
  "nodes": [
    392183390,
    11801286678,
    2345248236,
    11801700610,
    11801700616,
    11801700619,
    392183391,
    392183392,
    1493627294,
    1493627296,
    11803994460,
    1493627286,
    1493627284,
    11801700606,
    1493627285,
    1493627282,
    1493627280,
    392183393,
    392183390
  ],
  "tags": {
    "landuse": "cemetery",
    "name": "Friedhof Lüningsburg",
    "source": "survey, bing, knowledge"
  }
},
{
  "type": "way",
  "id": 34212199,
  "center": {
    "lat": 52.1059894,
    "lon": 9.0737493
  },
  "nodes": [
    392366811,
    1033667856,
    392366812,
    1033667918,
    1033667823,
    392366813,
    1033667878,
    1033667943,
    1033667990,
    1033667830,
    1033667820,
    392366814,
    392366811
  ],
  "tags": {
    "landuse": "cemetery",
    "name": "Friedhof Almena"
  }
},
{
  "type": "way",
  "id": 34235141,
  "center": {
    "lat": 52.2229884,
    "lon": 9.1611320
  },
  "nodes": [
    4802438560,
    1081957491,
    4802438561,
    4798353808,
    392632979,
    4802438560
  ],
  "tags": {
    "landuse": "cemetery",
    "name": "Friedhof Bernsen"
  }
},
{
  "type": "way",
  "id": 34889145,
  "center": {
    "lat": 52.3029000,
    "lon": 9.5931670
  },
  "nodes": [
    409165242,
    409165253,
    409165244,
    409165243,
    409165242
  ],
  "tags": {
    "description": "Privatfriedhof der Familie von Reden",
    "heritage": "4",
    "heritage:operator": "nld",
    "landuse": "cemetery",
    "name": "von Reden",
    "wikidata": "Q117715949"
  }
},
{
  "type": "way",
  "id": 34889146,
  "center": {
    "lat": 52.3090055,
    "lon": 9.5923024
  },
  "nodes": [
    409165254,
    409165251,
    409165250,
    409165249,
    409165256,
    409165255,
    409165254
  ],
  "tags": {
    "landuse": "cemetery",
    "religion": "jewish",
    "wikidata": "Q2737708",
    "wikipedia": "de:Jüdischer Friedhof (Gehrden)"
  }
},
{
  "type": "way",
  "id": 35031340,
  "center": {
    "lat": 52.2174466,
    "lon": 9.6989255
  },
  "nodes": [
    410875154,
    410875170,
    410875171,
    410875156,
    2069452476,
    410875154
  ],
  "tags": {
    "landuse": "cemetery",
    "source": "Bing 2012"
  }
},
{
  "type": "way",
  "id": 35036100,
  "center": {
    "lat": 52.6000968,
    "lon": 9.1015554
  },
  "nodes": [
    410921335,
    2785186488,
    410921336,
    410921337,
    410921338,
    410921340,
    410921341,
    2785186496,
    410921342,
    410921343,
    410921335
  ],
  "tags": {
    "landuse": "cemetery",
    "name": "Friedhof Liebenau",
    "religion": "christian"
  }
},
{
  "type": "way",
  "id": 35044973,
  "center": {
    "lat": 52.1609027,
    "lon": 9.6741879
  },
  "nodes": [
    410742229,
    411038115,
    2077293734,
    411038118,
    411038121,
    410742229
  ],
  "tags": {
    "landuse": "cemetery",
    "source": "Bing 2012"
  }
},
{
  "type": "way",
  "id": 35129516,
  "center": {
    "lat": 52.5323581,
    "lon": 9.3244496
  },
  "nodes": [
    412085326,
    914305135,
    914305148,
    914305143,
    412085327,
    412085326
  ],
  "tags": {
    "landuse": "cemetery",
    "name": "Friedhof"
  }
},
{
  "type": "way",
  "id": 35161083,
  "center": {
    "lat": 52.1404881,
    "lon": 9.7235066
  },
  "nodes": [
    412416329,
    412416330,
    412416331,
    412416332,
    412416329
  ],
  "tags": {
    "denomination": "protestant",
    "landuse": "cemetery",
    "name": "Friedhof Sorsum",
    "religion": "christian"
  }
},
{
  "type": "way",
  "id": 35332791,
  "center": {
    "lat": 52.4965531,
    "lon": 9.9492529
  },
  "nodes": [
    414161272,
    2108014225,
    414161275,
    414161273,
    2108014220,
    414161274,
    414161272
  ],
  "tags": {
    "landuse": "cemetery",
    "name": "Friedhof Engensen"
  }
},
{
  "type": "way",
  "id": 35541477,
  "center": {
    "lat": 52.3529174,
    "lon": 9.3901815
  },
  "nodes": [
    416410632,
    1873464853,
    416410634,
    416410635,
    416410632
  ],
  "tags": {
    "landuse": "cemetery",
    "name": "Friedhof Kreuzriehe"
  }
},
{
  "type": "way",
  "id": 35829231,
  "center": {
    "lat": 52.1405449,
    "lon": 9.6624190
  },
  "nodes": [
    418872199,
    418872200,
    418872202,
    418872203,
    418872194,
    418872195,
    418872196,
    418872197,
    418872198,
    418872199
  ],
  "tags": {
    "landuse": "cemetery"
  }
},
{
  "type": "way",
  "id": 36002420,
  "center": {
    "lat": 52.3728117,
    "lon": 9.3890519
  },
  "nodes": [
    420822920,
    8138167618,
    8138120913,
    8138167624,
    420822921,
    420822923,
    420822924,
    8138167625,
    5894420045,
    5894420042,
    8138167617,
    8138120907,
    420822920
  ],
  "tags": {
    "barrier": "fence",
    "landuse": "cemetery",
    "name": "Friedhof Haste"
  }
},
{
  "type": "way",
  "id": 36143143,
  "center": {
    "lat": 52.3733761,
    "lon": 9.3680063
  },
  "nodes": [
    422038215,
    422038221,
    422038228,
    422038237,
    422038215
  ],
  "tags": {
    "landuse": "cemetery"
  }
},
{
  "type": "way",
  "id": 36926895,
  "center": {
    "lat": 52.2485717,
    "lon": 9.3545016
  },
  "nodes": [
    429416896,
    429416897,
    429416898,
    429416899,
    429416896
  ],
  "tags": {
    "landuse": "cemetery"
  }
},
{
  "type": "way",
  "id": 36970180,
  "center": {
    "lat": 52.1087293,
    "lon": 9.2559989
  },
  "nodes": [
    429886430,
    429886440,
    429886458,
    429886459,
    429886460,
    429886461,
    429886430
  ],
  "tags": {
    "amenity": "grave_yard",
    "barrier": "fence",
    "name": "Friedhof Herkendorf"
  }
},
{
  "type": "way",
  "id": 37496637,
  "center": {
    "lat": 52.3229087,
    "lon": 9.2120275
  },
  "nodes": [
    438629004,
    438629010,
    438629012,
    438629021,
    438629023,
    438629026,
    438629029,
    438629033,
    438629034,
    438629036,
    438629038,
    438629039,
    438629042,
    438629048,
    438629055,
    2301702752,
    2301702751,
    438629004
  ],
  "tags": {
    "addr:city": "Stadthagen",
    "addr:postcode": "31655",
    "alt_name": "Friedhof Hinter der Burg",
    "denomination": "all,_agnostic",
    "landuse": "cemetery",
    "name": "St. Martini Friedhof",
    "note": "für alle Bürger, unabhängig von ihrer Herkunft oder Konfession",
    "operator": "Friedhofsverwaltung der St. Martini Kirchengemeinde",
    "religion": "no",
    "wikidata": "Q113214655"
  }
},
{
  "type": "way",
  "id": 37498053,
  "center": {
    "lat": 52.3241139,
    "lon": 9.2011780
  },
  "nodes": [
    438656718,
    438656721,
    438656724,
    438656726,
    438656737,
    438656740,
    438656743,
    438656747,
    438656750,
    2387719389,
    438656753,
    438656757,
    438656718
  ],
  "tags": {
    "addr:city": "Stadthagen",
    "landuse": "cemetery",
    "name": "Friedhof vor dem Westerntore",
    "wikidata": "Q113215597"
  }
},
{
  "type": "way",
  "id": 37665252,
  "center": {
    "lat": 52.0571361,
    "lon": 9.0613719
  },
  "nodes": [
    441563271,
    9368388487,
    9368388489,
    9368388490,
    9368388488,
    9368388486,
    9368388470,
    9368388471,
    441563272,
    441563275,
    441563278,
    441563280,
    441563271
  ],
  "tags": {
    "landuse": "cemetery",
    "name": "Friedhof Linderhofe"
  }
},
{
  "type": "way",
  "id": 37907410,
  "center": {
    "lat": 52.8959766,
    "lon": 9.3382204
  },
  "nodes": [
    444904798,
    444904802,
    444904804,
    444904806,
    11792020519,
    11792020518,
    11792020517,
    11792020515,
    444904798
  ],
  "tags": {
    "landuse": "cemetery",
    "name": "Friedhof Armsen",
    "operator": "Gemeinde Kirchlinteln",
    "religion": "none"
  }
},
{
  "type": "way",
  "id": 38310832,
  "center": {
    "lat": 52.0984804,
    "lon": 9.9166059
  },
  "nodes": [
    11931654039,
    11931654042,
    11931654041,
    11931654040,
    452237498,
    326033795,
    344234344,
    1056979487,
    11931654039
  ],
  "tags": {
    "landuse": "cemetery",
    "name": "Friedhof Diekholzen"
  }
},
{
  "type": "way",
  "id": 38507512,
  "center": {
    "lat": 52.2130233,
    "lon": 9.8363138
  },
  "nodes": [
    455582871,
    8286632918,
    473153456,
    455582874,
    455582878,
    2593946612,
    2593946615,
    455582881,
    455582871
  ],
  "tags": {
    "landuse": "cemetery",
    "religion": "christian",
    "source": "Bing 2012"
  }
},
{
  "type": "way",
  "id": 38908644,
  "center": {
    "lat": 52.9289790,
    "lon": 9.2587742
  },
  "nodes": [
    462207693,
    4458880976,
    4458880977,
    4458880975,
    1941616003,
    1941616026,
    1941616025,
    462207696,
    462207699,
    1109355684,
    11793310251,
    1109355874,
    9622225259,
    12947514586,
    462207693
  ],
  "tags": {
    "denomination": "lutheran",
    "landuse": "cemetery",
    "name": "Waldfriedhof",
    "operator": "Evangelisch-lutherischer Kirchengemeindeverband Kirchliche Friedhöfe Verden",
    "religion": "christian"
  }
},
{
  "type": "way",
  "id": 39105308,
  "center": {
    "lat": 52.0580422,
    "lon": 9.0187820
  },
  "nodes": [
    467480703,
    10051125727,
    1438239830,
    467480704,
    467480705,
    467480706,
    4450810568,
    467480707,
    467480708,
    4450810563,
    467480709,
    467480703
  ],
  "tags": {
    "landuse": "cemetery"
  }
},
{
  "type": "way",
  "id": 39531554,
  "center": {
    "lat": 52.4464074,
    "lon": 9.7337888
  },
  "nodes": [
    10723279409,
    10723236350,
    473406032,
    10723236365,
    10723236367,
    10723236366,
    9716914634,
    9716914652,
    10723279409
  ],
  "tags": {
    "addr:city": "Langenhagen",
    "addr:housenumber": "21",
    "addr:postcode": "30853",
    "addr:street": "Imhoffstraße",
    "landuse": "cemetery",
    "name": "Städtischer Friedhof Imhoffstraße",
    "operator": "Stadt Langenhagen"
  }
},
{
  "type": "way",
  "id": 39531555,
  "center": {
    "lat": 52.4470320,
    "lon": 9.7351239
  },
  "nodes": [
    9716914652,
    9716914634,
    9716914644,
    10723236341,
    10723236340,
    10723236339,
    3256405665,
    10723220158,
    10723220159,
    10723220157,
    1998351008,
    10723279408,
    10723279409,
    9716914652
  ],
  "tags": {
    "denomination": "lutheran",
    "landuse": "cemetery",
    "name": "Friedhof der Elisabethgemeinde",
    "religion": "christian",
    "wikidata": "Q117716314",
    "wikipedia": "de:Friedhof Langenhagen"
  }
},
{
  "type": "way",
  "id": 39750494,
  "center": {
    "lat": 52.8547802,
    "lon": 9.2409699
  },
  "nodes": [
    476540987,
    476540991,
    476540999,
    476541005,
    476540987
  ],
  "tags": {
    "landuse": "cemetery",
    "name": "Friedhof Stedorf",
    "operator": "Gemeinde Dörverden",
    "religion": "none"
  }
},
{
  "type": "way",
  "id": 39825537,
  "center": {
    "lat": 52.8373909,
    "lon": 9.2266568
  },
  "nodes": [
    477411860,
    477411862,
    477411865,
    488088952,
    477411860
  ],
  "tags": {
    "landuse": "cemetery",
    "name": "Waldfriedhof Dörverden",
    "operator": "Gemeinde Dörverden",
    "religion": "none"
  }
},
{
  "type": "way",
  "id": 39832442,
  "center": {
    "lat": 52.0228645,
    "lon": 9.0011316
  },
  "nodes": [
    477513466,
    477513469,
    477513471,
    477513473,
    10680652995,
    4311500028,
    477513466
  ],
  "tags": {
    "landuse": "cemetery"
  }
},
{
  "type": "way",
  "id": 40384156,
  "center": {
    "lat": 52.8129289,
    "lon": 9.9601835
  },
  "nodes": [
    488073503,
    488073504,
    488073507,
    488073511,
    488073514,
    488073516,
    488073519,
    11510891745,
    488073522,
    488073538,
    488073541,
    488073544,
    488073548,
    488073551,
    488073555,
    488073559,
    488073503
  ],
  "tags": {
    "landuse": "cemetery",
    "name": "Friedhof Bergen",
    "operator": "Ev.-luth.St. Lamberti-Kirchengemeinde Bergen",
    "religion": "christian",
    "website": "https://www.lamberti-bergen.de/wir_fuer_sie/friedhof"
  }
},
{
  "type": "way",
  "id": 40610301,
  "center": {
    "lat": 52.1288543,
    "lon": 9.2444660
  },
  "nodes": [
    493181110,
    493181111,
    493181112,
    493181113,
    493181114,
    493181115,
    2028029699,
    2246214934,
    2246214947,
    493176591,
    493176590,
    493180694,
    493176589,
    493176588,
    493181110
  ],
  "tags": {
    "amenity": "grave_yard",
    "religion": "christian"
  }
},
{
  "type": "way",
  "id": 40615024,
  "center": {
    "lat": 52.1257482,
    "lon": 9.2414007
  },
  "nodes": [
    493243123,
    493243127,
    493243080,
    2026314903,
    493243090,
    493243123
  ],
  "tags": {
    "amenity": "grave_yard",
    "religion": "jewish"
  }
},
{
  "type": "way",
  "id": 40726956,
  "center": {
    "lat": 52.1136511,
    "lon": 9.0501062
  },
  "nodes": [
    494823720,
    1033707893,
    1033707908,
    446234297,
    494823725,
    494823731,
    514989322,
    494823734,
    4455388512,
    4455388510,
    335941340,
    2934166004,
    2934166003,
    4455388509,
    494823742,
    494823720
  ],
  "tags": {
    "landuse": "cemetery",
    "name": "Friedhof Laßbruch"
  }
},
{
  "type": "way",
  "id": 40763292,
  "center": {
    "lat": 52.0754134,
    "lon": 9.3416539
  },
  "nodes": [
    495447797,
    495447799,
    1793535656,
    1793535690,
    495447802,
    1793535657,
    1793535665,
    495447803,
    495447808,
    495447123,
    495447797
  ],
  "tags": {
    "barrier": "fence",
    "fence_type": "wood",
    "landuse": "cemetery"
  }
},
{
  "type": "way",
  "id": 40860022,
  "center": {
    "lat": 52.1302158,
    "lon": 9.0657208
  },
  "nodes": [
    335484812,
    497180983,
    3251785638,
    497180985,
    9982928411,
    335484810,
    335484812
  ],
  "tags": {
    "landuse": "cemetery",
    "name": "Friedhof Kükenbruch",
    "religion": "multifaith"
  }
},
{
  "type": "way",
  "id": 40871771,
  "center": {
    "lat": 52.3578283,
    "lon": 9.8255749
  },
  "nodes": [
    435188560,
    435188562,
    435187566,
    12812322851,
    435187559,
    435187558,
    1993668811,
    435187556,
    435187554,
    435187553,
    435187551,
    435188560
  ],
  "tags": {
    "alt_name": "Friedhof der Jakobigemeinde",
    "alt_name_1": "Friedhof der Jakobikirchengemeinde zu Hannover-Kirchrode",
    "denomination": "lutheran",
    "heritage": "4",
    "heritage:operator": "nld",
    "landuse": "cemetery",
    "name": "Kirchröder Friedhof",
    "ref:nld": "30693968",
    "religion": "christian",
    "source": "HiRes aerial imagery 2009",
    "start_date": "1864",
    "wikidata": "Q14536838",
    "wikimedia_commons": "Category:Kirchröder Friedhof (Hannover)",
    "wikipedia": "de:Kirchröder Friedhof"
  }
},
{
  "type": "way",
  "id": 40878253,
  "center": {
    "lat": 52.1656446,
    "lon": 9.8711686
  },
  "nodes": [
    497405526,
    497405528,
    1447881243,
    1447881241,
    1447881237,
    1447881195,
    1447881206,
    1029364813,
    1621842697,
    1447881181,
    1447881191,
    497405542,
    497405526
  ],
  "tags": {
    "denomination": "catholic",
    "landuse": "cemetery",
    "religion": "christian"
  }
},
{
  "type": "way",
  "id": 40906108,
  "center": {
    "lat": 52.4554266,
    "lon": 9.3924271
  },
  "nodes": [
    498034262,
    3179445981,
    3179445979,
    498034268,
    498034278,
    498034289,
    498034262
  ],
  "tags": {
    "landuse": "cemetery",
    "name": "Friedhof Großenheidorn",
    "source": "Bing 2012"
  }
},
{
  "type": "way",
  "id": 41915951,
  "center": {
    "lat": 52.4599615,
    "lon": 9.8210159
  },
  "nodes": [
    519004248,
    518990302,
    518990309,
    518990315,
    519004201,
    518993963,
    2084914683,
    2084914682,
    519004203,
    519004205,
    518990324,
    11192630387,
    518990345,
    32948698,
    2084914673,
    2084914672,
    519004248
  ],
  "tags": {
    "landuse": "cemetery",
    "name": "Friedhof Isernhagen K.B.",
    "source": "Bing 2012"
  }
},
{
  "type": "way",
  "id": 41957445,
  "center": {
    "lat": 52.2447929,
    "lon": 9.8272940
  },
  "nodes": [
    519912074,
    519912075,
    519912077,
    519912079,
    519912080,
    519912081,
    519912074
  ],
  "tags": {
    "landuse": "cemetery"
  }
},
{
  "type": "way",
  "id": 42370821,
  "center": {
    "lat": 52.1059427,
    "lon": 9.5007188
  },
  "nodes": [
    247171251,
    9219140352,
    9219140353,
    9219140354,
    528958809,
    9219085553,
    528958814,
    2947179408,
    5997734272,
    9219085544,
    13121853891,
    9219085545,
    247171250,
    9219140351,
    9218538319,
    2947179415,
    9218538320,
    247171251
  ],
  "tags": {
    "landuse": "cemetery"
  }
},
{
  "type": "way",
  "id": 42370822,
  "center": {
    "lat": 52.1542996,
    "lon": 9.4985442
  },
  "nodes": [
    528958824,
    528958828,
    528958830,
    528958832,
    528958824
  ],
  "tags": {
    "landuse": "cemetery"
  }
},
{
  "type": "way",
  "id": 42454656,
  "center": {
    "lat": 52.2200658,
    "lon": 9.8686190
  },
  "nodes": [
    1914662463,
    8255228399,
    529973846,
    529973847,
    8255228398,
    1914662463
  ],
  "tags": {
    "denomination": "roman_catholic",
    "landuse": "cemetery",
    "religion": "christian"
  }
},
{
  "type": "way",
  "id": 43205978,
  "center": {
    "lat": 52.0811868,
    "lon": 9.0098747
  },
  "nodes": [
    541568387,
    541568399,
    1434069846,
    1434069837,
    1434069838,
    1434069834,
    1434069869,
    1434069856,
    1434069858,
    1434069859,
    541568419,
    541568425,
    541568387
  ],
  "tags": {
    "landuse": "cemetery",
    "name": "Friedhof Lüdenhausen",
    "operator": "Evangelisch-reformierte Kirchengemeinde Lüdenhausen"
  }
},
{
  "type": "way",
  "id": 43517972,
  "center": {
    "lat": 52.2295397,
    "lon": 9.4233935
  },
  "nodes": [
    390948315,
    549247857,
    549247859,
    549247860,
    9810853116,
    9810883717,
    390948315
  ],
  "tags": {
    "landuse": "cemetery",
    "religion": "christian"
  }
},
{
  "type": "way",
  "id": 43561822,
  "center": {
    "lat": 52.1154095,
    "lon": 9.1027757
  },
  "nodes": [
    550047776,
    550047783,
    550047793,
    1568019994,
    550047802,
    550047776
  ],
  "tags": {
    "barrier": "fence",
    "landuse": "cemetery"
  }
},
{
  "type": "way",
  "id": 43833965,
  "center": {
    "lat": 52.7105234,
    "lon": 9.3982878
  },
  "nodes": [
    1962627836,
    556071891,
    2795266777,
    8425142511,
    8425142509,
    1962627836
  ],
  "tags": {
    "landuse": "cemetery",
    "name": "Friedhof Lichtenhorst"
  }
},
{
  "type": "way",
  "id": 44196899,
  "center": {
    "lat": 52.0276731,
    "lon": 9.6380647
  },
  "nodes": [
    561324142,
    11834460623,
    11834460622,
    561324143,
    561324144,
    561324145,
    561324142
  ],
  "tags": {
    "landuse": "cemetery"
  }
},
{
  "type": "way",
  "id": 44585863,
  "center": {
    "lat": 52.5484800,
    "lon": 9.6279992
  },
  "nodes": [
    566241692,
    566241694,
    566241696,
    566241698,
    566241692
  ],
  "tags": {
    "landuse": "cemetery",
    "religion": "christian"
  }
},
{
  "type": "way",
  "id": 44740652,
  "center": {
    "lat": 52.1347134,
    "lon": 9.0681995
  },
  "nodes": [
    567543730,
    567543741,
    8624687792,
    8624687791,
    8624687790,
    8624687789,
    567543715,
    8624687788,
    567543751,
    567543757,
    567543760,
    567543730
  ],
  "tags": {
    "landuse": "cemetery",
    "name": "Friedhof Silixen",
    "religion": "multifaith"
  }
},
{
  "type": "way",
  "id": 44909050,
  "center": {
    "lat": 52.1499130,
    "lon": 9.9225701
  },
  "nodes": [
    569492163,
    569492157,
    569492141,
    569492145,
    569492153,
    569492150,
    569492147,
    569492169,
    569492180,
    569492176,
    569492182,
    569492189,
    569492166,
    569492159,
    569492184,
    569492163
  ],
  "tags": {
    "landuse": "cemetery",
    "name": "Moritzberger Friedhof",
    "religion": "christian"
  }
},
{
  "type": "way",
  "id": 45272074,
  "center": {
    "lat": 52.2144012,
    "lon": 9.4551647
  },
  "nodes": [
    3991669237,
    574951509,
    3991669235,
    574951503,
    574951506,
    3991669236,
    3991669233,
    3991669237
  ],
  "tags": {
    "landuse": "cemetery"
  }
},
{
  "type": "way",
  "id": 45675621,
  "center": {
    "lat": 52.1970810,
    "lon": 9.4756934
  },
  "nodes": [
    5041499114,
    5041499233,
    5041499234,
    5041499236,
    5041499235,
    582081575,
    582081576,
    5066833518,
    5072906628,
    5066833704,
    5072906634,
    5066833521,
    5066935872,
    5066833717,
    5066833713,
    5072906647,
    5066833714,
    5066833715,
    582081578,
    5066833711,
    5066833712,
    1519644043,
    5041499120,
    5041499221,
    5072906688,
    5041499223,
    5041499224,
    5072906694,
    5041499114
  ],
  "tags": {
    "landuse": "cemetery"
  }
},
{
  "type": "way",
  "id": 45737748,
  "center": {
    "lat": 52.1976964,
    "lon": 9.4003656
  },
  "nodes": [
    582563257,
    582563259,
    582563262,
    582563263,
    12653922444,
    582563257
  ],
  "tags": {
    "landuse": "cemetery"
  }
},
{
  "type": "way",
  "id": 45868347,
  "center": {
    "lat": 52.3114844,
    "lon": 9.6510143
  },
  "nodes": [
    583755761,
    2484473350,
    583755762,
    583755763,
    2484254844,
    2484254843,
    583755413,
    583755761
  ],
  "tags": {
    "landuse": "cemetery",
    "name": "Friedhof Ronnenberg",
    "source": "Bing 2012"
  }
},
{
  "type": "way",
  "id": 46962256,
  "center": {
    "lat": 52.1649473,
    "lon": 9.9198170
  },