{
  "version": 0.6,
  "generator": "Overpass API 0.7.62.8 e802775f",
  "osm3s": {
    "timestamp_osm_base": "2025-11-02T22:54:20Z",
    "copyright": "The data included in this document is from www.openstreetmap.org. The data is made available under ODbL."
  },
  "elements": [

{
  "type": "way",
  "id": 11171161,
  "center": {
    "lat": 50.6605888,
    "lon": 11.0542026
  },
  "nodes": [
    7567358566,
    321780719,
    11101217342,
    11101217343,
    99447639,
    11101217341,
    3491464107,
    321780721,
    11101217347,
    11101217348,
    321780700,
    99447662,
    3491464115,
    7567358566
  ],
  "tags": {
    "amenity": "grave_yard",
    "wikidata": "Q136031995"
  }
},
{
  "type": "way",
  "id": 12381181,
  "center": {
    "lat": 50.6628580,
    "lon": 11.1003987
  },
  "nodes": [
    112554527,
    1304576232,
    3367658649,
    3367658653,
    3367658654,
    3367658655,
    3367658652,
    1304576226,
    3367658651,
    3367658650,
    2318279302,
    1304576239,
    2318279310,
    2318279298,
    2318279314,
    2318279309,
    1304576237,
    1304576233,
    1304576236,
    112554495,
    112554504,
    112554516,
    112554527
  ],
  "tags": {
    "landuse": "cemetery",
    "name": "Friedhof Königsee"
  }
},
{
  "type": "way",
  "id": 23215435,
  "center": {
    "lat": 50.9213780,
    "lon": 11.2114190
  },
  "nodes": [
    6022737538,
    251125324,
    251125323,
    2133782815,
    6022737540,
    6022737541,
    6022737538
  ],
  "tags": {
    "landuse": "cemetery"
  }
},
{
  "type": "way",
  "id": 24159558,
  "center": {
    "lat": 50.0964297,
    "lon": 11.6580478
  },
  "nodes": [
    2212625554,
    4444133754,
    4444134009,
    4444133776,
    4444133752,
    4444133737,
    4444133785,
    4444133993,
    4444133747,
    4444133761,
    2212625549,
    261691842,
    261691835,
    261691833,
    4443911230,
    2212625567,
    2212625554
  ],
  "tags": {
    "denomination": "catholic",
    "landuse": "cemetery",
    "name": "Kath. Friedhof",
    "religion": "christian"
  }
},
{
  "type": "way",
  "id": 24212313,
  "center": {
    "lat": 50.9310744,
    "lon": 11.5825654
  },
  "nodes": [
    262160042,
    1298725104,
    1298725079,
    1298725032,
    444859501,
    444859502,
    444859503,
    32127692,
    32127693,
    32127694,
    429426423,
    262163809,
    429426451,
    11698484265,
    262159640,
    11745723921,
    291499675,
    11745723920,
    291499664,
    291499673,
    342082252,
    262160042
  ],
  "tags": {
    "addr:city": "Jena",
    "addr:country": "DE",
    "addr:housenumber": "1",
    "addr:postcode": "07743",
    "addr:street": "Philosophenweg",
    "denomination": "lutheran",
    "landuse": "cemetery",
    "name": "Johannisfriedhof",
    "religion": "christian",
    "wikidata": "Q15396420"
  }
},
{
  "type": "way",
  "id": 24444700,
  "center": {
    "lat": 50.9855181,
    "lon": 11.2266842
  },
  "nodes": [
    1154247172,
    265668677,
    7066469091,
    265668674,
    265668670,
    265668686,
    265668689,
    7066764725,
    7066764724,
    265668698,
    265668701,
    1154247172
  ],
  "tags": {
    "landuse": "cemetery"
  }
},
{
  "type": "way",
  "id": 24642770,
  "center": {
    "lat": 50.8923951,
    "lon": 11.5832384
  },
  "nodes": [
    267873151,
    267874014,
    11077525441,
    2458140728,
    2458140729,
    2458140730,
    267874015,
    11076255767,
    8930363319,
    8930363322,
    8930363323,
    267873151
  ],
  "tags": {
    "landuse": "cemetery",
    "name": "Friedhof Winzerla"
  }
},
{
  "type": "way",
  "id": 25411107,
  "center": {
    "lat": 50.3744892,
    "lon": 11.6009701
  },
  "nodes": [
    276941314,
    6265096233,
    276941315,
    6265096232,
    276941316,
    6265096231,
    6265096968,
    276941314
  ],
  "tags": {
    "landuse": "cemetery"
  }
},
{
  "type": "way",
  "id": 25441030,
  "center": {
    "lat": 50.6677028,
    "lon": 11.2953860
  },
  "nodes": [
    277266015,
    277266016,
    277266017,
    277266018,
    277266019,
    11116368907,
    277266020,
    11116368910,
    11116368908,
    11116368909,
    277266015
  ],
  "tags": {
    "landuse": "cemetery",
    "name": "Friedhof Unterwirbach"
  }
},
{
  "type": "way",
  "id": 25675325,
  "center": {
    "lat": 50.3440191,
    "lon": 11.1775856
  },
  "nodes": [
    279899995,
    6853906500,
    279899997,
    904453943,
    904453942,
    279900000,
    1225125844,
    279899995
  ],
  "tags": {
    "landuse": "cemetery",
    "name": "Friedhof Oberlind"
  }
},
{
  "type": "way",
  "id": 25842231,
  "center": {
    "lat": 50.8908971,
    "lon": 11.6085082
  },
  "nodes": [
    3620668376,
    3620668380,
    3620668382,
    3620668381,
    3620668374,
    3620668372,
    3376386236,
    3620668369,
    281870698,
    3613814829,
    3620696161,
    3620696164,
    3620668385,
    3620668384,
    3620668379,
    2993254089,
    3620668376
  ],
  "tags": {
    "barrier": "fence",
    "fence_type": "chain_link",
    "landuse": "cemetery",
    "name": "Friedhof Lobeda",
    "wikidata": "Q136456463"
  }
},
{
  "type": "way",
  "id": 25888499,
  "center": {
    "lat": 50.5839480,
    "lon": 11.0172626
  },
  "nodes": [
    387521855,
    282396375,
    282396372,
    2401175392,
    2401175393,
    2964732715,
    387521859,
    387521860,
    387521853,
    387521854,
    387521855
  ],
  "tags": {
    "landuse": "cemetery",
    "wikidata": "Q113550926"
  }
},
{
  "type": "way",
  "id": 26138264,
  "center": {
    "lat": 50.9878111,
    "lon": 11.1078237
  },
  "nodes": [
    286216910,
    1390571894,
    286216869,
    286216944,
    286217011,
    9504448486,
    7316825273,
    286216910
  ],
  "tags": {
    "landuse": "cemetery",
    "name": "Friedhof Azmannsdorf",
    "website": "https://www.erfurt.de/ef/de/erleben/sehenswertes/friedhoefe/ortsteilfriedhof/108170.html"
  }
},
{
  "type": "way",
  "id": 26254864,
  "center": {
    "lat": 50.6449010,
    "lon": 11.0012035
  },
  "nodes": [
    6025256630,
    1719652489,
    6025256634,
    6025256638,
    6025256629,
    6025256605,
    6025256604,
    6025256631,
    6025256633,
    6025256636,
    6025256628,
    6025256627,
    6025256635,
    6025256637,
    6025256632,
    6025256630
  ],
  "tags": {
    "denomination": "protestant",
    "landuse": "cemetery",
    "religion": "christian",
    "wikidata": "Q136032125"
  }
},
{
  "type": "way",
  "id": 26426420,
  "center": {
    "lat": 50.9747073,
    "lon": 11.2642249
  },
  "nodes": [
    289539081,
    289539082,
    289539083,
    289539084,
    289539081
  ],
  "tags": {
    "landuse": "cemetery",
    "name:signed": "no"
  }
},
{
  "type": "way",
  "id": 26602012,
  "center": {
    "lat": 50.9363940,
    "lon": 11.7497676
  },
  "nodes": [
    291732391,
    1268697874,
    291732392,
    291732393,
    662585409,
    1263616637,
    4987029045,
    291732395,
    1263616704,
    10694857823,
    4987029043,
    291732391
  ],
  "tags": {
    "landuse": "cemetery",
    "name": "Friedhof",
    "wikidata": "Q113556723"
  }
},
{
  "type": "way",
  "id": 26852805,
  "center": {
    "lat": 50.6628321,
    "lon": 11.9086647
  },
  "nodes": [
    294914649,
    294914651,
    294914653,
    294914654,
    294914649
  ],
  "tags": {
    "landuse": "cemetery"
  }
},
{
  "type": "way",
  "id": 27073464,
  "center": {
    "lat": 50.8331845,
    "lon": 11.6065038
  },
  "nodes": [
    4023821235,
    297029986,
    297029987,
    297029956,
    4023821235
  ],
  "tags": {
    "landuse": "cemetery"
  }
},
{
  "type": "way",
  "id": 27732655,
  "center": {
    "lat": 50.7016149,
    "lon": 11.1053904
  },
  "nodes": [
    8808848258,
    304537977,
    8808848255,
    8808848256,
    304537978,
    8808848257,
    8808848258
  ],
  "tags": {
    "barrier": "fence",
    "denomination": "protestant",
    "landuse": "cemetery",
    "religion": "christian",
    "wikidata": "Q119685399"
  }
},
{
  "type": "way",
  "id": 28097921,
  "center": {
    "lat": 50.1005666,
    "lon": 11.0057785
  },
  "nodes": [
    308647645,
    427624025,
    308647650,
    308647653,
    2894209315,
    8112171460,
    7936570017,
    7936570018,
    7936570016,
    8112171459,
    9221720611,
    9221720606,
    7953344698,
    308647657,
    8696747745,
    7936570023,
    8696747744,
    8747176786,
    308647661,
    308647645
  ],
  "tags": {
    "denomination": "catholic",
    "landuse": "cemetery",
    "religion": "christian"
  }
},
{
  "type": "way",
  "id": 28138352,
  "center": {
    "lat": 50.1448913,
    "lon": 11.0723218
  },
  "nodes": [
    309055589,
    5752022981,
    5752022982,
    5748935635,
    309055590,
    309055591,
    309055592,
    11650499028,
    309055593,
    309055594,
    309055595,
    309055596,
    309055597,
    5752022980,
    5752022979,
    5748935644,
    309055589
  ],
  "tags": {
    "landuse": "cemetery"
  }
},
{
  "type": "way",
  "id": 28382492,
  "center": {
    "lat": 50.9833422,
    "lon": 11.3276244
  },
  "nodes": [
    311763396,
    2819398480,
    311763398,
    2387499485,
    2499310684,
    311763400,
    2359383442,
    2387499456,
    4501971632,
    2387499058,
    2387499036,
    311763402,
    2819398479,
    311763396
  ],
  "tags": {
    "barrier": "wall",
    "landuse": "cemetery",
    "leisure": "park",
    "name": "Jakobskirchhof",
    "wikidata": "Q1377175"
  }
},
{
  "type": "way",
  "id": 28397535,
  "center": {
    "lat": 50.0978058,
    "lon": 11.8830477
  },
  "nodes": [
    3641384976,
    2489320027,
    2477430979,
    2477430980,
    2477430981,
    2477430982,
    2477430987,
    8664819757,
    2477430989,
    2477430992,
    311973183,
    311936048,
    311936049,
    3641392806,
    3641392807,
    2489320015,
    3641384976
  ],
  "tags": {
    "heritage": "4",
    "heritage:operator": "BLfD",
    "image": "https://de.wikipedia.org/wiki/Datei:Wei%C3%9Fenstadt_Friedhof.JPG",
    "landuse": "cemetery",
    "name": "Friedhof Weißenstadt",
    "ref:BLfD": "D-4-79-166-8",
    "wikidata": "Q22691938",
    "wikimedia_commons": "Category:Friedhof (Weißenstadt)",
    "wikipedia": "de:Friedhof (Weißenstadt)"
  }
},
{
  "type": "way",
  "id": 28798771,
  "center": {
    "lat": 50.3759266,
    "lon": 11.5116984
  },
  "nodes": [
    316639239,
    316639243,
    316639242,
    340237022,
    316639241,
    316639240,
    316639239
  ],
  "tags": {
    "denomination": "catholic",
    "landuse": "cemetery",
    "religion": "christian"
  }
},
{
  "type": "way",
  "id": 28952852,
  "center": {
    "lat": 50.9597231,
    "lon": 11.1943875
  },
  "nodes": [
    318330125,
    318330128,
    318330131,
    8574102743,
    318330134,
    318330125
  ],
  "tags": {
    "landuse": "cemetery"
  }
},
{
  "type": "way",
  "id": 29117562,
  "center": {
    "lat": 50.6143521,
    "lon": 11.1661709
  },
  "nodes": [
    320316335,
    320316350,
    320316341,
    320316344,
    3268718406,
    3268718402,
    3268718434,
    320316348,
    320316335
  ],
  "tags": {
    "denomination": "protestant",
    "landuse": "cemetery",
    "religion": "christian"
  }
},
{
  "type": "way",
  "id": 29409989,
  "center": {
    "lat": 50.1509820,
    "lon": 11.1748133
  },
  "nodes": [
    324057120,
    324055560,
    324057054,
    324055880,
    324055943,
    324056011,
    324055476,
    324055512,
    324055395,
    339020087,
    324056197,
    324055486,
    324055602,
    324056061,
    324055589,
    324055577,
    324057134,
    324057120
  ],
  "tags": {
    "landuse": "cemetery",
    "name": "Friedhof Hochstadt am Main"
  }
},
{
  "type": "way",
  "id": 29469356,
  "center": {
    "lat": 50.5741579,
    "lon": 11.0988032
  },
  "nodes": [
    324787450,
    507967337,
    324787451,
    324787452,
    324787453,
    324787450
  ],
  "tags": {
    "landuse": "cemetery"
  }
},
{
  "type": "way",
  "id": 30101120,
  "center": {
    "lat": 50.1669111,
    "lon": 11.1122468
  },
  "nodes": [
    331575519,
    331575521,
    331871441,
    331575523,
    331575526,
    336211898,
    336211900,
    331575519
  ],
  "tags": {
    "landuse": "cemetery"
  }
},
{
  "type": "way",
  "id": 31483303,
  "center": {
    "lat": 50.0410709,
    "lon": 11.2104044
  },
  "nodes": [
    351917600,
    351917602,
    2423107594,
    351917604,
    351917607,
    351917881,
    351917600
  ],
  "tags": {
    "landuse": "cemetery"
  }
},
{
  "type": "way",
  "id": 31484614,
  "center": {
    "lat": 50.0513307,
    "lon": 11.1386039
  },
  "nodes": [
    351928942,
    351928943,
    351928944,
    351928945,
    351928942
  ],
  "tags": {
    "created_by": "Potlatch 0.10f",
    "landuse": "cemetery"
  }
},
{
  "type": "way",
  "id": 31854662,
  "center": {
    "lat": 50.1319027,
    "lon": 11.2584924
  },
  "nodes": [
    356631311,
    356631930,
    356631931,
    356631932,
    356631933,
    356631935,
    356631936,
    356631937,
    356631313,
    5996429620,
    356631312,
    5996429389,
    356631311
  ],
  "tags": {
    "landuse": "cemetery",
    "source": "Yahoo"
  }
},
{
  "type": "way",
  "id": 32004055,
  "center": {
    "lat": 50.0164731,
    "lon": 11.4997198
  },
  "nodes": [
    358870063,
    358870064,
    358870065,
    358870066,
    2102894282,
    358870068,
    13087288584,
    13087288591,
    358870069,
    358870070,
    358870071,
    358870063
  ],
  "tags": {
    "landuse": "cemetery"
  }
},
{
  "type": "way",
  "id": 32508533,
  "center": {
    "lat": 50.9822109,
    "lon": 11.2767792
  },
  "nodes": [
    691183914,
    365517436,
    278865444,
    1007281682,
    691183948,
    691183914
  ],
  "tags": {
    "landuse": "cemetery",
    "name:signed": "no"
  }
},
{
  "type": "way",
  "id": 32954365,
  "center": {
    "lat": 50.2388534,
    "lon": 11.8026210
  },
  "nodes": [
    371154154,
    371154171,
    371154173,
    371154175,
    371154176,
    371154178,
    371154180,
    371154181,
    371154186,
    371154188,
    371154190,
    11494791557,
    371154191,
    371154193,
    371154195,
    371154154
  ],
  "tags": {
    "denomination": "lutheran",
    "landuse": "cemetery",
    "religion": "christian"
  }
},
{
  "type": "way",
  "id": 32955205,
  "center": {
    "lat": 50.1935954,
    "lon": 11.7840796
  },
  "nodes": [
    371159998,
    371160000,
    371160002,
    371160003,
    371160005,
    11052838866,
    371160014,
    11739102642,
    371160065,
    371160016,
    371160018,
    371160019,
    371160021,
    371160022,
    371160024,
    371160025,
    371160027,
    371160028,
    371160030,
    371160031,
    371160032,
    6643092367,
    6643092366,
    371160034,
    371160035,
    371160037,
    371160038,
    371160040,
    371160041,
    371160043,
    371160045,
    1094555597,
    1094551349,
    371160047,
    371159998
  ],
  "tags": {
    "denomination": "lutheran",
    "landuse": "cemetery",
    "religion": "christian"
  }
},
{
  "type": "way",
  "id": 33083657,
  "center": {
    "lat": 50.3676852,
    "lon": 11.6384588
  },
  "nodes": [
    8446537696,
    11022944121,
    11831636040,
    373347002,
    11831636039,
    11831636038,
    373347027,
    11831636036,
    11831636037,
    8446537697,
    8446537698,
    8446537696
  ],
  "tags": {
    "denomination": "protestant",
    "landuse": "cemetery",
    "name": "Friedhof der evang.-luth. Kirchengemeinde Bad Steben",
    "name:en": "Cemetery",
    "religion": "christian"
  }
},
{
  "type": "way",
  "id": 33186334,
  "center": {
    "lat": 50.3303150,
    "lon": 11.1191643
  },
  "nodes": [
    376016503,
    376016514,
    12463198350,
    12463198331,
    2135400617,
    376016536,
    664501859,
    2135400600,
    2135400598,
    2135400575,
    2135400568,
    12463198325,
    2135400563,
    376016549,
    376016557,
    2135400784,
    2135400611,
    2135400613,
    376016503
  ],
  "tags": {
    "landuse": "cemetery",
    "name": "Friedhof Neustadt",
    "religion": "christian"
  }
},
{
  "type": "way",
  "id": 33232050,
  "center": {
    "lat": 50.3963047,
    "lon": 11.1137961
  },
  "nodes": [
    377003060,
    377003063,
    2256069680,
    377003067,
    377003070,
    2256072226,
    377003073,
    2256072219,
    8558348939,
    377003060
  ],
  "tags": {
    "addr:city": "Frankenblick",
    "addr:country": "DE",
    "addr:postcode": "96528",
    "addr:suburb": "Mengersgereuth-Hämmern",
    "amenity": "grave_yard",
    "denomination": "protestant",
    "landuse": "cemetery",
    "name": "Friedhof Mengersgereuth",
    "religion": "christian",
    "wikidata": "Q136489304"
  }
},
{
  "type": "way",
  "id": 33556452,
  "center": {
    "lat": 50.2369224,
    "lon": 11.3296522
  },
  "nodes": [
    383078578,
    383078581,
    3814727050,
    383078583,
    10763918307,
    11871994601,
    10763918316,
    3814727056,
    10765321466,
    11871994600,
    383078589,
    3814727561,
    10782345259,
    3814727558,
    10782345269,
    10782345257,
    10782345256,
    383078591,
    1127004426,
    1127004866,
    10765321492,
    1127004672,
    383078593,
    10765321413,
    383078594,
    10763918305,
    10763918320,
    383078578
  ],
  "tags": {
    "bicycle": "no",
    "dog": "no",
    "landuse": "cemetery",
    "name": "Friedhof Kronach",
    "opening_hours": "Apr-Sep 07:00-20:00; Oct-Mar 08:00-16:00",
    "smoking": "no",
    "vehicle": "no"
  }
},
{
  "type": "way",
  "id": 33681420,
  "center": {
    "lat": 50.6290021,
    "lon": 11.1266733
  },
  "nodes": [
    385096858,
    385096859,
    987840627,
    385096860,
    8183949145,
    8189921994,
    385096861,
    11880910195,
    385096858
  ],
  "tags": {
    "landuse": "cemetery"
  }
},
{
  "type": "way",
  "id": 33686036,
  "center": {
    "lat": 50.2251345,
    "lon": 11.9322148
  },
  "nodes": [
    394764980,
    394764991,
    392848812,
    392848813,
    394764992,
    7595000814,
    385149109,
    386832398,
    385149110,
    385149126,
    9434253479,
    385149128,
    9426163854,
    385149112,
    385149115,
    385149117,
    385149119,
    385149121,
    385149122,
    394764978,
    394764980
  ],
  "tags": {
    "landuse": "cemetery",
    "religion": "christian"
  }
},
{
  "type": "way",
  "id": 33814782,
  "center": {
    "lat": 50.3293750,
    "lon": 11.9157413
  },
  "nodes": [
    387283724,
    2879407848,
    2879407847,
    387283750,
    6453014205,
    6453014204,
    6453014203,
    387283726,
    3161347545,
    3161347544,
    3161347543,
    387283728,
    387283730,
    387283732,
    3736003645,
    3736003646,
    387283724
  ],
  "tags": {
    "landuse": "cemetery",
    "name": "Friedhof Hof, Plauener Straße"
  }
},
{
  "type": "way",
  "id": 34073544,
  "center": {
    "lat": 50.2576306,
    "lon": 11.0155764
  },
  "nodes": [
    390442597,
    1037522365,
    390442599,
    390442595,
    1045015122,
    390442601,
    390442603,
    390442597
  ],
  "tags": {
    "amenity": "grave_yard",
    "denomination": "protestant",
    "religion": "christian"
  }
},
{
  "type": "way",
  "id": 34169234,
  "center": {
    "lat": 50.5161794,
    "lon": 11.1519644
  },
  "nodes": [
    8011431325,
    8011431334,
    8011431309,
    8011431336,
    8011431320,
    8011431319,
    8011431325
  ],
  "tags": {
    "area": "yes",
    "landuse": "cemetery",
    "name": "Friedhof Schmalenbuche",
    "wikidata": "Q113551286"
  }
},
{
  "type": "way",
  "id": 34343412,
  "center": {
    "lat": 50.1030371,
    "lon": 11.4514121
  },
  "nodes": [
    393938762,
    393938766,
    393938770,
    393938774,
    393938776,
    393938780,
    393938783,
    393938785,
    393938788,
    393938793,
    393938804,
    393938806,
    393938809,
    393938814,
    393938818,
    393938822,
    393943795,
    393938823,
    393943796,
    393943798,
    2323769523,
    393938835,
    393938840,
    393938845,
    12291910961,
    393938847,
    393938848,
    393938852,
    393938854,
    393938858,
    393938861,
    393938865,
    393938867,
    393938762
  ],
  "tags": {
    "landuse": "cemetery",
    "name": "Stadtfriedhof"
  }
},
{
  "type": "way",
  "id": 34871292,
  "center": {
    "lat": 50.8510452,
    "lon": 11.3627320
  },
  "nodes": [
    408825818,
    408825822,
    408825826,
    408825829,
    408825831,
    8625196482,
    408825818
  ],
  "tags": {
    "landuse": "cemetery"
  }
},
{
  "type": "way",
  "id": 35077974,
  "center": {
    "lat": 50.4170851,
    "lon": 11.0436834
  },
  "nodes": [
    411500980,
    411500991,
    411500982,
    411500983,
    411500992,
    411500984,
    411500985,
    411500986,
    411500988,
    411500989,
    411500980
  ],
  "tags": {
    "landuse": "cemetery"
  }
},
{
  "type": "way",
  "id": 35167062,
  "center": {
    "lat": 50.2794642,
    "lon": 11.7440904
  },
  "nodes": [
    412488625,
    412488626,
    2654706644,
    2654706647,
    412488627,
    12753927837,
    12753927836,
    412488628,
    12753927835,
    2654706649,
    12753927834,
    412488629,
    1280418761,
    2654706652,
    412488630,
    2654706654,
    412488631,
    412488632,
    412488633,
    412488634,
    412488635,
    412488636,
    412488637,
    2667767461,
    2667767460,
    412488638,
    1280418760,
    412488639,
    412488640,
    412488641,
    2654706657,
    412488625
  ],
  "tags": {
    "denomination": "lutheran",
    "landuse": "cemetery",
    "religion": "christian"
  }
},
{
  "type": "way",
  "id": 35336326,
  "center": {
    "lat": 50.8782962,
    "lon": 11.1190189
  },
  "nodes": [
    414204179,
    414204180,
    5748862655,
    414204181,
    5748862656,
    5748862657,
    3476442721,
    3476442720,
    3476442719,
    414204179
  ],
  "tags": {
    "denomination": "lutheran",
    "landuse": "cemetery",
    "religion": "christian",
    "wikidata": "Q136515629"
  }
},
{
  "type": "way",
  "id": 35392649,
  "center": {
    "lat": 50.9969346,
    "lon": 11.1491649
  },
  "nodes": [
    415132424,
    2008489642,
    415132425,
    415132426,
    415132427,
    2008489644,
    415132424
  ],
  "tags": {
    "landuse": "cemetery",
    "name": "Friedhof Vieselbach",
    "website": "https://www.erfurt.de/ef/de/erleben/sehenswertes/friedhoefe/ortsteilfriedhof/108191.html"
  }
},
{
  "type": "way",
  "id": 35552201,
  "center": {
    "lat": 50.0931718,
    "lon": 11.4205430
  },
  "nodes": [
    416564053,
    416564054,
    416564055,
    416564056,
    416564057,
    416564053
  ],
  "tags": {
    "area": "yes",
    "landuse": "cemetery",
    "name": "Friedhof"
  }
},
{
  "type": "way",
  "id": 36141536,
  "center": {
    "lat": 50.9530029,
    "lon": 11.1516033
  },
  "nodes": [
    1504340920,
    663644054,
    422024522,
    663644053,
    1504340920
  ],
  "tags": {
    "barrier": "fence",
    "landuse": "cemetery",
    "wikidata": "Q123758509"
  }
},
{
  "type": "way",
  "id": 36818853,
  "center": {
    "lat": 50.1838816,
    "lon": 11.9234488
  },
  "nodes": [
    427970986,
    427970987,
    6197582533,
    6197582532,
    427970986
  ],
  "tags": {
    "amenity": "grave_yard",
    "name": "Hallersteiner Friedhof",
    "religion": "christian"
  }
},
{
  "type": "way",
  "id": 38129344,
  "center": {
    "lat": 50.0690772,
    "lon": 11.0619729
  },
  "nodes": [
    448736047,
    448736050,
    448736052,
    448736060,
    448736066,
    448736047
  ],
  "tags": {
    "barrier": "wall",
    "landuse": "cemetery",
    "name": "Friedhof Frauendorf",
    "religion": "christian"
  }
},
{
  "type": "way",
  "id": 38289861,
  "center": {
    "lat": 50.3762100,
    "lon": 11.7247188
  },
  "nodes": [
    1287978544,
    451793382,
    451793383,
    1287978530,
    1287978544
  ],
  "tags": {
    "landuse": "cemetery"
  }
},
{
  "type": "way",
  "id": 38333241,
  "center": {
    "lat": 50.0878213,
    "lon": 11.0641184
  },
  "nodes": [
    452634224,
    4804112191,
    4804112190,
    4804112192,
    4804112189,
    4804112188,
    452634225,
    4804112187,
    452634226,
    452634227,
    4804112185,
    452634228,
    4804112193,
    4804112186,
    452634229,
    452634230,
    452634224
  ],
  "tags": {
    "landuse": "cemetery",
    "name": "Friedhof",
    "religion": "christian"
  }
},
{
  "type": "way",
  "id": 39065769,
  "center": {
    "lat": 50.1407465,
    "lon": 11.5774843
  },
  "nodes": [
    466236173,
    466236174,
    466236175,
    466236177,
    466236173
  ],
  "tags": {
    "landuse": "cemetery",
    "source": "Yahoo"
  }
},
{
  "type": "way",
  "id": 39132828,
  "center": {
    "lat": 50.9170713,
    "lon": 11.0233267
  },
  "nodes": [
    468336912,
    468336916,
    468336918,
    468336923,
    3127970525,
    468336912
  ],
  "tags": {
    "landuse": "cemetery",
    "name": "Friedhof Waltersleben",
    "website": "https://www.erfurt.de/ef/de/erleben/sehenswertes/friedhoefe/ortsteilfriedhof/108194.html"
  }
},
{
  "type": "way",
  "id": 39700424,
  "center": {
    "lat": 50.6066417,
    "lon": 11.0392712
  },
  "nodes": [
    476008710,
    476008712,
    476008713,
    476008714,
    476008715,
    476008716,
    476008717,
    476008718,
    476008710
  ],
  "tags": {
    "denomination": "protestant",
    "landuse": "cemetery",
    "religion": "christian"
  }
},
{
  "type": "way",
  "id": 39791133,
  "center": {
    "lat": 50.6275253,
    "lon": 11.0526496
  },
  "nodes": [
    477004650,
    477004652,
    477004654,
    477004656,
    477004658,
    477004650
  ],
  "tags": {
    "denomination": "protestant",
    "landuse": "cemetery",
    "religion": "christian"
  }
},
{
  "type": "way",
  "id": 39861512,
  "center": {
    "lat": 50.8535250,
    "lon": 11.0989691
  },
  "nodes": [
    478057291,
    478057294,
    3629267386,
    2919938412,
    478057297,
    3629260572,
    3629260570,
    3629260569,
    478057300,
    478057291
  ],
  "tags": {
    "barrier": "fence",
    "denomination": "protestant",
    "landuse": "cemetery",
    "religion": "christian"
  }
},
{
  "type": "way",
  "id": 39882925,
  "center": {
    "lat": 50.8879785,
    "lon": 11.0615049
  },
  "nodes": [
    478525402,
    478525404,
    3464966841,
    3464966843,
    3464966842,
    11951861584,
    478525406,
    11951861583,
    3464966840,
    478525409,
    11951861582,
    3464966839,
    478525402
  ],
  "tags": {
    "amenity": "grave_yard",
    "denomination": "protestant",
    "religion": "christian",
    "wikidata": "Q136515408"
  }
},
{
  "type": "way",
  "id": 39933879,
  "center": {
    "lat": 50.8659779,
    "lon": 11.0569829
  },
  "nodes": [
    479492074,
    2193757114,
    3577343217,
    2193757111,
    3577343214,
    479492075,
    2193757094,
    479492081,
    2193757095,
    479492076,
    479492077,
    479492080,
    6120709604,
    6120709605,
    479492074
  ],
  "tags": {
    "amenity": "grave_yard",
    "denomination": "lutheran",
    "religion": "christian"
  }
},
{
  "type": "way",
  "id": 39948423,
  "center": {
    "lat": 50.8624474,
    "lon": 11.0922969
  },
  "nodes": [
    479737467,
    479737468,
    479737469,
    3621407849,
    479737470,
    3621407848,
    9691716362,
    9691716361,
    2121612592,
    2121612588,
    3621407847,
    479737471,
    9691716364,
    9691716363,
    479737467
  ],
  "tags": {
    "amenity": "grave_yard",
    "denomination": "lutheran",
    "religion": "christian"
  }
},
{
  "type": "way",
  "id": 39986241,
  "center": {
    "lat": 50.1331862,
    "lon": 11.8195791
  },
  "nodes": [
    480430733,
    1447926003,
    480430734,
    480430735,
    480430730,
    480430737,
    480430733
  ],
  "tags": {
    "landuse": "cemetery",
    "name": "Alter Friedhof"
  }
},
{
  "type": "way",
  "id": 40027346,
  "center": {
    "lat": 50.1315122,
    "lon": 11.8203017
  },
  "nodes": [
    481265321,
    1448443215,
    1448443213,
    1448443214,
    481342052,
    1448443210,
    1448443211,
    481265323,
    481342053,
    481265326,
    481265327,
    481265328,
    481265329,
    481265321
  ],
  "tags": {
    "landuse": "cemetery",
    "name": "Neuer Friedhof",
    "religion": "christian"
  }
},
{
  "type": "way",
  "id": 40105855,
  "center": {
    "lat": 50.9306739,
    "lon": 11.6109584
  },
  "nodes": [
    926934452,
    3369954925,
    926934456,
    1491223502,
    3266372250,
    3369954906,
    3369954907,
    926934458,
    3369954903,
    3369954904,
    270607549,
    3266372254,
    3266372253,
    3266372252,
    270607558,
    3371864187,
    3372094467,
    3372094466,
    3372094464,
    270607560,
    926934452
  ],
  "tags": {
    "landuse": "cemetery",
    "name": "Ostfriedhof",
    "wikidata": "Q109332629"
  }
},
{
  "type": "way",
  "id": 40774606,
  "center": {
    "lat": 50.9572048,
    "lon": 11.0385054
  },
  "nodes": [
    495570951,
    1701651317,
    495570947,
    495570948,
    495570949,
    495570950,
    495570951
  ],
  "tags": {
    "addr:city": "Erfurt",
    "addr:country": "DE",
    "addr:housenumber": "3",
    "addr:postcode": "99096",
    "addr:street": "Werner-Seelenbinder-Straße",
    "denomination": "jewish",
    "landuse": "cemetery",
    "name": "Neuer jüdischer Friedhof",
    "note:de": "Friedhof der Jüdischen Landesgemeinde Thüringen",
    "religion": "jewish",
    "start_date": "1871",
    "website": "https://juedisches-leben.erfurt.de/jl/de/heute/njfriedhof/index.html",
    "wikidata": "Q1980264",
    "wikimedia_commons": "Category:Neuer Jüdischer Friedhof (Erfurt)",
    "wikipedia": "de:Neuer jüdischer Friedhof (Erfurt)"
  }
},
{
  "type": "way",
  "id": 40995007,
  "center": {
    "lat": 50.3680035,
    "lon": 11.9514910
  },
  "nodes": [
    499636192,
    9105704825,
    9105704824,
    9160432421,
    9160432423,
    499636193,
    499636194,
    9160389914,
    9160432428,
    499636195,
    499636196,
    499636197,
    9123124704,
    618991239,
    618991240,
    9123124700,
    9123124703,
    9123124701,
    499636192
  ],
  "tags": {
    "denomination": "lutheran",
    "landuse": "cemetery",
    "name": "Friedhof Trogen",
    "religion": "christian"
  }
},
{
  "type": "way",
  "id": 41080379,
  "center": {
    "lat": 50.7228861,
    "lon": 11.1099009
  },
  "nodes": [
    500879515,
    500879516,
    6734934192,
    500879517,
    500879519,
    500879515
  ],
  "tags": {
    "amenity": "grave_yard",
    "denomination": "lutheran",
    "religion": "christian"
  }
},
{
  "type": "way",
  "id": 41082177,
  "center": {
    "lat": 50.7142109,
    "lon": 11.1613357
  },
  "nodes": [
    500893705,
    8527858247,
    8527858246,
    8527858245,
    500893706,
    500893707,
    8527858248,
    500893708,
    8527858244,
    500893705
  ],
  "tags": {
    "amenity": "grave_yard",
    "denomination": "protestant",
    "religion": "christian"
  }
},
{
  "type": "way",
  "id": 41083282,
  "center": {
    "lat": 50.7169612,
    "lon": 11.1994138
  },
  "nodes": [
    500906160,
    8571124466,
    8571124465,
    8571124467,
    8571124468,
    500906161,
    8571124470,
    8571124469,
    8571124471,
    500906163,
    8571124472,
    8571124473,
    8571124474,
    500906164,
    8571124475,
    500906166,
    500906160
  ],
  "tags": {
    "amenity": "grave_yard",
    "denomination": "protestant",
    "religion": "christian"
  }
},
{
  "type": "way",
  "id": 41133270,
  "center": {
    "lat": 50.6930115,
    "lon": 11.1989226
  },
  "nodes": [
    502045320,
    8582837026,
    8582837025,
    8582837024,
    8582837032,
    8582837021,
    502045323,
    8582837019,
    8582837020,
    8582837018,
    502045327,
    8500010089,
    502045331,
    8500010088,
    502045320
  ],
  "tags": {
    "amenity": "grave_yard",
    "denomination": "protestant",
    "religion": "christian"
  }
},
{
  "type": "way",
  "id": 41141777,
  "center": {
    "lat": 50.6895714,
    "lon": 11.1649635
  },
  "nodes": [
    502262800,
    502262802,
    8610225738,
    502262803,
    502262805,
    8610225728,
    502262800
  ],
  "tags": {
    "denomination": "protestant",
    "landuse": "cemetery",
    "religion": "christian"
  }
},
{
  "type": "way",
  "id": 41921104,
  "center": {
    "lat": 50.1106733,
    "lon": 11.6060231
  },
  "nodes": [
    519111924,
    2154877374,
    519111925,
    2154877350,
    2154877347,
    2154877313,
    843474814,
    519111926,
    2154877281,
    2121110036,
    519111927,
    2154761623,
    2154761637,
    519111928,
    2154761702,
    2154761749,
    519111929,
    2154877384,
    843474730,
    519111924
  ],
  "tags": {
    "denomination": "protestant",
    "landuse": "cemetery",
    "religion": "christian"
  }
},
{
  "type": "way",
  "id": 42135576,
  "center": {
    "lat": 50.9288035,
    "lon": 11.5156282
  },
  "nodes": [
    2613151445,
    1376707011,
    524062234,
    524062243,
    2613151445
  ],
  "tags": {
    "amenity": "grave_yard"
  }
},
{
  "type": "way",
  "id": 42314883,
  "center": {
    "lat": 50.5175540,
    "lon": 11.0036156
  },
  "nodes": [
    528060070,
    1547967175,
    528060071,
    1547967169,
    528060073,
    1547967174,
    12138241245,
    528060074,
    528060070
  ],
  "tags": {
    "denomination": "protestant",
    "landuse": "cemetery",
    "religion": "christian"
  }
},
{
  "type": "way",
  "id": 42507016,
  "center": {
    "lat": 50.1317121,
    "lon": 11.5366028
  },
  "nodes": [
    530789940,
    530789942,
    530789946,
    530789948,
    530789949,
    530789951,
    530789953,
    530789954,
    530789956,
    530789957,
    530789958,
    530789960,
    530789961,
    530789963,
    530789964,
    530789966,
    530789967,
    530789969,
    5792473997,
    530789970,
    5792473998,
    530789971,
    530789973,
    530789974,
    530789940
  ],
  "tags": {
    "landuse": "cemetery"
  }
},
{
  "type": "way",
  "id": 42556652,
  "center": {
    "lat": 50.1256181,
    "lon": 11.5619664
  },
  "nodes": [
    531412959,
    531412960,
    531412964,
    531412972,
    531412975,
    531412983,
    531412988,
    531412959
  ],
  "tags": {
    "landuse": "cemetery"
  }
},
{
  "type": "way",
  "id": 42651191,
  "center": {
    "lat": 50.1076074,
    "lon": 11.4047729
  },
  "nodes": [
    533443300,
    533443304,
    533443309,
    533443312,
    533443317,
    533443322,
    533443327,
    533443330,
    533443335,
    533443340,
    533443351,
    533443355,
    533443384,
    533443389,
    533443300
  ],
  "tags": {
    "amenity": "grave_yard",
    "name": "Burghaiger Friedhof"
  }
},
{
  "type": "way",
  "id": 43297063,
  "center": {
    "lat": 50.1243246,
    "lon": 11.2519798
  },
  "nodes": [
    537528479,
    544027858,
    544027863,
    544027866,
    544027870,
    5489550973,
    5489550974,
    5489550984,
    5489550983,
    544027872,
    5489550975,
    5489550982,
    544027877,
    544027633,
    544027880,
    5489551011,
    5489551012,
    5489550981,
    5489551013,
    544027882,
    544027889,
    5489550972,
    5489550971,
    544027892,
    5489550970,
    544027893,
    544027899,
    537528484,
    537528482,
    544027910,
    537528480,
    537528479
  ],
  "tags": {
    "denomination": "roman_catholic",
    "landuse": "cemetery",
    "religion": "christian"
  }
},
{
  "type": "way",
  "id": 43500587,
  "center": {
    "lat": 50.1183715,
    "lon": 11.3879624
  },
  "nodes": [
    549173961,
    549174064,
    549174158,
    8705074714,
    549173961
  ],
  "tags": {
    "amenity": "grave_yard"
  }
},
{
  "type": "way",
  "id": 43541256,
  "center": {
    "lat": 50.0943014,
    "lon": 11.3590948
  },
  "nodes": [
    549717532,
    549717536,
    549717538,
    549717539,
    549717540,
    549717542,
    549717545,
    549717546,
    549717532
  ],
  "tags": {
    "landuse": "cemetery"
  }
},
{
  "type": "way",
  "id": 43546913,
  "center": {
    "lat": 50.0966363,
    "lon": 11.3784603
  },
  "nodes": [
    549772369,
    549772373,
    549772376,
    549772377,
    549772378,
    549772379,
    549772380,
    549772382,
    549772383,
    549772384,
    549772385,
    549772386,
    549772387,
    549772388,
    549772391,
    549772393,
    549772396,
    549772397,
    549772398,
    549772399,
    549772400,
    549772401,
    549772404,
    549772369
  ],
  "tags": {
    "barrier": "city_wall",
    "denomination": "protestant",
    "height": "1",
    "landuse": "cemetery",
    "material": "stone",
    "name": "Friedhof",
    "religion": "christian"
  }
},
{
  "type": "way",
  "id": 43686471,
  "center": {
    "lat": 50.1095924,
    "lon": 11.3578732
  },
  "nodes": [
    9174140447,
    9174140438,
    9174140448,
    9174140445,
    9174140443,
    9174140444,
    9174140446,
    8409499654,
    552881826,
    552881827,
    9174140440,
    9174140441,
    552881832,
    552881837,
    552881839,
    9174140442,
    9174140447
  ],
  "tags": {
    "landuse": "cemetery",
    "wheelchair": "limited"
  }
},
{
  "type": "way",
  "id": 43936215,
  "center": {
    "lat": 50.0396968,
    "lon": 11.4189254
  },
  "nodes": [
    558735823,
    558735824,
    558735825,
    558735826,
    558735827,
    558735828,
    558735829,
    558735830,
    558735823
  ],
  "tags": {
    "landuse": "cemetery"
  }
},
{
  "type": "way",
  "id": 43991773,
  "center": {
    "lat": 50.1674590,
    "lon": 11.1671650
  },
  "nodes": [
    559388562,
    1741767152,
    559388564,
    1741767156,
    1741767157,
    1741767158,
    559388566,
    3726103030,
    3726103035,
    3726103033,
    3726103029,
    559388567,
    559388568,
    559388562
  ],
  "tags": {
    "amenity": "grave_yard"
  }
},
{
  "type": "way",
  "id": 44129808,
  "center": {
    "lat": 50.1627325,
    "lon": 11.0728670
  },
  "nodes": [
    560720183,
    2598493106,
    560720184,
    2597347041,
    560720185,
    2597347039,
    9137398333,
    9137398334,
    560720186,
    560720187,
    560720189,
    560720183
  ],
  "tags": {
    "landuse": "cemetery"
  }
},
{
  "type": "way",
  "id": 44449016,
  "center": {
    "lat": 50.9919973,
    "lon": 11.5954764
  },
  "nodes": [
    564926420,
    564926421,
    564926422,
    564926423,
    564926420
  ],
  "tags": {
    "landuse": "cemetery"
  }
},
{
  "type": "way",
  "id": 44884519,
  "center": {
    "lat": 50.0278577,
    "lon": 11.3044144
  },
  "nodes": [
    569044954,
    569044956,
    569044957,
    569044959,
    6631456879,
    6632851118,
    569044960,
    569044961,
    569044962,
    6640504687,
    6640504686,
    569044954
  ],
  "tags": {
    "landuse": "cemetery"
  }
},
{
  "type": "way",
  "id": 44886752,
  "center": {
    "lat": 50.0389960,
    "lon": 11.3550578
  },
  "nodes": [
    569078206,
    569078207,
    6383424001,
    569078208,
    569078214,
    569078215,
    569078216,
    569078218,
    569078222,
    569078223,
    569078206
  ],
  "tags": {
    "landuse": "cemetery"
  }
},
{
  "type": "way",
  "id": 45845637,
  "center": {
    "lat": 50.1076807,
    "lon": 11.1632063
  },
  "nodes": [
    583475282,
    583475283,
    583475284,
    583475285,
    583475286,
    583475287,
    583475288,
    583475282
  ],
  "tags": {
    "denomination": "roman_catholic",
    "landuse": "cemetery",
    "religion": "christian",
    "source": "Yahoo"
  }
},
{
  "type": "way",
  "id": 46770218,
  "center": {
    "lat": 50.5012569,
    "lon": 11.1537527
  },
  "nodes": [
    597693478,
    597693480,
    597693481,
    597693482,
    597693478
  ],
  "tags": {
    "landuse": "cemetery",
    "wikidata": "Q113551345"
  }
},
{
  "type": "way",
  "id": 46984061,
  "center": {
    "lat": 50.8599340,
    "lon": 11.8921388
  },
  "nodes": [
    599516649,
    599516650,
    599516648,
    290090248,
    599516652,
    599516649
  ],
  "tags": {
    "barrier": "fence",
    "landuse": "cemetery",
    "name": "Friedhof Sankt Gangloff"
  }
},
{
  "type": "way",
  "id": 47658829,
  "center": {
    "lat": 50.0024848,
    "lon": 11.1996052
  },
  "nodes": [
    343461669,
    343461671,
    606355783,
    606355784,
    606355785,
    12582308174,
    12582308175,
    12582308176,
    12582308177,
    12582308178,
    12582308179,
    343461667,
    343461669
  ],
  "tags": {
    "landuse": "cemetery",
    "source": "Yahoo"
  }
},
{
  "type": "way",
  "id": 49178745,
  "center": {
    "lat": 50.3317519,
    "lon": 11.7034249
  },
  "nodes": [
    623862496,
    668951596,
    623862497,
    623862498,
    623862499,
    623862496
  ],
  "tags": {
    "landuse": "cemetery",
    "name": "Friedhof Naila",
    "wikidata": "Q116582746"
  }
},
{
  "type": "way",
  "id": 51490156,
  "center": {
    "lat": 50.2664688,
    "lon": 11.8471089
  },
  "nodes": [
    657999567,
    658015800,
    664194459,
    657999585,
    657999586,
    657999588,
    664194480,
    657999604,
    657999606,
    657999616,
    657999615,
    2478185606,
    2478185616,
    2478185624,
    2478185637,
    657999657,
    657999639,
    657999638,
    657999628,
    683843123,
    683850321,
    657999567
  ],
  "tags": {
    "area": "yes",
    "landuse": "cemetery",
    "name": "Friedhof Konradsreuth"
  }
},
{
  "type": "way",
  "id": 52810729,
  "center": {
    "lat": 50.3537412,
    "lon": 11.5962428
  },
  "nodes": [
    669817423,
    669817425,
    669817428,
    669817430,
    669817433,
    669817436,
    669817440,
    669817427,
    669817423
  ],
  "tags": {
    "landuse": "cemetery"
  }
},
{
  "type": "way",
  "id": 53236174,
  "center": {
    "lat": 50.3572898,
    "lon": 11.6890518
  },
  "nodes": [
    673708429,
    673708427,
    673708423,
    2930773674,
    673708425,
    2465170314,
    673708429
  ],
  "tags": {
    "landuse": "cemetery"
  }
},
{
  "type": "way",
  "id": 53753169,
  "center": {
    "lat": 50.4935192,
    "lon": 11.1127609
  },
  "nodes": [
    678564014,
    11200201623,
    678564015,
    678564016,
    678564017,
    678564014
  ],
  "tags": {
    "amenity": "grave_yard",
    "barrier": "fence",
    "name": "Waldfriedhof Glücksthal"
  }
},
{
  "type": "way",
  "id": 53815954,
  "center": {
    "lat": 50.9545087,
    "lon": 11.0717947
  },
  "nodes": [
    679386231,
    679386233,
    679386234,
    679386238,
    679386240,
    679386243,
    2060307845,
    679386231
  ],
  "tags": {
    "landuse": "cemetery",
    "name": "Friedhof Melchendorf",
    "website": "https://www.erfurt.de/ef/de/erleben/sehenswertes/friedhoefe/ortsteilfriedhof/108182.html"
  }
},
{
  "type": "way",
  "id": 53850885,
  "center": {
    "lat": 50.3567482,
    "lon": 11.2022018
  },
  "nodes": [
    679922823,
    955171766,
    10995894738,
    10995894739,
    679922825,
    679922827,
    2117846991,
    2117846992,
    1614271235,
    679922828,
    679922829,
    1432595716,
    1432595718,
    679922831,
    679922832,
    679922823
  ],
  "tags": {
    "landuse": "cemetery",
    "name": "Friedhof Köppelsdorf"
  }
},
{
  "type": "way",
  "id": 54201330,
  "center": {
    "lat": 50.9614664,
    "lon": 11.1756108
  },
  "nodes": [
    683596493,
    7090707356,
    683596490,
    683596496,
    683596497,
    683596493
  ],
  "tags": {
    "landuse": "cemetery",
    "name": "Friedhof"
  }
},
{
  "type": "way",
  "id": 54525191,
  "center": {
    "lat": 50.3409542,
    "lon": 11.2119758
  },
  "nodes": [
    686779886,
    686779888,
    686779891,
    686779896,
    686779901,
    686779886
  ],
  "tags": {
    "landuse": "cemetery"
  }
},
{
  "type": "way",
  "id": 54847173,
  "center": {
    "lat": 50.3980445,
    "lon": 11.2003428
  },
  "nodes": [
    690376286,
    2704028367,
    2704028371,
    690376287,
    690376288,
    690376290,
    690376286
  ],
  "tags": {
    "landuse": "cemetery",
    "name": "Friedhof Blechhammer"
  }
},
{
  "type": "way",
  "id": 55441433,
  "center": {
    "lat": 50.3183008,
    "lon": 11.2059549
  },
  "nodes": [
    696667354,
    696667359,
    696667369,
    696667346,
    696667373,
    696667354
  ],
  "tags": {
    "landuse": "cemetery",
    "wikidata": "Q136498214"
  }
},
{
  "type": "way",
  "id": 55888194,
  "center": {
    "lat": 50.9584967,
    "lon": 11.5740482
  },
  "nodes": [
    3218223944,
    1662316577,
    1662316576,
    300853683,
    701760318,
    269333189,
    3378598636,
    3218223939,
    3218223941,
    1661045746,
    3218223944
  ],
  "tags": {
    "landuse": "cemetery",
    "name": "Friedhof Closewitz",
    "operator": "Kommunalservice Jena"
  }
},
{
  "type": "way",
  "id": 56401703,
  "center": {
    "lat": 50.4950297,
    "lon": 11.5555568
  },
  "nodes": [
    707000337,
    707000341,
    707006143,
    707006131,
    707000337
  ],
  "tags": {
    "landuse": "cemetery"
  }
},
{
  "type": "way",
  "id": 60135710,
  "center": {
    "lat": 50.8298969,
    "lon": 11.9865071
  },
  "nodes": [
    747074032,
    747074033,
    747074034,
    747074039,
    747074049,
    747074051,
    747074056,
    747074061,
    747074063,
    747074067,
    747074073,
    747074076,
    747074078,
    747074032
  ],
  "tags": {
    "barrier": "wall",
    "landuse": "cemetery"
  }
},
{
  "type": "way",
  "id": 60139453,
  "center": {
    "lat": 50.8363914,
    "lon": 11.9983685
  },
  "nodes": [
    747111216,
    747111217,
    3373386704,
    747111218,
    747111219,
    747111220,
    747111221,
    3373386695,
    3373386492,
    3373386491,
    747111222,
    747111223,
    747111216
  ],
  "tags": {
    "barrier": "wall",
    "landuse": "cemetery",
    "wikidata": "Q136460121"
  }
},
{
  "type": "way",
  "id": 60142535,
  "center": {
    "lat": 50.8232580,
    "lon": 11.9354883
  },
  "nodes": [
    747145161,
    6018413173,
    6018413174,
    747145163,
    5746925830,
    6018413175,
    5746925831,
    747145396,
    747145399,
    6018413176,
    747145161
  ],
  "tags": {
    "landuse": "cemetery"
  }
},
{
  "type": "way",
  "id": 60353279,
  "center": {
    "lat": 50.9605828,
    "lon": 11.6161921
  },
  "nodes": [
    750738027,
    750738029,
    750738033,
    11371808300,
    11371808296,
    8220294613,
    750738036,
    750738027
  ],
  "tags": {
    "barrier": "fence",
    "landuse": "cemetery"
  }
},
{
  "type": "way",
  "id": 61214626,
  "center": {
    "lat": 50.6472103,
    "lon": 11.1925551
  },
  "nodes": [
    765201201,
    765201344,
    10733393943,
    765201266,
    765201280,
    765201201
  ],
  "tags": {
    "landuse": "cemetery",
    "wikidata": "Q113551570"
  }
},
{
  "type": "way",
  "id": 61592801,
  "center": {
    "lat": 50.4517510,
    "lon": 11.6990473
  },
  "nodes": [
    768163991,
    12409068992,
    768163985,
    768163994,
    768163982,
    768163991
  ],
  "tags": {
    "amenity": "grave_yard"
  }
},
{
  "type": "way",
  "id": 61789577,
  "center": {
    "lat": 50.1886107,
    "lon": 11.2776480
  },
  "nodes": [
    769889498,
    6911527024,
    769889501,
    769889503,
    5712190549,
    1040510751,
    8790072423,
    8790072422,
    769889506,
    769889498
  ],
  "tags": {
    "landuse": "cemetery",
    "name": "Friedhof Küps"
  }
},
{
  "type": "way",
  "id": 61792240,
  "center": {
    "lat": 50.2011481,
    "lon": 11.2516088
  },
  "nodes": [
    769893484,
    5875379145,
    769893485,
    769893486,
    5875379148,
    769893487,
    5875379149,
    769893488,
    5875379146,
    769893484
  ],
  "tags": {
    "landuse": "cemetery"
  }
},
{
  "type": "way",
  "id": 61840999,
  "center": {
    "lat": 50.1844391,
    "lon": 11.2612958
  },
  "nodes": [
    770531904,
    2165262273,
    770531907,
    770531910,
    770531912,
    2165262277,
    2165262276,
    2165262275,
    2165262274,
    770531915,
    770531904
  ],
  "tags": {
    "landuse": "cemetery",
    "name": "Friedhof Oberlangenstadt"
  }
},
{
  "type": "way",
  "id": 61889228,
  "center": {
    "lat": 50.2959809,
    "lon": 11.0302403
  },
  "nodes": [
    771286084,
    767867903,
    771286088,
    767867905,
    1407192177,
    771286091,
    771286093,
    1407153194,
    771286095,
    1407153028,
    1407153027,
    1407153025,
    1407153023,
    1407153021,
    771286097,
    771286099,
    771286101,
    771286084
  ],
  "tags": {
    "landuse": "cemetery"
  }
},
{
  "type": "way",
  "id": 66860591,
  "center": {
    "lat": 50.6588609,
    "lon": 11.0248314
  },
  "nodes": [
    807892714,
    807893037,
    3689094010,
    807893168,
    807893095,
    3889653254,
    3889653255,
    807892714
  ],
  "tags": {
    "landuse": "cemetery",
    "wikidata": "Q117306814"
  }
},
{
  "type": "way",
  "id": 69770592,
  "center": {
    "lat": 50.9948294,
    "lon": 11.3598633
  },
  "nodes": [
    834595983,
    834595984,
    3931686962,
    5534199545,
    8194407704,
    5534199540,
    834595985,
    834595987,
    834595988,
    8194407667,
    834595989,
    791166279,
    834595983
  ],
  "tags": {
    "landuse": "cemetery",
    "name": "Friedhof Tiefurt",
    "wikidata": "Q136160655"
  }
},
{
  "type": "way",
  "id": 71018072,
  "center": {
    "lat": 50.9707868,
    "lon": 11.6703533
  },
  "nodes": [
    846184884,
    846184887,
    846184888,
    846184889,
    846184884
  ],
  "tags": {
    "barrier": "hedge",
    "landuse": "cemetery",
    "leaf_cycle": "deciduous",
    "leaf_type": "broadleaved"
  }
},
{
  "type": "way",
  "id": 71378368,
  "center": {
    "lat": 50.0141142,
    "lon": 11.6884691
  },
  "nodes": [
    849361921,
    849361922,
    849361924,
    3565013035,
    849361925,
    849361927,
    1194737384,
    849361932,
    849361933,
    8533494084,
    848507913,
    848507912,
    849361921
  ],
  "tags": {
    "landuse": "cemetery"
  }
},
{
  "type": "way",
  "id": 72882843,
  "center": {
    "lat": 50.4394255,
    "lon": 11.3707206
  },
  "nodes": [
    865005103,
    865005034,
    865005072,
    865004998,
    865004857,
    865005103
  ],
  "tags": {
    "amenity": "grave_yard",
    "denomination": "catholic",
    "religion": "christian"
  }
},
{
  "type": "way",
  "id": 73590385,
  "center": {
    "lat": 50.4047647,
    "lon": 11.6974241
  },
  "nodes": [
    11521184903,
    870293860,
    870293302,
    870292696,
    870292681,
    11521184903
  ],
  "tags": {
    "denomination": "catholic",
    "landuse": "cemetery",
    "name": "Friedhof Blankenstein",
    "religion": "christian",
    "wikidata": "Q111842106"
  }
},
{
  "type": "way",
  "id": 74327394,
  "center": {
    "lat": 50.6694083,
    "lon": 11.5775549
  },
  "nodes": [
    878630861,
    878630867,
    878630863,
    878630847,
    878630852,
    878630861
  ],
  "tags": {
    "barrier": "wall",
    "landuse": "cemetery",
    "religion": "christian"
  }
},
{
  "type": "way",
  "id": 76286130,
  "center": {
    "lat": 50.3630727,
    "lon": 11.1809854
  },
  "nodes": [
    899909995,
    2134884341,
    899909997,
    2134884314,
    899909999,
    899910006,
    899910007,
    899910009,
    899910010,
    899910012,
    899910013,
    899910014,
    1713162785,
    899910015,
    1188305616,
    899910022,
    899910023,
    899910025,
    899909995
  ],
  "tags": {
    "landuse": "cemetery"
  }
},
{
  "type": "way",
  "id": 77765196,
  "center": {
    "lat": 50.0769736,
    "lon": 11.3240992
  },
  "nodes": [
    914501129,
    931480761,
    914501131,
    931481857,
    931481858,
    914501135,
    914501139,
    3097793759,
    914501129
  ],
  "tags": {
    "landuse": "cemetery"
  }
},
{
  "type": "way",
  "id": 79045838,
  "center": {
    "lat": 50.0670160,
    "lon": 11.2907926
  },
  "nodes": [
    339095693,
    923950560,
    923950561,
    923950562,
    10910826873,
    339095693
  ],
  "tags": {
    "landuse": "cemetery",
    "name": "Friedhof Görau"
  }
},
{
  "type": "way",
  "id": 79487669,
  "center": {
    "lat": 50.8644752,
    "lon": 11.3448531
  },
  "nodes": [
    3565584162,
    927940688,
    11834443349,
    11834443350,
    11834443351,
    11834443352,
    927940693,
    927940703,
    3565584163,
    3565584162
  ],
  "tags": {
    "landuse": "cemetery"
  }
},
{
  "type": "way",
  "id": 81031519,
  "center": {
    "lat": 50.3490591,
    "lon": 11.1394739
  },
  "nodes": [
    944576789,
    944576790,
    944576791,
    9319477512,
    944576792,
    860243407,
    944576789
  ],
  "tags": {
    "barrier": "hedge",
    "height": "1",
    "landuse": "cemetery",
    "wikidata": "Q136288526"
  }
},
{
  "type": "way",
  "id": 82312350,
  "center": {
    "lat": 50.2881712,
    "lon": 11.2652709
  },
  "nodes": [
    958667284,
    958667286,
    958667287,
    958667288,
    958667284
  ],
  "tags": {
    "landuse": "cemetery"
  }
},
{
  "type": "way",
  "id": 83530208,
  "center": {
    "lat": 50.2890472,
    "lon": 11.2859128
  },
  "nodes": [
    972640480,
    972640481,
    972640483,
    972640484,
    972640486,
    972640490,
    972640497,
    972640498,
    972640499,
    972640500,
    972640502,
    972640503,
    972640504,
    972640507,
    972640508,
    972640510,
    972640512,
    972640513,
    972640517,
    972640518,
    972640520,
    972640522,
    972640525,
    972640527,
    972640529,
    972640480
  ],
  "tags": {
    "landuse": "cemetery",
    "name": "Friedhof Haßlach"
  }
},
{
  "type": "way",
  "id": 84588527,
  "center": {
    "lat": 50.1432645,
    "lon": 11.3312263
  },
  "nodes": [
    982746712,
    982746721,
    982746736,
    9165315317,
    982746746,
    982746712
  ],
  "tags": {
    "landuse": "cemetery"
  }
},
{
  "type": "way",
  "id": 87036357,
  "center": {
    "lat": 50.1902141,
    "lon": 11.2401638
  },
  "nodes": [
    1012373591,
    1012373593,
    1012373595,
    1012373597,
    1012373591
  ],
  "tags": {
    "landuse": "cemetery"
  }
},
{
  "type": "way",
  "id": 87790008,
  "center": {
    "lat": 50.3054015,
    "lon": 11.1526229
  },
  "nodes": [
    1020661883,
    1020662058,
    1048952262,
    1020661611,
    1020661530,
    1020662474,
    1020661883
  ],
  "tags": {
    "barrier": "hedge",
    "landuse": "cemetery"
  }
},
{
  "type": "way",
  "id": 88265688,
  "center": {
    "lat": 50.1279959,
    "lon": 11.9973658
  },
  "nodes": [
    1025333057,
    12390182099,
    12390069648,
    12390069647,
    12390069641,
    12390069640,
    12390069616,
    12390069615,
    12390069629,
    12390069628,
    12390069631,
    1025333056,
    1025333055,
    12389990873,
    2046955145,
    5028951420,
    5028952021,
    5028951419,
    1025333058,
    1025333057
  ],
  "tags": {
    "landuse": "cemetery",
    "name": "Friedhof Marktleuthen",
    "source": "Bing",
    "wikidata": "Q41396664",
    "wikimedia_commons": "Category:Friedhof Marktleuthen"
  }
},
{
  "type": "way",
  "id": 88562793,
  "center": {
    "lat": 50.7476242,
    "lon": 11.2153665
  },
  "nodes": [
    1028575991,
    1028575841,
    1028576001,
    1028575836,
    1028575991
  ],
  "tags": {
    "amenity": "grave_yard",
    "denomination": "protestant",
    "religion": "christian"
  }
},
{
  "type": "way",
  "id": 89531501,
  "center": {
    "lat": 50.2012957,
    "lon": 11.3424691
  },
  "nodes": [
    1037963477,
    1037963149,
    1037962948,
    1037963404,
    295134755,
    1037963189,
    1037963155,
    1037963477
  ],
  "tags": {
    "landuse": "cemetery"
  }
},
{
  "type": "way",
  "id": 89781563,
  "center": {
    "lat": 50.2047691,
    "lon": 11.3064430
  },
  "nodes": [
    1040512599,
    9181356162,
    1040511051,
    1040511243,
    1040511322,
    1040510456,
    1040512599
  ],
  "tags": {
    "landuse": "cemetery",
    "name": "Friedhof Hummendorf"
  }
},
{
  "type": "way",
  "id": 90765425,
  "center": {
    "lat": 50.2059603,
    "lon": 11.3170570
  },
  "nodes": [
    1053653567,
    1053654432,
    1053653440,
    1053653176,
    1053652919,
    472272824,
    1053653263,
    1053653567
  ],
  "tags": {
    "landuse": "cemetery"
  }
},
{
  "type": "way",
  "id": 90894662,
  "center": {
    "lat": 50.6524273,
    "lon": 11.2406776
  },
  "nodes": [
    1055391465,
    12167603989,
    12167603988,
    1055391473,
    12167603996,
    1055391465
  ],
  "tags": {
    "landuse": "cemetery"
  }
},
{
  "type": "way",
  "id": 91367577,
  "center": {
    "lat": 50.7119667,
    "lon": 11.6259927
  },
  "nodes": [
    323196926,
    1175125196,
    1175125266,
    1175125045,
    1175124983,
    1175124888,
    1747593904,
    323196929,
    323196926
  ],
  "tags": {
    "landuse": "cemetery"
  }
},
{
  "type": "way",
  "id": 91647805,
  "center": {
    "lat": 50.6559744,
    "lon": 11.1564000
  },
  "nodes": [
    1060312434,
    1064743528,
    3265986278,
    1060312509,
    1064743524,
    1064743512,
    1064743510,
    1064743513,
    1060312434
  ],
  "tags": {
    "landuse": "cemetery"
  }
},
{
  "type": "way",
  "id": 93061699,
  "center": {
    "lat": 50.2480523,
    "lon": 11.2140906
  },
  "nodes": [
    1078687898,
    1078687901,
    1078687899,
    3089392788,
    1078687896,
    1078687894,
    1078687905,
    1078687898
  ],
  "tags": {
    "amenity": "grave_yard",
    "name": "Friedhof Markt Mitwitz"
  }
},
{
  "type": "way",
  "id": 93211924,
  "center": {
    "lat": 50.3405141,
    "lon": 11.0577834
  },
  "nodes": [
    1080545908,
    1080545718,
    1080545488,
    1080545451,
    1080545284,
    2273783521,
    1080545908
  ],
  "tags": {
    "amenity": "grave_yard"
  }
},
{
  "type": "way",
  "id": 95976618,
  "center": {
    "lat": 50.3730202,
    "lon": 11.7800301
  },
  "nodes": [
    1112011584,
    2936111530,
    2936111529,
    1112011600,
    1112011587,
    1112011584
  ],
  "tags": {
    "amenity": "grave_yard",
    "landuse": "cemetery",
    "name": "Friedhof Berg"
  }
},
{
  "type": "way",
  "id": 96510138,
  "center": {
    "lat": 50.0745593,
    "lon": 11.6784410
  },
  "nodes": [
    1118103554,
    1118103496,
    1118103425,
    1118103645,
    1128500602,
    1118103554
  ],
  "tags": {
    "landuse": "cemetery",
    "name": "Friedhof",
    "source": "Bingsat"
  }
},
{
  "type": "way",
  "id": 96728432,
  "center": {
    "lat": 50.0657314,
    "lon": 11.6940623
  },
  "nodes": [
    1120161972,
    1120161953,
    3222925872,
    1120161958,
    1120161956,
    1120161972
  ],
  "tags": {
    "landuse": "cemetery",
    "name": "Friedhof Stein"
  }
},
{
  "type": "way",
  "id": 97152736,
  "center": {
    "lat": 50.9554731,
    "lon": 11.6356615
  },
  "nodes": [
    1125385656,
    2284537062,
    2284537049,
    10992522846,
    1125385702,
    1125385592,
    1125385558,
    1125385636,
    2284537057,
    1125385612,
    1125385680,
    2284537066,
    1125385652,
    12895598619,
    1125385724,
    2284537053,
    2284537044,
    1125385656
  ],
  "tags": {
    "landuse": "cemetery",
    "name": "St. Martinskirche",
    "religion": "christian"
  }
},
{
  "type": "way",
  "id": 98428624,
  "center": {
    "lat": 50.9339926,
    "lon": 11.2974538
  },
  "nodes": [
    1138871285,
    1138872794,
    1138872137,
    1138871992,
    1138871285
  ],
  "tags": {
    "denomination": "lutheran",
    "landuse": "cemetery",
    "name": "Friedhof Legefeld",
    "religion": "christian"
  }
},
{
  "type": "way",
  "id": 98773501,
  "center": {
    "lat": 50.6627818,
    "lon": 11.4217824
  },
  "nodes": [
    1142737634,
    1142737638,
    1142737643,
    1142737646,
    1142737653,
    1142737634
  ],
  "tags": {
    "landuse": "cemetery",
    "wikidata": "Q136426202"
  }
},
{
  "type": "way",
  "id": 98893789,
  "center": {
    "lat": 50.5449602,
    "lon": 11.9308973
  },
  "nodes": [
    1144097781,
    1144097754,
    1144097768,
    1144097740,
    1144097747,
    1144097781
  ],
  "tags": {
    "landuse": "cemetery"
  }
},
{
  "type": "way",
  "id": 101516902,
  "center": {
    "lat": 50.3717524,
    "lon": 11.5202675
  },
  "nodes": [
    1172185139,
    1172185144,
    1172185146,
    1172185141,
    1172185145,
    1172185148,
    1172185139
  ],
  "tags": {
    "amenity": "grave_yard",
    "denomination": "protestant",
    "religion": "christian"
  }
},
{
  "type": "way",
  "id": 101802453,
  "center": {
    "lat": 50.7104496,
    "lon": 11.6308683
  },
  "nodes": [
    1038505038,
    1038505054,
    1038505001,
    1038504980,
    1038505017,
    1038504970,
    1038505003,
    1038505062,
    1038504975,
    1038505031,
    1038505065,
    1038505022,
    1038505056,
    1038505006,
    1038505047,
    1038504994,
    1038505015,
    1038504969,
    1038505029,
    1038505002,
    1038505061,
    1038504990,
    1038505049,
    1038504986,
    1059834040,
    1069566368,
    1059833920,
    1038505038
  ],
  "tags": {
    "landuse": "cemetery"
  }
},
{
  "type": "way",
  "id": 102030461,
  "center": {
    "lat": 50.9502504,
    "lon": 11.3033989
  },
  "nodes": [
    1177971952,
    1177972969,
    1177970801,
    2282968783,
    2282968794,
    1177972624,
    1177971952
  ],
  "tags": {
    "barrier": "hedge",
    "landuse": "cemetery",
    "name": "Friedhof Gelmeroda"
  }
},
{
  "type": "way",
  "id": 102638585,
  "center": {
    "lat": 50.3660066,
    "lon": 11.1401974
  },
  "nodes": [
    2132530788,
    1213689590,
    1185359544,
    1185359545,
    1185359546,
    2132530788
  ],
  "tags": {
    "landuse": "cemetery"
  }
},
{
  "type": "way",
  "id": 102638586,
  "center": {
    "lat": 50.2891187,
    "lon": 11.1522840
  },
  "nodes": [
    1185359552,
    1185359554,
    1185359557,
    1185359560,
    1185359562,
    1185359564,
    1185359565,
    1185359568,
    1185359552
  ],
  "tags": {
    "landuse": "cemetery",
    "wikidata": "Q136498398"
  }
},
{
  "type": "way",
  "id": 102694285,
  "center": {
    "lat": 50.3737596,
    "lon": 11.1901302
  },
  "nodes": [
    1186065852,
    1212708952,
    1186065855,
    1186065859,
    2142016042,
    1186065865,
    2142016043,
    1186065852
  ],
  "tags": {
    "landuse": "cemetery",
    "wikidata": "Q136169938"
  }
},
{
  "type": "way",
  "id": 102906002,
  "center": {
    "lat": 50.3636482,
    "lon": 11.1823135
  },
  "nodes": [
    899910044,
    1188305746,
    1188305749,
    1188305752,
    1188305755,
    1641731064,
    1641731066,
    2134884176,
    1641731068,
    1188305765,
    1713162812,
    899910033,
    899910035,
    899910037,
    899910043,
    899910044
  ],
  "tags": {
    "landuse": "cemetery",
    "wikidata": "Q113551777"
  }
},
{
  "type": "way",
  "id": 103434151,
  "center": {
    "lat": 50.3920051,
    "lon": 11.2199365
  },
  "nodes": [
    1194334085,
    2856350316,
    1194334086,
    1433151820,
    2856350315,
    1194334093,
    1194334097,
    1194334099,
    1194334085
  ],
  "tags": {
    "landuse": "cemetery",
    "name:signed": "no",
    "wikidata": "Q136498508"
  }
},
{
  "type": "way",
  "id": 103812632,
  "center": {
    "lat": 50.3443198,
    "lon": 11.2033738
  },
  "nodes": [
    1198399610,
    1186604771,
    1186604767,
    1198399606,
    1198399610
  ],
  "tags": {
    "landuse": "cemetery"
  }
},
{
  "type": "way",
  "id": 103926009,
  "center": {
    "lat": 50.3600145,
    "lon": 11.2129597
  },
  "nodes": [
    1199538675,
    1199538677,
    1199538680,
    1199538681,
    2709143314,
    1199538683,
    1199538684,
    1199538686,
    1199538688,
    1199538675
  ],
  "tags": {
    "landuse": "cemetery"
  }
},
{
  "type": "way",
  "id": 104250978,
  "center": {
    "lat": 50.3415941,
    "lon": 11.2265843
  },
  "nodes": [
    1039577225,
    1203028833,
    1203028834,
    1203028835,
    1203028836,
    1203028837,
    1039577714,
    1039577225
  ],
  "tags": {
    "landuse": "cemetery"
  }
},
{
  "type": "way",
  "id": 104313131,
  "center": {
    "lat": 50.3583757,
    "lon": 11.1063704
  },
  "nodes": [
    1203655196,
    1203655198,
    1203655200,
    1203655201,
    1203655203,
    1203655196
  ],
  "tags": {
    "landuse": "cemetery"
  }
},
{
  "type": "way",
  "id": 105631240,
  "center": {
    "lat": 50.3906379,
    "lon": 11.0097133
  },
  "nodes": [
    1216423499,
    1216423624,
    1216424487,
    1216423293,
    1216424205,
    1216423233,
    1216423945,
    1216424696,
    1216423431,
    1216424244,
    1216423146,
    1216423402,
    1216424183,
    1216424880,
    1216423499
  ],
  "tags": {
    "landuse": "cemetery"
  }
},
{
  "type": "way",
  "id": 106360854,
  "center": {
    "lat": 50.0135803,
    "lon": 11.6257277
  },
  "nodes": [
    1223969312,
    1223968038,
    1223969089,
    1223968691,
    1223968364,
    1223967836,
    1223969312
  ],
  "tags": {
    "denomination": "protestant",
    "landuse": "cemetery",
    "name": "Friedhof Benk",
    "religion": "christian"
  }
},
{
  "type": "way",
  "id": 108589014,
  "center": {
    "lat": 50.3823318,
    "lon": 11.1128421
  },
  "nodes": [
    1245534977,
    1245534978,
    1245534979,
    1245534980,
    1245534981,
    1245534982,
    1245534983,
    1245534977
  ],
  "tags": {
    "landuse": "cemetery"
  }
},
{
  "type": "way",
  "id": 109469797,
  "center": {
    "lat": 50.9783320,
    "lon": 11.4141568
  },
  "nodes": [
    1253157986,
    1253157895,
    3245936787,
    1253158149,
    1253158481,
    1253157986
  ],
  "tags": {
    "landuse": "cemetery"
  }
},
{
  "type": "way",
  "id": 109744054,
  "center": {
    "lat": 50.1989296,
    "lon": 11.6544819
  },
  "nodes": [
    3053356372,
    1255474029,
    3053356371,
    3053356368,
    3053356366,
    3053356372
  ],
  "tags": {
    "landuse": "cemetery"
  }
},
{
  "type": "way",
  "id": 109780453,
  "center": {
    "lat": 50.8380448,
    "lon": 11.1761004
  },
  "nodes": [
    1255781603,
    1255781580,
    1255781605,
    1255781606,
    1255781608,
    1255781603
  ],
  "tags": {
    "landuse": "cemetery",
    "name": "Friedhof Stedten"
  }
},
{
  "type": "way",
  "id": 109787259,
  "center": {
    "lat": 50.7094304,
    "lon": 11.2880034
  },
  "nodes": [
    339297552,
    1255815969,
    1255815283,
    1255815825,
    1255815669,
    339297551,
    339297552
  ],
  "tags": {
    "barrier": "fence",
    "landuse": "cemetery"
  }
},
{
  "type": "way",
  "id": 109887590,
  "center": {
    "lat": 50.8840041,
    "lon": 11.4442981
  },
  "nodes": [
    1256890968,
    1256890874,
    1256890908,
    1256890870,
    1256890968
  ],
  "tags": {
    "amenity": "grave_yard",
    "name": "Friedhof Niedersynderstedt"
  }
},
{
  "type": "way",
  "id": 109997989,
  "center": {
    "lat": 50.7006842,
    "lon": 11.2960932
  },
  "nodes": [
    1257821597,
    1257821577,
    1257821598,
    1777054320,
    1018796345,
    1018796488,
    1018796411,
    1018796307,
    1018796682,
    1777054321,
    1257821583,
    1257821590,
    1257821597
  ],
  "tags": {
    "amenity": "grave_yard",
    "barrier": "hedge"
  }
},
{
  "type": "way",
  "id": 110297997,
  "center": {
    "lat": 50.2857084,
    "lon": 11.3182748
  },
  "nodes": [
    1259963698,
    1259963696,
    11800077750,
    1259963701,
    1259963700,
    1259963698
  ],
  "tags": {
    "landuse": "cemetery"
  }
},
{
  "type": "way",
  "id": 110942111,
  "center": {
    "lat": 50.8294590,
    "lon": 11.1750894
  },
  "nodes": [
    5707535763,
    1265055368,
    1586231890,
    1265055356,
    5707535761,
    5707606883,
    5707535762,
    5707535763
  ],
  "tags": {
    "landuse": "cemetery",
    "name": "Friedhof Barchfeld"
  }
},
{
  "type": "way",
  "id": 110998844,
  "center": {
    "lat": 50.3700638,
    "lon": 11.0149503
  },
  "nodes": [
    1265759487,
    1265759497,
    1265759505,
    1265759513,
    1265759518,
    1265759487
  ],
  "tags": {
    "amenity": "grave_yard"
  }
},
{
  "type": "way",
  "id": 112413384,
  "center": {
    "lat": 50.4353371,
    "lon": 11.4684524
  },
  "nodes": [
    1277743875,
    317774729,
    1277743809,
    1277743782,
    1277743853,
    1277743875
  ],
  "tags": {
    "landuse": "cemetery"
  }
},
{
  "type": "way",
  "id": 112465063,
  "center": {
    "lat": 50.6591881,
    "lon": 11.3573848
  },
  "nodes": [
    1278183411,
    1278183414,
    1278183410,
    1278183413,
    1278183412,
    1278183415,
    1278183411
  ],
  "tags": {
    "landuse": "cemetery"
  }
},
{
  "type": "way",
  "id": 112946010,
  "center": {
    "lat": 50.5816799,
    "lon": 11.9923376
  },
  "nodes": [
    1282504603,
    5519266245,
    5519266246,
    5519266238,
    5519266239,
    5519266242,
    5519266241,
    5519266243,
    1282504603
  ],
  "tags": {
    "landuse": "cemetery"
  }
},
{
  "type": "way",
  "id": 114271501,
  "center": {
    "lat": 50.7689458,
    "lon": 11.4629214
  },
  "nodes": [
    1294823915,
    1294823984,
    1294823975,
    1294824098,
    1294824085,
    1294823915
  ],
  "tags": {
    "landuse": "cemetery"
  }
},
{
  "type": "way",
  "id": 116021336,
  "center": {
    "lat": 50.7130422,
    "lon": 11.2485479
  },
  "nodes": [
    1063803850,
    1309359774,
    1309359781,
    1063803805,
    1063803850
  ],
  "tags": {
    "amenity": "grave_yard",
    "religion": "christian"
  }
},
{
  "type": "way",
  "id": 116337654,
  "center": {
    "lat": 50.2917602,
    "lon": 11.7968541
  },
  "nodes": [
    1311731195,
    1311730872,
    12959362830,
    1311730900,
    1311731820,
    1311731413,
    1311731045,
    1311730801,
    1311731195
  ],
  "tags": {
    "barrier": "fence",
    "landuse": "cemetery"
  }
},
{
  "type": "way",
  "id": 116445846,
  "center": {
    "lat": 50.4926509,
    "lon": 11.1793857
  },
  "nodes": [
    1312757775,
    1312757777,
    1312757776,
    1312757774,
    1312757772,
    1312757773,
    1312757775
  ],
  "tags": {
    "denomination": "lutheran",
    "landuse": "cemetery",
    "name": "Friedhof Ernstthal",
    "religion": "christian"
  }
},
{
  "type": "way",
  "id": 117532024,
  "center": {
    "lat": 50.6826256,
    "lon": 11.7021170
  },
  "nodes": [
    1323920636,
    1323920654,
    1323920702,
    1323920663,
    1323920636
  ],
  "tags": {
    "landuse": "cemetery"
  }
},
{
  "type": "way",
  "id": 118184339,
  "center": {
    "lat": 50.9504842,
    "lon": 11.3482337
  },
  "nodes": [
    1329698360,
    8247300713,
    8247300691,
    1329698341,
    8247306250,
    1329698346,
    1329698328,
    1329698336,
    1329698382,
    1329698320,
    1329698385,
    1329698339,
    1329698366,
    1329698302,
    8247306226,
    8247306228,
    8247306227,
    1329698358,
    8247306230,
    8247306231,
    8247306229,
    1329698350,
    8247306241,
    8247306234,
    8247306235,
    8247306236,
    2021988471,
    1329698295,
    1329698345,
    8247306242,
    1329698389,
    8247306243,
    1329698348,
    1329698327,
    8247306244,
    8247306249,
    8247306245,
    8247306248,
    8247306246,
    1329698373,
    8247306247,
    1329698315,
    8247300692,
    1329698360
  ],
  "tags": {
    "landuse": "cemetery",
    "name": "Sowjetischer Friedhof",
    "source": "Bing",
    "wikidata": "Q1580492",
    "wikipedia": "de:Sowjetischer Friedhof im Schlosspark Belvedere"
  }
},
{
  "type": "way",
  "id": 118366525,
  "center": {
    "lat": 50.6608984,
    "lon": 11.5604736
  },
  "nodes": [
    1331219226,
    2036600704,
    2036600752,
    1331219229,
    1331219230,
    9908410341,
    9908410342,
    9908410343,
    1331219232,
    1331219231,
    1331219228,
    9908410331,
    1331219227,
    1330632228,
    1331219226
  ],
  "tags": {
    "barrier": "wall",
    "landuse": "cemetery"
  }
},
{
  "type": "way",
  "id": 118495138,
  "center": {
    "lat": 50.6453479,
    "lon": 11.5870321
  },
  "nodes": [
    1332643746,
    1332643743,
    1332643738,
    1332643737,
    1332643740,
    1332643746
  ],
  "tags": {
    "landuse": "cemetery"
  }
},
{
  "type": "way",
  "id": 118559059,
  "center": {
    "lat": 50.6592029,
    "lon": 11.5301041
  },
  "nodes": [
    1333269751,
    1333269747,
    1333269734,
    1675635177,
    2068660250,
    2068660238,
    1333269745,
    1333269751
  ],
  "tags": {
    "landuse": "cemetery"
  }
},
{
  "type": "way",
  "id": 118559060,
  "center": {
    "lat": 50.6570660,
    "lon": 11.5075889
  },
  "nodes": [
    1333269381,
    1665706465,
    1333269384,
    1333269413,
    1665706467,
    1333269408,
    1333269381
  ],
  "tags": {
    "landuse": "cemetery"
  }
},
{
  "type": "way",
  "id": 118559062,
  "center": {
    "lat": 50.6510081,
    "lon": 11.5334473
  },
  "nodes": [
    1333268944,
    1038349914,
    1038350170,
    1038350135,
    1038350108,
    1038350081,
    1038349974,
    1038350025,
    1333268913,
    1333268882,
    2063729156,
    2063729157,
    1333268906,
    1333268939,
    1333268944
  ],
  "tags": {
    "landuse": "cemetery"
  }
},
{
  "type": "way",
  "id": 118597450,
  "center": {
    "lat": 50.6702139,
    "lon": 11.5189067
  },
  "nodes": [
    1333605294,
    1333605284,
    1333605282,
    1333605291,
    1333605294
  ],
  "tags": {
    "landuse": "cemetery"
  }
},
{
  "type": "way",
  "id": 118629416,
  "center": {
    "lat": 50.6286902,
    "lon": 11.5475892
  },
  "nodes": [
    1333846525,
    1333846544,
    1333846521,
    1721954823,
    1333846500,
    1333846525
  ],
  "tags": {
    "landuse": "cemetery"
  }
},
{
  "type": "way",
  "id": 118696029,
  "center": {
    "lat": 50.6888940,
    "lon": 11.5871009
  },
  "nodes": [
    1330879085,
    1330879119,
    2145138404,
    2145138394,
    2145138382,
    2145138384,
    2145138359,
    1334401168,
    2145138231,
    1334401144,
    1334401137,
    1029889485,
    1330879085
  ],
  "tags": {
    "landuse": "cemetery",
    "name": "Oberer Friedhof"
  }
},
{
  "type": "way",
  "id": 118718168,
  "center": {
    "lat": 50.6944082,
    "lon": 11.5637882
  },
  "nodes": [
    1334602037,
    1334602033,
    1334602054,
    2266893652,
    1334602057,
    1334602076,
    1334602095,
    1334602105,
    2266893963,
    1894262744,
    1334602061,
    1334602052,
    1334602048,
    1334602037
  ],
  "tags": {
    "landuse": "cemetery",
    "wikidata": "Q113576652"
  }
},
{
  "type": "way",
  "id": 118722097,
  "center": {
    "lat": 50.6999951,
    "lon": 11.6088753
  },
  "nodes": [
    1334641171,
    1334641162,
    1334641185,
    2165773599,
    1334641196,
    1334641171
  ],
  "tags": {
    "landuse": "cemetery",
    "name": "Jüdeweiner Friedhof"
  }
},
{
  "type": "way",
  "id": 118753903,
  "center": {
    "lat": 50.6782933,
    "lon": 11.6018741
  },
  "nodes": [
    1334905038,
    1334905034,
    1334905030,
    2736187718,
    2736187727,
    1334905036,
    1334905038
  ],
  "tags": {
    "landuse": "cemetery"
  }
},
{
  "type": "way",
  "id": 119177146,
  "center": {
    "lat": 50.6210816,
    "lon": 11.5877120
  },
  "nodes": [
    1339782508,
    2191306745,
    2191306742,
    2191306738,
    1339782488,
    1339782480,
    2191306726,
    2191306725,
    2191306724,
    1339782469,
    2191306727,
    1339782474,
    2191306731,
    2191306736,
    2191306740,
    1339782490,
    2191306747,
    1339782508
  ],
  "tags": {
    "landuse": "cemetery"
  }
},
{
  "type": "way",
  "id": 119212346,
  "center": {
    "lat": 50.9749516,
    "lon": 11.3320564
  },
  "nodes": [
    1340049429,
    1340052291,
    1340049423,
    1340049425,
    1340049434,
    1340049431,
    1340049429
  ],
  "tags": {
    "barrier": "wall",
    "landuse": "cemetery",
    "name": "Sowjetischer Ehrenfriedhof",
    "wikidata": "Q2305043"
  }
},
{
  "type": "way",
  "id": 119392168,
  "center": {
    "lat": 50.6492794,
    "lon": 11.8627478
  },
  "nodes": [
    1341686998,
    10744426838,
    9532200273,
    10744426837,
    10744426836,
    10744426835,
    10744426834,
    10744426833,
    10744426832,
    10744426831,
    10744426830,
    10744426829,
    10744426828,
    10744426827,
    1341687015,
    1341687008,
    1341686998
  ],
  "tags": {
    "landuse": "cemetery"
  }
},
{
  "type": "way",
  "id": 119500277,
  "center": {
    "lat": 50.4263454,
    "lon": 11.4032905
  },
  "nodes": [
    1342558950,
    1342558936,
    1342558958,
    1342559014,
    1342559024,
    1342558939,
    1342558950
  ],
  "tags": {
    "landuse": "cemetery",
    "religion": "christian"
  }
},
{
  "type": "way",
  "id": 121498901,
  "center": {
    "lat": 50.1009060,
    "lon": 11.0924019
  },
  "nodes": [
    1359958768,
    1359958766,
    1359958767,
    1359958769,
    1359958770,
    1360363794,
    1359958773,
    1359958768
  ],
  "tags": {
    "denomination": "catholic",
    "landuse": "cemetery",
    "name": "Friedhof Oberlangheim",
    "religion": "christian"
  }
},
{
  "type": "way",
  "id": 121670749,
  "center": {
    "lat": 50.9151995,
    "lon": 11.1519280
  },
  "nodes": [
    1361291840,
    6366963789,
    6366963790,
    1361291839,
    1361291838,
    6366963788,
    1361291837,
    6354110547,
    1361291840
  ],
  "tags": {
    "landuse": "cemetery",
    "name": "Friedhof Klettbach"
  }
},
{
  "type": "way",
  "id": 121913689,
  "center": {
    "lat": 50.2989254,
    "lon": 11.6917592
  },
  "nodes": [
    1363568544,
    1363568539,
    1363568535,
    1363568546,
    1363568524,
    1363568532,
    1363568548,
    1363568526,
    1363568537,
    1363568544
  ],
  "tags": {
    "landuse": "cemetery"
  }
},
{
  "type": "way",
  "id": 122592570,
  "center": {
    "lat": 50.0960432,
    "lon": 11.7335252
  },
  "nodes": [
    1369446462,
    1369446472,
    1369446471,
    1369446468,
    1369446460,
    1369446459,
    1369446453,
    1369446458,
    1369446462
  ],
  "tags": {
    "amenity": "grave_yard"
  }
},
{
  "type": "way",
  "id": 123771142,
  "center": {
    "lat": 50.4643929,
    "lon": 11.0742311
  },
  "nodes": [
    1379225817,
    1379225811,
    1379225787,
    1379225815,
    1379225817
  ],
  "tags": {
    "landuse": "cemetery"
  }
},
{
  "type": "way",
  "id": 123792974,
  "center": {
    "lat": 50.6372699,
    "lon": 11.6609752
  },
  "nodes": [
    1379301274,
    1731751457,
    1379301280,
    2090102144,
    1379301281,
    1731751471,
    1379301279,
    1379301277,
    1379301274
  ],
  "tags": {
    "landuse": "cemetery"
  }
},
{
  "type": "way",
  "id": 124735611,
  "center": {
    "lat": 50.2202230,
    "lon": 11.3083164
  },
  "nodes": [
    1387428530,
    1387428490,
    1387428462,
    1387428526,
    1387428528,
    1387428529,
    1387428530
  ],
  "tags": {
    "landuse": "cemetery",
    "name": "Friedhof Neuses",
    "opening_hours": "Apr-Sep 07:00-20:00; Oct-Mar 08:00-16:00"
  }
},
{
  "type": "way",
  "id": 125509191,
  "center": {
    "lat": 50.4006075,
    "lon": 11.0913233
  },
  "nodes": [
    1393837766,
    1393837767,
    1393837768,
    1393837769,
    1393837766
  ],
  "tags": {
    "amenity": "grave_yard"
  }
},
{
  "type": "way",
  "id": 125520672,
  "center": {
    "lat": 50.9729023,
    "lon": 11.5363923
  },
  "nodes": [
    1393916510,
    1393916492,
    1393916463,
    1393916451,
    1393916446,
    1393916435,
    1393916428,
    1393916427,
    1393916433,
    1393916443,
    1393916453,
    1393916465,
    1393916471,
    1393916487,
    12312258905,
    1393916494,
    1393916498,
    12312241896,
    12312241897,
    12312241898,
    12312241899,
    1393916504,
    1393916510
  ],
  "tags": {
    "landuse": "cemetery"
  }
},
{
  "type": "way",
  "id": 125731413,
  "center": {
    "lat": 50.6403682,
    "lon": 11.3772536
  },
  "nodes": [
    1395815582,
    12243546320,
    12243546321,
    1395815549,
    1395815582
  ],
  "tags": {
    "landuse": "cemetery"
  }
},
{
  "type": "way",
  "id": 126053589,
  "center": {
    "lat": 50.0335049,
    "lon": 11.1254453
  },
  "nodes": [
    1398434147,
    1398415072,
    1398415030,
    1398415041,
    1398434133,
    1398415103,
    1398415120,
    1398434139,
    1398434136,
    1398434142,
    1398434147
  ],
  "tags": {
    "landuse": "cemetery"
  }
},
{
  "type": "way",
  "id": 126703019,
  "center": {
    "lat": 50.9449253,
    "lon": 11.9903386
  },
  "nodes": [
    1403868041,
    1403867892,
    1403868052,
    1403867901,
    1403868041
  ],
  "tags": {
    "landuse": "cemetery"
  }
},
{
  "type": "way",
  "id": 127428595,
  "center": {
    "lat": 50.1576479,
    "lon": 11.6374498
  },
  "nodes": [
    1410447963,
    1410447974,
    4347097826,
    1410447970,
    1410447963
  ],
  "tags": {
    "landuse": "cemetery"
  }
},
{
  "type": "way",
  "id": 127467822,
  "center": {
    "lat": 50.8279559,
    "lon": 11.8239646
  },
  "nodes": [
    1410724902,
    1410724912,
    1410724924,
    1410724906,
    1410724902
  ],
  "tags": {
    "landuse": "cemetery"
  }
},
{
  "type": "way",
  "id": 127467823,
  "center": {
    "lat": 50.8295847,
    "lon": 11.8299151
  },
  "nodes": [
    1410724995,
    1410724999,
    1410725000,
    1410724997,
    1410724992,
    1410724989,
    1410724990,
    1410724993,
    1410724995
  ],
  "tags": {
    "landuse": "cemetery"
  }
},
{
  "type": "way",
  "id": 127478800,
  "center": {
    "lat": 50.8291414,
    "lon": 11.7963947
  },
  "nodes": [
    1410855059,
    1410855054,
    1410855041,
    1410855024,
    1410855025,
    1410855015,
    1410855016,
    1410855009,
    9802277384,
    9802277383,
    9802277382,
    1410855019,
    1410855042,
    1410855059
  ],
  "tags": {
    "denomination": "protestant",
    "landuse": "cemetery",
    "name": "Lippersdorf",
    "religion": "christian"
  }
},
{
  "type": "way",
  "id": 128194710,
  "center": {
    "lat": 50.6718877,
    "lon": 11.6812096
  },
  "nodes": [
    1417152145,
    1417152133,
    1417152095,
    2367554771,
    2367554769,
    1417152100,
    1417152094,
    2367554770,
    1417152130,
    1417152165,
    2367554779,
    9327369144,
    2367554778,
    2367554774,
    2367554772,
    1417152145
  ],
  "tags": {
    "landuse": "cemetery"
  }
},
{
  "type": "way",
  "id": 128216840,
  "center": {
    "lat": 50.6874231,
    "lon": 11.6243040
  },
  "nodes": [
    1417418441,
    1417418439,
    5556608444,
    1417418438,
    12597734116,
    1417418435,
    1417418427,
    5556608443,
    5556608442,
    1417418416,
    1417418415,
    5556608441,
    1417418417,
    1417418422,
    12597734114,
    1417418428,
    1417418441
  ],
  "tags": {
    "landuse": "cemetery"
  }
},
{
  "type": "way",
  "id": 128216841,
  "center": {
    "lat": 50.6946722,
    "lon": 11.6798374
  },
  "nodes": [
    1417418928,
    1417418921,
    1417418904,
    1417418892,
    1417418882,
    1417418884,
    1417418880,
    1417418885,
    1417418893,
    1417418908,
    1417418928
  ],
  "tags": {
    "landuse": "cemetery"
  }
},
{
  "type": "way",
  "id": 128490460,
  "center": {
    "lat": 50.3089564,
    "lon": 11.2773692
  },
  "nodes": [
    6267040415,
    1419889752,
    1419889755,
    1419889754,
    1419889751,
    1419889756,
    6267040415
  ],
  "tags": {
    "landuse": "cemetery",
    "name": "Friedhof Stockheim"
  }
},
{
  "type": "way",
  "id": 128964459,
  "center": {
    "lat": 50.2048920,
    "lon": 11.5928814
  },
  "nodes": [
    1295255684,
    1421021308,
    1421021307,
    1421021309,
    1421021310,
    1423795631,
    1295255684
  ],
  "tags": {
    "landuse": "cemetery"
  }
},
{
  "type": "way",
  "id": 129368554,
  "center": {
    "lat": 50.3266433,
    "lon": 11.3522763
  },
  "nodes": [
    1427361729,
    1427361728,
    1427361722,
    1427361721,
    1427361735,
    1427361738,
    1427361737,
    1427361729
  ],
  "tags": {
    "amenity": "grave_yard",
    "denomination": "catholic",
    "name": "Friedhof Gifting",
    "religion": "christian"
  }
},
{
  "type": "way",
  "id": 129471823,
  "center": {
    "lat": 50.3226763,
    "lon": 11.2832783
  },
  "nodes": [
    1428381988,
    1428381981,
    1428381980,
    1428381979,
    1428381976,
    1428381955,
    3783958257,
    1428381954,
    1428381988
  ],
  "tags": {
    "denomination": "catholic",
    "landuse": "cemetery",
    "name": "Friedhof Neukenroth",
    "religion": "christian"
  }
},
{
  "type": "way",
  "id": 129524708,
  "center": {
    "lat": 50.2805101,
    "lon": 11.2815801
  },
  "nodes": [
    1428897019,
    1428897002,
    1428897000,
    1428897014,
    1428897019
  ],
  "tags": {
    "denomination": "catholic",
    "landuse": "cemetery",
    "name": "Friedhof Haig",
    "religion": "christian"
  }
},
{
  "type": "way",
  "id": 129797408,
  "center": {
    "lat": 50.3544720,
    "lon": 11.2126915
  },
  "nodes": [
    1431294954,
    1431294956,
    1431294960,
    1431294962,
    1431294954
  ],
  "tags": {
    "landuse": "cemetery"
  }
},
{
  "type": "way",
  "id": 130456829,
  "center": {
    "lat": 50.7934702,
    "lon": 11.0103886
  },
  "nodes": [
    1436928584,
    1436928494,
    1436928753,
    10685450350,
    2050960091,
    2050960089,
    1436928841,
    1436928624,
    10683285643,
    3434257676,
    10683285642,
    1436928584
  ],
  "tags": {
    "amenity": "grave_yard"
  }
},
{
  "type": "way",
  "id": 130656617,
  "center": {
    "lat": 50.3667116,
    "lon": 11.1512828
  },
  "nodes": [
    1438352815,
    837554913,
    1438352816,
    1438352817,
    1438352818,
    7252978891,
    1438352815
  ],
  "tags": {
    "landuse": "cemetery"
  }
},
{
  "type": "way",
  "id": 132013096,
  "center": {
    "lat": 50.6703357,
    "lon": 11.2071166
  },
  "nodes": [
    1452523732,
    11873821008,
    1452523731,
    1452523726,
    1452523727,
    1452523732
  ],
  "tags": {
    "landuse": "cemetery"
  }
},
{
  "type": "way",
  "id": 132059877,
  "center": {
    "lat": 50.0606076,
    "lon": 11.5969036
  },
  "nodes": [
    3602191600,
    1453419396,
    1453419395,
    1453419384,
    12247231962,
    1685739044,
    3602191598,
    12247231959,
    12247231958,
    3602191599,
    3772143804,
    3602191600
  ],
  "tags": {
    "landuse": "cemetery"
  }
},
{
  "type": "way",
  "id": 132063165,
  "center": {
    "lat": 50.0026041,
    "lon": 11.1366816
  },
  "nodes": [
    1453433377,
    1453433380,
    1453433341,
    1453433338,
    1453433377
  ],
  "tags": {
    "landuse": "cemetery"
  }
},
{
  "type": "way",
  "id": 132190370,
  "center": {
    "lat": 50.0161979,
    "lon": 11.0802350
  },
  "nodes": [
    1454639692,
    1454639690,
    1454639686,
    1454639687,
    1454639688,
    1454639689,
    13197838563,
    1454639692
  ],
  "tags": {
    "landuse": "cemetery"
  }
},
{
  "type": "way",
  "id": 132577318,
  "center": {
    "lat": 50.2830369,
    "lon": 11.9506790
  },
  "nodes": [
    1458171093,
    1458171091,
    5616809577,
    1458171094,
    5502072569,
    5502072568,
    5502072567,
    5502072566,
    1458171090,
    5502072565,
    1458171092,
    1458171093
  ],
  "tags": {
    "landuse": "cemetery",
    "name": "Friedhof Döhlau"
  }
},
{
  "type": "way",
  "id": 133299904,
  "center": {
    "lat": 50.6372945,
    "lon": 11.7715567
  },
  "nodes": [
    1467421134,
    1467421136,
    1467421137,
    1467421135,
    1467421134
  ],
  "tags": {
    "landuse": "cemetery"
  }
},
{
  "type": "way",
  "id": 137045288,
  "center": {
    "lat": 50.7228831,
    "lon": 11.3114915
  },
  "nodes": [
    1503393294,
    1503393267,
    1503393266,
    1503393252,
    1503393250,
    1503393256,
    1503393273,
    1503393289,
    1503393293,
    1503393294
  ],
  "tags": {
    "landuse": "cemetery",
    "wikidata": "Q123094737"
  }
},
{
  "type": "way",
  "id": 137107664,
  "center": {
    "lat": 50.6835325,
    "lon": 11.3180283
  },
  "nodes": [
    1503924247,
    1503924245,
    1874196918,
    5572065981,
    1503924215,
    1503924224,
    1503924247
  ],
  "tags": {
    "landuse": "cemetery"
  }
},
{
  "type": "way",
  "id": 137337707,
  "center": {
    "lat": 50.1657428,
    "lon": 11.4999400
  },
  "nodes": [
    1394291857,
    1394291881,
    1394291844,
    1394291872,
    1394291878,
    1394291863,
    1506582153,
    2985107412,
    1506582147,
    1394291857
  ],
  "tags": {
    "landuse": "cemetery",
    "source": "Bing"
  }
},
{
  "type": "way",
  "id": 139419782,
  "center": {
    "lat": 50.0466674,
    "lon": 11.6619173
  },
  "nodes": [
    480124107,
    1528474517,
    1528474461,
    1528474465,
    1528474428,
    1528474400,
    1528474501,
    1528474509,
    2352406562,
    2352406563,
    1528474371,
    2352406564,
    2352406570,
    2352406577,
    1528474525,
    480124107
  ],
  "tags": {
    "landuse": "cemetery"
  }
},
{
  "type": "way",
  "id": 139540298,
  "center": {
    "lat": 50.9400791,
    "lon": 11.1829516
  },
  "nodes": [
    515068246,
    616756836,
    515068251,
    515068253,
    1529659325,
    1529659422,
    515068246
  ],
  "tags": {
    "barrier": "fence",
    "landuse": "cemetery",
    "wikidata": "Q136515560"
  }
},
{
  "type": "way",
  "id": 139678525,
  "center": {
    "lat": 50.5737640,
    "lon": 11.1240631
  },
  "nodes": [
    1531004701,
    1531004703,
    1531004699,
    1531004697,
    1697693037,
    1697693039,
    1531004701
  ],
  "tags": {
    "landuse": "cemetery"
  }
},
{
  "type": "way",
  "id": 139753178,
  "center": {
    "lat": 50.5821353,
    "lon": 11.1452337
  },
  "nodes": [
    1531569700,
    1531569709,
    10263492050,
    1531569726,
    1531569714,
    1531569700
  ],
  "tags": {
    "landuse": "cemetery",
    "wikidata": "Q113551595"
  }
},
{
  "type": "way",
  "id": 140953149,
  "center": {
    "lat": 50.8713071,
    "lon": 11.8812033
  },
  "nodes": [
    1543060555,
    3461121006,
    1543060574,
    1543060575,
    1543060578,
    2901233778,
    1543060581,
    1543060561,
    1543060555
  ],
  "tags": {
    "amenity": "grave_yard",
    "denomination": "protestant",
    "name": "Friedhof Reichenbach",
    "religion": "christian",
    "wikidata": "Q136464717"
  }
},
{
  "type": "way",
  "id": 141600385,
  "center": {
    "lat": 50.0535370,
    "lon": 11.7920125
  },
  "nodes": [
    3231269383,
    1549955457,
    1549955453,
    1549955454,
    568096719,
    1549955455,
    1549955458,
    3379275232,
    3231269381,
    3231269382,
    3231269383
  ],
  "tags": {
    "landuse": "cemetery"
  }
},
{
  "type": "way",
  "id": 141852622,
  "center": {
    "lat": 50.5154455,
    "lon": 11.1371578
  },
  "nodes": [
    1552691206,
    1808952893,
    1552691215,
    1505075494,
    1505075490,
    1505075485,
    1552691206
  ],
  "tags": {
    "landuse": "cemetery",
    "name": "Friedhof Bau",
    "wikidata": "Q113551377"
  }
},
{
  "type": "way",
  "id": 142306887,
  "center": {
    "lat": 50.0859560,
    "lon": 11.2459390
  },
  "nodes": [
    1557569850,
    1557569804,
    1557569787,
    1557569793,
    1557569832,
    1495789700,
    1495789705,
    1495789722,
    1557569838,
    1557569822,
    1557569788,
    1557569850
  ],
  "tags": {
    "landuse": "cemetery",
    "name:signed": "no"
  }
},
{
  "type": "way",
  "id": 142383495,
  "center": {
    "lat": 50.7065464,
    "lon": 11.3192614
  },
  "nodes": [
    1558222008,
    1558222006,
    1558222004,
    1558221995,
    1558221999,
    1558222008
  ],
  "tags": {
    "landuse": "cemetery",
    "name": "Friedhof Volkstedt"
  }
},
{
  "type": "way",
  "id": 142762664,
  "center": {
    "lat": 50.7566073,
    "lon": 11.3044956
  },
  "nodes": [
    1562340545,
    2956809226,
    2956809216,
    1562340499,
    1562340475,
    7951535347,
    1562340527,
    1562340545
  ],
  "tags": {
    "landuse": "cemetery"
  }
},
{
  "type": "way",
  "id": 143028270,
  "center": {
    "lat": 50.5961451,
    "lon": 11.1210187
  },
  "nodes": [
    1565053553,
    1565053546,
    1565053554,
    1565053548,
    1565053543,
    1565053536,
    1516262937,
    1516262977,
    1565053553
  ],
  "tags": {
    "landuse": "cemetery",
    "name": "Friedhof Lichtenhain"
  }
},
{
  "type": "way",
  "id": 143043682,
  "center": {
    "lat": 50.5216066,
    "lon": 11.1837478
  },
  "nodes": [
    1565207991,
    1565207987,
    1565207975,
    1565207964,
    1565207950,
    1565207942,
    1565207940,
    1565207939,
    1565207935,
    1565207946,
    1565207956,
    1565207991
  ],
  "tags": {
    "landuse": "cemetery",
    "name": "Friedhof Lichte"
  }
},
{
  "type": "way",
  "id": 143548536,
  "center": {
    "lat": 50.0010745,
    "lon": 11.8559157
  },
  "nodes": [
    1570881482,
    1570881483,
    1621240486,
    1621240487,
    1621240485,
    1621240484,
    1621240483,
    1621240481,
    3405146936,
    1570881482
  ],
  "tags": {
    "landuse": "cemetery"
  }
},
{
  "type": "way",
  "id": 143810816,
  "center": {
    "lat": 50.7749984,
    "lon": 11.3524892
  },
  "nodes": [
    1573705708,
    1573705722,
    1573705720,
    12286194331,
    1573705686,
    1749971581,
    1573705685,
    1573705708
  ],
  "tags": {
    "landuse": "cemetery"
  }
},
{
  "type": "way",
  "id": 145036528,
  "center": {
    "lat": 50.8247912,
    "lon": 11.1136118
  },
  "nodes": [
    5107738922,
    5107738923,
    5107738921,
    5107738925,
    5107736720,
    5107738924,
    1585018681,
    5107738922
  ],
  "tags": {
    "denomination": "protestant",
    "landuse": "cemetery",
    "religion": "christian"
  }
},
{
  "type": "way",
  "id": 145254004,
  "center": {
    "lat": 50.8182693,
    "lon": 11.1341385
  },
  "nodes": [
    1586895138,
    1586895137,
    4205470912,
    4205470913,
    4205470914,
    4205470915,
    4205470916,
    1586895133,
    1586895132,
    4234485771,
    1586895138
  ],
  "tags": {
    "denomination": "protestant",
    "landuse": "cemetery",
    "religion": "christian"
  }
},
{
  "type": "way",
  "id": 145626623,
  "center": {
    "lat": 50.8893291,
    "lon": 11.8958246
  },
  "nodes": [
    1590050277,
    1590050274,
    1590050269,
    1590050265,
    1590050261,
    1590050255,
    1590050254,
    1590050262,
    1590050264,
    1590050277
  ],
  "tags": {
    "landuse": "cemetery",
    "name": "Friedhof Oberndorf",
    "religion": "christian"
  }
},
{
  "type": "way",
  "id": 145626636,
  "center": {
    "lat": 50.8769367,
    "lon": 11.9162426
  },
  "nodes": [
    1590050043,
    1590050045,
    1590050039,
    1590050034,
    3207855262,
    3207855266,
    1590050015,
    1590050024,
    1590050026,
    1590050043
  ],
  "tags": {
    "landuse": "cemetery"
  }
},
{
  "type": "way",
  "id": 146012414,
  "center": {
    "lat": 50.8719104,
    "lon": 11.8074748
  },
  "nodes": [
    1593119385,
    1593119379,
    1593119388,
    1593119410,
    1593119385
  ],
  "tags": {
    "amenity": "grave_yard",
    "denomination": "lutheran",
    "landuse": "cemetery",
    "name": "Friedhof Mörsdorf",
    "religion": "christian"
  }
},
{
  "type": "way",
  "id": 146202870,
  "center": {
    "lat": 50.8587512,
    "lon": 11.2007544
  },
  "nodes": [
    1594763505,
    1594763500,
    1594763519,
    1594763517,
    1594763505
  ],
  "tags": {
    "landuse": "cemetery"
  }
},
{
  "type": "way",
  "id": 146861449,
  "center": {
    "lat": 50.7187137,
    "lon": 11.7358419
  },
  "nodes": [
    1600925417,
    1600925438,
    2286862517,
    1600925405,
    1600925373,
    1600925417
  ],
  "tags": {
    "landuse": "cemetery",
    "name": "Friedhof Kospoda",
    "wikidata": "Q113576604"
  }
},
{
  "type": "way",
  "id": 146861454,
  "center": {
    "lat": 50.7033625,
    "lon": 11.7167812
  },
  "nodes": [
    1600923548,
    1600923542,
    1600923524,
    1600923507,
    1600923492,
    1600923494,
    1600923500,
    1600923519,
    2291284176,
    1600923520,
    12673094819,
    1600923548
  ],
  "tags": {
    "landuse": "cemetery",
    "wikidata": "Q136528819"
  }
},
{
  "type": "way",
  "id": 147248860,
  "center": {
    "lat": 50.8810272,
    "lon": 11.7950023
  },
  "nodes": [
    1604753788,
    1604753789,
    1604753791,
    1604753790,
    1604753788
  ],
  "tags": {
    "amenity": "grave_yard",
    "barrier": "fence"
  }
},
{
  "type": "way",
  "id": 147300229,
  "center": {
    "lat": 50.6765019,
    "lon": 11.8199298
  },
  "nodes": [
    1605405822,
    1605405839,
    1605405841,
    1605405825,
    1605405818,
    1605405809,
    1605405817,
    1605405814,
    1605405820,
    1605405819,
    1605405822
  ],
  "tags": {
    "landuse": "cemetery",
    "wikidata": "Q136528931"
  }
},
{
  "type": "way",
  "id": 147300334,
  "center": {
    "lat": 50.6476827,
    "lon": 11.8977341
  },
  "nodes": [
    1605404429,
    1605404385,
    1605404382,
    1605404426,
    1605404429
  ],
  "tags": {
    "landuse": "cemetery"
  }
},
{
  "type": "way",
  "id": 147300375,
  "center": {
    "lat": 50.6008805,
    "lon": 11.7687349
  },
  "nodes": [
    1605398579,
    11799710052,
    1605398544,
    1605398549,
    1605398558,
    5317329321,
    1605398567,
    11799710040,
    11799710051,
    1605398586,
    11799710049,
    1605398579
  ],
  "tags": {
    "landuse": "cemetery"
  }
},
{
  "type": "way",
  "id": 147300404,
  "center": {
    "lat": 50.5886207,
    "lon": 11.6856360
  },
  "nodes": [
    1605396814,
    1605396768,
    1605396757,
    1605396747,
    1605396760,
    1605396796,
    1605396801,
    1605396819,
    1605396814
  ],
  "tags": {
    "landuse": "cemetery"
  }
},
{
  "type": "way",
  "id": 147300411,
  "center": {
    "lat": 50.6154095,
    "lon": 11.7757050
  },
  "nodes": [
    1605400047,
    1605400042,
    12210567547,
    1605400056,
    1605400121,
    1605400140,
    1605400142,
    1605400146,
    1605400135,
    1605400128,
    1605400047
  ],
  "tags": {
    "landuse": "cemetery",
    "wikidata": "Q136528751"
  }
},
{
  "type": "way",
  "id": 147416522,
  "center": {
    "lat": 50.3977184,
    "lon": 11.3818077
  },
  "nodes": [
    1606456162,
    1606456161,
    2920353152,
    1606456167,
    1606456219,
    1606456182,
    1606456241,
    3451870021,
    1606456214,
    3451870022,
    1606456225,
    1606461225,
    2920353151,
    2920353150,
    2920353145,
    2920353149,
    2920353142,
    2920353147,
    2920353146,
    2920353148,
    2920353143,
    2920353141,
    1606456216,
    2920353162,
    2920353165,
    1606456155,
    1606456162
  ],
  "tags": {
    "landuse": "cemetery"
  }
},
{
  "type": "way",
  "id": 149115270,
  "center": {
    "lat": 50.8009107,
    "lon": 11.7746805
  },
  "nodes": [
    1621368805,
    1621368800,
    1621368781,
    1621368782,
    2645279938,
    1621368797,
    1621368805
  ],
  "tags": {
    "denomination": "protestant",
    "landuse": "cemetery",
    "name": "Friedhof Bremsnitz",
    "religion": "christian"
  }
},
{
  "type": "way",
  "id": 149209694,
  "center": {
    "lat": 50.6870635,
    "lon": 11.2776989
  },
  "nodes": [
    1622212262,
    1622212323,
    1622212297,
    1622212295,
    259446722,
    1622212258,
    1045103049,
    339307279,
    339307280,
    12880631038,
    259446717,
    12880631037,
    1045103257,
    1622212262
  ],
  "tags": {
    "bicycle": "no",
    "dog": "no",
    "landuse": "cemetery",
    "name": "Friedhof Bad Blankenburg",
    "opening_hours": "Apr-Sep 07:00-20:00; Oct-Mar 08:00-18:00",
    "smoking": "no"
  }
},
{
  "type": "way",
  "id": 149477232,
  "center": {
    "lat": 50.7222493,
    "lon": 11.7984701
  },
  "nodes": [
    1624429015,
    1624429005,
    2303949806,
    1624428993,
    1624429006,
    1624429015
  ],
  "tags": {
    "landuse": "cemetery",
    "wikidata": "Q113576487"
  }
},
{
  "type": "way",
  "id": 149477234,
  "center": {
    "lat": 50.7278224,
    "lon": 11.7834172
  },
  "nodes": [
    1624429532,
    1624429515,
    1624429500,
    1624429530,
    1624429532
  ],
  "tags": {
    "landuse": "cemetery",
    "wikidata": "Q113576592"
  }
},
{
  "type": "way",
  "id": 149477235,
  "center": {
    "lat": 50.7268319,
    "lon": 11.8167320
  },
  "nodes": [
    1624429484,
    1624429481,
    1624429472,
    1624429477,
    1624429484
  ],
  "tags": {
    "landuse": "cemetery"
  }
},
{
  "type": "way",
  "id": 149477246,
  "center": {
    "lat": 50.6900994,
    "lon": 11.8175056
  },
  "nodes": [
    1624425594,
    1624425583,
    1624425560,
    1624425551,
    1624425558,
    13238866333,
    1624425565,
    1624425594
  ],
  "tags": {
    "landuse": "cemetery"
  }
},
{
  "type": "way",
  "id": 149515890,
  "center": {
    "lat": 50.7736086,
    "lon": 11.9508057
  },
  "nodes": [
    1624817259,
    1624817260,
    1624817261,
    4784991522,
    1624817258,
    1624817257,
    1624817256,
    4784991521,
    4717348369,
    1624817259
  ],
  "tags": {
    "amenity": "grave_yard",
    "barrier": "fence",
    "fence_type": "wood",
    "wikidata": "Q113045814"
  }
},
{
  "type": "way",
  "id": 149518646,
  "center": {
    "lat": 50.0319945,
    "lon": 11.0062774
  },