{
  "version": 0.6,
  "generator": "Overpass API 0.7.62.8 e802775f",
  "osm3s": {
    "timestamp_osm_base": "2025-11-02T22:56:22Z",
    "copyright": "The data included in this document is from www.openstreetmap.org. The data is made available under ODbL."
  },
  "elements": [

{
  "type": "way",
  "id": 12379202,
  "center": {
    "lat": 54.3452674,
    "lon": 10.1245822
  },
  "nodes": [
    112541931,
    112541933,
    6452154343,
    112541934,
    6452154347,
    6452154346,
    142093950,
    6452154172,
    112541937,
    6452154348,
    6452154349,
    293883191,
    142095618,
    112541938,
    112541941,
    295463506,
    295470533,
    112541942,
    112541944,
    112541947,
    302079990,
    112541931
  ],
  "tags": {
    "landuse": "cemetery",
    "name": "Nordfriedhof",
    "url": "https://www.kiel.de/de/_data/ortsrecht_bekanntmachungen/root/download.php?typ=lf&fid=430cdd462b1a987f2f7302f1ed76efa7",
    "website": "https://www.kiel.de/de/umwelt_verkehr/friedhoefe/nordfriedhof_kiel.php",
    "wikidata": "Q962417"
  }
},
{
  "type": "way",
  "id": 12389004,
  "center": {
    "lat": 54.3124350,
    "lon": 10.1157609
  },
  "nodes": [
    112626376,
    417711043,
    1041927113,
    1041927118,
    1611281799,
    1041927123,
    417711038,
    1611281816,
    1611281803,
    339433151,
    112626387,
    1041935259,
    1041927068,
    1041935781,
    12476233145,
    12476233144,
    12504941091,
    112626376
  ],
  "tags": {
    "denomination": "lutheran",
    "landuse": "cemetery",
    "name": "Südfriedhof",
    "religion": "christian",
    "website": "https://www.friedhof-kiel.de/friedhoefe/suedfriedhof.html",
    "wheelchair": "limited",
    "wikidata": "Q1288001",
    "wikipedia": "de:Südfriedhof (Kiel)"
  }
},
{
  "type": "way",
  "id": 23658345,
  "center": {
    "lat": 54.9693432,
    "lon": 10.6063662
  },
  "nodes": [
    2453566054,
    256326437,
    256326438,
    256326439,
    256326440,
    4029738155,
    4029738156,
    4029738157,
    4029738158,
    10870571812,
    4029738159,
    4029738154,
    4029738160,
    2453566030,
    4029738161,
    309364575,
    4029738162,
    2453566029,
    4029738163,
    4029738164,
    2453566034,
    4029738166,
    4029738165,
    10870571854,
    10870571850,
    4029738167,
    4029738170,
    4029738169,
    4029738168,
    10870571875,
    2453566054
  ],
  "tags": {
    "amenity": "grave_yard",
    "denomination": "lutheran",
    "name": "Bjerreby Kirkegård",
    "religion": "christian"
  }
},
{
  "type": "way",
  "id": 24763443,
  "center": {
    "lat": 54.2893048,
    "lon": 10.1786657
  },
  "nodes": [
    269105750,
    269105751,
    269105752,
    269105753,
    1642633040,
    269105755,
    269105756,
    269105757,
    269105758,
    269105759,
    704130379,
    269105760,
    1642632959,
    10922018119,
    10141306037,
    10141306040,
    10922018120,
    3928923260,
    1642632957,
    3928923262,
    3928923261,
    3928923267,
    269105762,
    3928923277,
    3928923280,
    772355818,
    269105763,
    269105764,
    269105765,
    269105767,
    603294264,
    269105768,
    269105750
  ],
  "tags": {
    "denomination": "lutheran",
    "landuse": "cemetery",
    "name": "Friedhof Elmschenhagen",
    "religion": "christian",
    "website": "https://www.friedhof-kiel.de/friedhoefe/elmschenhagen.html",
    "wikidata": "Q107123373"
  }
},
{
  "type": "way",
  "id": 25695395,
  "center": {
    "lat": 54.3327190,
    "lon": 10.1029712
  },
  "nodes": [
    280146084,
    280146086,
    1297665819,
    368296940,
    280146087,
    368296942,
    280146088,
    280146089,
    280366453,
    280146090,
    4550027191,
    280146091,
    286369220,
    286369219,
    445030018,
    368296267,
    280146084
  ],
  "tags": {
    "landuse": "cemetery",
    "name": "Neuer Urnenfriedhof",
    "url": "https://www.kiel.de/de/_data/ortsrecht_bekanntmachungen/root/download.php?typ=lf&fid=430cdd462b1a987f2f7302f1ed76efa7",
    "website": "https://www.kiel.de/de/umwelt_verkehr/friedhoefe/urnenfriedhoefe_kiel.php"
  }
},
{
  "type": "way",
  "id": 26901797,
  "center": {
    "lat": 54.3351674,
    "lon": 10.1066432
  },
  "nodes": [
    294963216,
    224598945,
    1414544940,
    1414544934,
    1414544912,
    2419203448,
    2419203446,
    294962623,
    294962789,
    682386469,
    682386484,
    293211180,
    682386489,
    682386490,
    7785855082,
    81436644,
    224599992,
    795184387,
    4423435784,
    280366424,
    294963216
  ],
  "tags": {
    "landuse": "cemetery",
    "name": "Alter Urnenfriedhof Eichhof",
    "url": "https://www.kiel.de/de/_data/ortsrecht_bekanntmachungen/root/download.php?typ=lf&fid=430cdd462b1a987f2f7302f1ed76efa7",
    "website": "https://www.kiel.de/de/umwelt_verkehr/friedhoefe/urnenfriedhoefe_kiel.php"
  }
},
{
  "type": "way",
  "id": 27487891,
  "center": {
    "lat": 54.0725022,
    "lon": 10.0018510
  },
  "nodes": [
    301777071,
    301777072,
    301777073,
    3904817161,
    677083156,
    301777075,
    301777076,
    677083188,
    301777077,
    301777090,
    677083251,
    301777091,
    301777103,
    301777104,
    677083235,
    301777105,
    301777106,
    301777107,
    301777071
  ],
  "tags": {
    "alt_name": "Alter Friedhof",
    "denomination": "lutheran",
    "landuse": "cemetery",
    "name": "Nordfriedhof",
    "religion": "christian",
    "url": "http://www.friedhof-neumuenster.de/images/Satzung/Friedhofssatzung1a.pdf",
    "website": "https://friedhof-neumuenster.de/"
  }
},
{
  "type": "way",
  "id": 27487892,
  "center": {
    "lat": 54.0684806,
    "lon": 10.0070422
  },
  "nodes": [
    301777108,
    1017114484,
    301777170,
    677083131,
    301777172,
    301777173,
    1017113951,
    1017114068,
    1017113919,
    677083141,
    677083216,
    301777174,
    1467706663,
    4294207805,
    4294207806,
    1467706651,
    1467706670,
    1467706684,
    1467706696,
    1467706665,
    1467706705,
    301777175,
    301777176,
    301777177,
    301777178,
    301777179,
    301777181,
    677083128,
    301777108
  ],
  "tags": {
    "denomination": "lutheran",
    "landuse": "cemetery",
    "name": "Südfriedhof",
    "religion": "christian",
    "url": "http://www.friedhof-neumuenster.de/images/Satzung/Friedhofssatzung1a.pdf",
    "website": "https://friedhof-neumuenster.de/"
  }
},
{
  "type": "way",
  "id": 28020515,
  "center": {
    "lat": 54.3638321,
    "lon": 10.2909954
  },
  "nodes": [
    307684092,
    307684093,
    307684094,
    410323020,
    307684095,
    9004211871,
    2482099759,
    2482099781,
    307684092
  ],
  "tags": {
    "image": "https://commons.wikimedia.org/wiki/File:Friedhof_Probsteierhagen.jpg",
    "landuse": "cemetery",
    "name:signed": "no"
  }
},
{
  "type": "way",
  "id": 28114758,
  "center": {
    "lat": 54.2956127,
    "lon": 10.8738942
  },
  "nodes": [
    309725394,
    4507018817,
    309725393,
    308820643,
    308820645,
    7442910314,
    308820650,
    9134702134,
    9134702136,
    308820652,
    2491920231,
    308820654,
    2491920233,
    1322985849,
    2490605944,
    9134702140,
    2490605957,
    1322986019,
    308820655,
    2490605978,
    308820657,
    2490605985,
    309725394
  ],
  "tags": {
    "landuse": "cemetery"
  }
},
{
  "type": "way",
  "id": 28186495,
  "center": {
    "lat": 54.0745524,
    "lon": 10.7177893
  },
  "nodes": [
    292827050,
    2250077429,
    2250077393,
    3392690116,
    7902809652,
    309591412,
    309591436,
    309591437,
    2250077366,
    2250077361,
    2250077404,
    292827050
  ],
  "tags": {
    "landuse": "cemetery"
  }
},
{
  "type": "way",
  "id": 28574108,
  "center": {
    "lat": 54.2816159,
    "lon": 10.0672856
  },
  "nodes": [
    313873127,
    1111271410,
    1111270713,
    4252202304,
    338424708,
    1111271218,
    338424706,
    1111270513,
    4252202248,
    4252202295,
    4252202303,
    6839599706,
    1070846259,
    312792786,
    313873126,
    313873127
  ],
  "tags": {
    "landuse": "cemetery",
    "name": "Friedhof Osterfeld"
  }
},
{
  "type": "way",
  "id": 28984478,
  "center": {
    "lat": 54.4296795,
    "lon": 10.0144796
  },
  "nodes": [
    318715473,
    318715495,
    294799269,
    318715485,
    7069430695,
    2697495559,
    294799271,
    7069430698,
    318715473
  ],
  "tags": {
    "landuse": "cemetery"
  }
},
{
  "type": "way",
  "id": 29248777,
  "center": {
    "lat": 54.2313848,
    "lon": 10.2746240
  },
  "nodes": [
    321676780,
    321676781,
    321676782,
    2595259618,
    775888664,
    321676783,
    618060045,
    321676784,
    321676780
  ],
  "tags": {
    "landuse": "cemetery",
    "name": "Alter Friedhof"
  }
},
{
  "type": "way",
  "id": 29732020,
  "center": {
    "lat": 54.3918346,
    "lon": 10.1320384
  },
  "nodes": [
    2997261224,
    1015202373,
    327533897,
    327518603,
    327531727,
    327533901,
    327532185,
    7683034836,
    327532182,
    327532179,
    1015202458,
    327532176,
    327532174,
    302956926,
    1015202456,
    1015202344,
    327533922,
    2997261229,
    2997261228,
    2997261226,
    2997261225,
    2997261223,
    2997261224
  ],
  "tags": {
    "landuse": "cemetery"
  }
},
{
  "type": "way",
  "id": 29973992,
  "center": {
    "lat": 54.1723956,
    "lon": 10.5608512
  },
  "nodes": [
    329982792,
    329974531,
    329982797,
    329982802,
    329982804,
    2580510386,
    329982792
  ],
  "tags": {
    "denomination": "lutheran",
    "landuse": "cemetery",
    "name": "Friedhof Rosenstraße",
    "religion": "christian"
  }
},
{
  "type": "way",
  "id": 29973993,
  "center": {
    "lat": 54.1722441,
    "lon": 10.5443230
  },
  "nodes": [
    329982810,
    3612294575,
    344478105,
    329982815,
    3612294588,
    3612294554,
    3612294550,
    329982817,
    329982810
  ],
  "tags": {
    "landuse": "cemetery",
    "name": "Waldfriedhof",
    "religion": "christian"
  }
},
{
  "type": "way",
  "id": 30451346,
  "center": {
    "lat": 54.2409566,
    "lon": 10.0665883
  },
  "nodes": [
    336099795,
    1840262876,
    336099796,
    471564443,
    471564444,
    471564446,
    336099800,
    1063010518,
    1063009575,
    1063010765,
    1063010156,
    471564447,
    471564448,
    471564449,
    471564450,
    471564451,
    336099802,
    471564452,
    471564453,
    471564454,
    471564455,
    1063009997,
    1063010939,
    336099795
  ],
  "tags": {
    "landuse": "cemetery"
  }
},
{
  "type": "way",
  "id": 30727754,
  "center": {
    "lat": 54.3166932,
    "lon": 10.1899583
  },
  "nodes": [
    339843922,
    1606024670,
    9870263034,
    1606024700,
    9870263037,
    1606024601,
    1686953120,
    339843923,
    358307816,
    276172531,
    358001845,
    1686953057,
    356062493,
    339843925,
    1606024523,
    339842391,
    1606024582,
    339877171,
    339843351,
    1686953191,
    4757027823,
    339843931,
    339843933,
    339843922
  ],
  "tags": {
    "landuse": "cemetery",
    "name": "Ostfriedhof",
    "url": "https://www.kiel.de/de/_data/ortsrecht_bekanntmachungen/root/download.php?typ=lf&fid=430cdd462b1a987f2f7302f1ed76efa7",
    "website": "https://www.kiel.de/de/umwelt_verkehr/friedhoefe/ostfriedhof_kiel.php",
    "wikidata": "Q107123434"
  }
},
{
  "type": "way",
  "id": 30791255,
  "center": {
    "lat": 54.2302678,
    "lon": 10.2694933
  },
  "nodes": [
    340513092,
    340513094,
    340513097,
    340513100,
    775888493,
    747587746,
    340513102,
    1803418767,
    1073257214,
    1073257830,
    340513092
  ],
  "tags": {
    "landuse": "cemetery",
    "name": "Neuer Friedhof"
  }
},
{
  "type": "way",
  "id": 31316992,
  "center": {
    "lat": 54.3309266,
    "lon": 10.2265878
  },
  "nodes": [
    348534375,
    3771630498,
    3771630495,
    348534391,
    1803876829,
    348534325,
    348534332,
    348534340,
    348534352,
    348534359,
    371226911,
    348534364,
    348534373,
    348538229,
    348534375
  ],
  "tags": {
    "landuse": "cemetery"
  }
},
{
  "type": "way",
  "id": 31625280,
  "center": {
    "lat": 54.1483615,
    "lon": 10.9597333
  },
  "nodes": [
    2534826679,
    12925413296,
    12925413297,
    353855012,
    12925413298,
    2534826673,
    2534826672,
    12925413299,
    353855022,
    353855025,
    353855027,
    353855030,
    2534826679
  ],
  "tags": {
    "check_date": "2024-11-16",
    "landuse": "cemetery",
    "name": "Fischerkamp-Friedhof",
    "religion": "christian",
    "website": "https://www.ev-kirche-groemitz.de/"
  }
},
{
  "type": "way",
  "id": 31869332,
  "center": {
    "lat": 54.3731049,
    "lon": 10.1506862
  },
  "nodes": [
    356832325,
    356831364,
    356832327,
    1095068883,
    356832328,
    356830839,
    1015231891,
    1015231823,
    1015231830,
    10917714458,
    10917714457,
    10934098686,
    356834493,
    10934098685,
    10934098684,
    10934098682,
    10934098681,
    10934098679,
    10934098677,
    10934098676,
    10934098674,
    10936593706,
    10934098673,
    10936907397,
    10934098671,
    10934098669,
    356832325
  ],
  "tags": {
    "denomination": "lutheran",
    "landuse": "cemetery",
    "name": "Friedhof Holtenau",
    "religion": "christian",
    "website": "https://www.friedhof-kiel.de/friedhoefe/holtenau.html"
  }
},
{
  "type": "way",
  "id": 31918737,
  "center": {
    "lat": 54.3351983,
    "lon": 10.0957259
  },
  "nodes": [
    81436635,
    281114282,
    1297665787,
    81436636,
    81436637,
    4396844798,
    1297665737,
    1297665797,
    81436638,
    81436639,
    357510829,
    2918659005,
    2918659006,
    2630307175,
    357510832,
    81436641,
    1271508054,
    81436642,
    81436643,
    294962801,
    323631212,
    237822852,
    4719473637,
    294962562,
    1414544952,
    280366644,
    294962563,
    294962842,
    224596820,
    294963188,
    294962844,
    294963234,
    600547268,
    281114283,
    4011707288,
    281114235,
    4011707289,
    600547262,
    81436635
  ],
  "tags": {
    "denomination": "lutheran",
    "landuse": "cemetery",
    "name": "Parkfriedhof Eichhof",
    "religion": "christian",
    "website": "https://friedhof-kiel.de/friedhoefe/eichhof.html",
    "wheelchair": "limited",
    "wikidata": "Q1407381"
  }
},
{
  "type": "way",
  "id": 31927500,
  "center": {
    "lat": 54.1312759,
    "lon": 10.3307901
  },
  "nodes": [
    946797993,
    5049061975,
    5049061976,
    5049061977,
    5049061948,
    5049061949,
    5049061950,
    357608022,
    357608026,
    5049061967,
    5049061968,
    357608030,
    5049061969,
    5049061970,
    8850784460,
    9039175888,
    2358270116,
    946797747,
    946797885,
    5049061979,
    5049061980,
    946797993
  ],
  "tags": {
    "landuse": "cemetery",
    "name": "Friedhof Ascheberg",
    "religion": "christian"
  }
},
{
  "type": "way",
  "id": 32841305,
  "center": {
    "lat": 54.3642055,
    "lon": 10.2930102
  },
  "nodes": [
    369963266,
    2482146752,
    2482146756,
    2482146760,
    369963268,
    369963269,
    7331780176,
    369963267,
    369963266
  ],
  "tags": {
    "landuse": "cemetery"
  }
},
{
  "type": "way",
  "id": 32986882,
  "center": {
    "lat": 54.4702733,
    "lon": 10.0492687
  },
  "nodes": [
    371602781,
    371602785,
    371602787,
    371602792,
    11005695289,
    371602793,
    11005695288,
    371602781
  ],
  "tags": {
    "landuse": "cemetery",
    "religion": "christian"
  }
},
{
  "type": "way",
  "id": 33127032,
  "center": {
    "lat": 54.8547007,
    "lon": 10.5164323
  },
  "nodes": [
    26559227,
    374112384,
    1598758521,
    1598758524,
    1598758526,
    1598758528,
    1598758527,
    1598758522,
    1598758520,
    26559227
  ],
  "tags": {
    "amenity": "grave_yard",
    "denomination": "lutheran",
    "name": "Marstal Kirkegård",
    "religion": "christian"
  }
},
{
  "type": "way",
  "id": 33233058,
  "center": {
    "lat": 54.0306351,
    "lon": 10.6651232
  },
  "nodes": [
    377010248,
    3977759531,
    377010260,
    3977759858,
    377010271,
    377010291,
    377010248
  ],
  "tags": {
    "landuse": "cemetery"
  }
},
{
  "type": "way",
  "id": 34311737,
  "center": {
    "lat": 54.1471248,
    "lon": 10.4093960
  },
  "nodes": [
    393475059,
    393474365,
    393475061,
    393475063,
    393475065,
    393475059
  ],
  "tags": {
    "heritage": "4",
    "heritage:operator": "lfd",
    "image": "https://commons.wikimedia.org/wiki/File:Kadettenfriedhof_Plön,_2018-07_II.jpg",
    "landuse": "cemetery",
    "name": "Kadettenfriedhof",
    "ref:lfd": "12698",
    "wikidata": "Q56027171",
    "wikimedia_commons": "Category:Kadettenfriedhof"
  }
},
{
  "type": "way",
  "id": 34666867,
  "center": {
    "lat": 54.1071965,
    "lon": 10.4252183
  },
  "nodes": [
    403347890,
    321396906,
    321396905,
    403347864,
    403347869,
    403347892,
    403347871,
    403347872,
    403347873,
    403347877,
    491587726,
    491587728,
    1046910523,
    403347890
  ],
  "tags": {
    "denomination": "protestant",
    "landuse": "cemetery",
    "name": "Friedhof Bosau",
    "religion": "christian",
    "source": "survey"
  }
},
{
  "type": "way",
  "id": 35818126,
  "center": {
    "lat": 54.0013482,
    "lon": 10.7628000
  },
  "nodes": [
    420320718,
    309715765,
    309715767,
    1279154337,
    418764254,
    420320717,
    1279154354,
    1279154273,
    2399267989,
    1279154330,
    401280966,
    420320718
  ],
  "tags": {
    "landuse": "cemetery",
    "name": "Waldfriedhof",
    "religion": "christian"
  }
},
{
  "type": "way",
  "id": 36895176,
  "center": {
    "lat": 54.0762831,
    "lon": 10.2309113
  },
  "nodes": [
    428970003,
    324074232,
    5339595194,
    323796046,
    323499208,
    323868167,
    428970006,
    428970007,
    428970008,
    428970009,
    428970003
  ],
  "tags": {
    "landuse": "cemetery",
    "name": "Friedhof Bornhöved"
  }
},
{
  "type": "way",
  "id": 37413901,
  "center": {
    "lat": 54.1608076,
    "lon": 10.4270978
  },
  "nodes": [
    437271212,
    9936108227,
    4057411563,
    9936108226,
    4057411560,
    437271213,
    437271214,
    3343325552,
    7237139904,
    9937993222,
    437271216,
    437271218,
    9936108234,
    9936108233,
    6677380188,
    6677380185,
    6677380186,
    6677380187,
    437271219,
    437271221,
    6677360179,
    6677360175,
    1327338042,
    437271212
  ],
  "tags": {
    "landuse": "cemetery",
    "name": "Alter Friedhof am Plöner See",
    "religion": "christian",
    "website": "http://www.friedhof-ploen.de/friedhoefe/alter-friedhof.html"
  }
},
{
  "type": "way",
  "id": 37417069,
  "center": {
    "lat": 54.0131680,
    "lon": 10.7584016
  },
  "nodes": [
    361650562,
    1078607511,
    309715829,
    309715830,
    309715831,
    361650562
  ],
  "tags": {
    "denomination": "protestant",
    "landuse": "cemetery",
    "name": "Friedhof Kammerweg",
    "religion": "christian"
  }
},
{
  "type": "way",
  "id": 37866106,
  "center": {
    "lat": 54.1610371,
    "lon": 10.4409652
  },
  "nodes": [
    444326369,
    7926116873,
    7926116871,
    33483197,
    890237139,
    7926116862,
    890237263,
    7926116864,
    7926116861,
    33483098,
    33483097,
    7926116860,
    444326374,
    250836890,
    250836875,
    2709026253,
    444326379,
    890237339,
    2815703810,
    444326369
  ],
  "tags": {
    "amenity": "grave_yard",
    "denomination": "lutheran",
    "name": "Osterfriedhof",
    "religion": "christian"
  }
},
{
  "type": "way",
  "id": 38305263,
  "center": {
    "lat": 54.3197612,
    "lon": 10.3716986
  },
  "nodes": [
    452081277,
    1818703879,
    452081280,
    452081295,
    9218150688,
    452081297,
    452081293,
    452081299,
    452081282,
    452081284,
    452081286,
    452081288,
    452081291,
    452081277
  ],
  "tags": {
    "landuse": "cemetery"
  }
},
{
  "type": "way",
  "id": 39237360,
  "center": {
    "lat": 54.1796101,
    "lon": 10.0082513
  },
  "nodes": [
    470054861,
    1279046678,
    470054863,
    470054865,
    470054867,
    470054868,
    11151885853,
    11151885849,
    470054869,
    470054870,
    470054861
  ],
  "tags": {
    "landuse": "cemetery"
  }
},
{
  "type": "way",
  "id": 39999134,
  "center": {
    "lat": 54.3352824,
    "lon": 10.1994128
  },
  "nodes": [
    480677941,
    1838820257,
    318779337,
    480677942,
    480677943,
    480677944,
    480677945,
    480677946,
    480677947,
    1604335473,
    1604335470,
    1604335465,
    480677948,
    3313796961,
    3313795315,
    3313795321,
    3313795318,
    3313796962,
    480677941
  ],
  "tags": {
    "denomination": "lutheran",
    "landuse": "cemetery",
    "religion": "christian",
    "website": "https://www.friedhof-kiel.de/friedhoefe/neumuehlen-dietrichsdorf.html"
  }
},
{
  "type": "way",
  "id": 40096714,
  "center": {
    "lat": 54.0889787,
    "lon": 10.8275067
  },
  "nodes": [
    482526923,
    1086836143,
    1645745602,
    482526927,
    1086836117,
    482526929,
    482526923
  ],
  "tags": {
    "amenity": "grave_yard",
    "name": "Ehrenfriedhof Cap Arcona",
    "wikidata": "Q1300085",
    "wikipedia": "de:Ehrenfriedhof Cap Arcona"
  }
},
{
  "type": "way",
  "id": 43118861,
  "center": {
    "lat": 54.0522565,
    "lon": 10.7367956
  },
  "nodes": [
    540214636,
    540214637,
    540214630,
    540214646,
    540214649,
    540214644,
    540214638,
    540214636
  ],
  "tags": {
    "landuse": "cemetery",
    "name": "Ehrenfriedhof Cap Arcona",
    "wikidata": "Q1300120"
  }
},
{
  "type": "way",
  "id": 43328018,
  "center": {
    "lat": 54.1557741,
    "lon": 10.4976630
  },
  "nodes": [
    520379167,
    11884207773,
    975335326,
    975335416,
    544546744,
    544546745,
    520379180,
    5194638741,
    520379167
  ],
  "tags": {
    "amenity": "grave_yard"
  }
},
{
  "type": "way",
  "id": 44579807,
  "center": {
    "lat": 54.3344748,
    "lon": 10.2237107
  },
  "nodes": [
    663819322,
    11242374444,
    663602692,
    663602689,
    663819321,
    663602686,
    4330022396,
    11242374443,
    11242374440,
    663602693,
    4330022407,
    663602691,
    11242374442,
    663819322
  ],
  "tags": {
    "amenity": "grave_yard",
    "religion": "christian"
  }
},
{
  "type": "way",
  "id": 47073855,
  "center": {
    "lat": 54.4231692,
    "lon": 10.1261779
  },
  "nodes": [
    600373405,
    600373404,
    600381634,
    600381635,
    600373406,
    600373407,
    600381633,
    600373405
  ],
  "tags": {
    "landuse": "cemetery",
    "religion": "christian"
  }
},
{
  "type": "way",
  "id": 47195386,
  "center": {
    "lat": 54.4261030,
    "lon": 10.1265144
  },
  "nodes": [
    2054064999,
    3642078380,
    621119159,
    2151953375,
    621119155,
    3084225647,
    601459768,
    3642330049,
    2054064997,
    601459884,
    2054064999
  ],
  "tags": {
    "landuse": "cemetery",
    "name": "Friedhof Dänischenhagen",
    "religion": "christian"
  }
},
{
  "type": "way",
  "id": 53352273,
  "center": {
    "lat": 54.4000708,
    "lon": 10.3725720
  },
  "nodes": [
    674733359,
    2037787606,
    2037787609,
    2037787611,
    2037787608,
    674733480,
    2037787588,
    4451150026,
    4451150025,
    4451150021,
    674733353,
    674733357,
    2037787544,
    2037787574,
    674733359
  ],
  "tags": {
    "denomination": "lutheran",
    "landuse": "cemetery",
    "name": "Friedhof Schönberg",
    "religion": "christian"
  }
},
{
  "type": "way",
  "id": 53820525,
  "center": {
    "lat": 54.2917731,
    "lon": 10.4288830
  },
  "nodes": [
    379546394,
    679434095,
    679434097,
    679434099,
    379546394
  ],
  "tags": {
    "landuse": "cemetery"
  }
},
{
  "type": "way",
  "id": 53839832,
  "center": {
    "lat": 54.0083750,
    "lon": 10.5713298
  },
  "nodes": [
    679721788,
    8903736318,
    1809674837,
    8903736319,
    8903736320,
    679721689,
    2277996101,
    2277996099,
    679721981,
    679721901,
    2277996103,
    2277996102,
    679924325,
    8903719316,
    679721788
  ],
  "tags": {
    "landuse": "cemetery"
  }
},
{
  "type": "way",
  "id": 54119536,
  "center": {
    "lat": 54.3337355,
    "lon": 10.1070936
  },
  "nodes": [
    682386484,
    682386469,
    294962789,
    682386468,
    682386460,
    682386458,
    597423139,
    1414544879,
    1414544878,
    597423141,
    224597767,
    682386480,
    682386484
  ],
  "tags": {
    "cemetery": "pet",
    "landuse": "cemetery",
    "name": "Tierfriedhof"
  }
},
{
  "type": "way",
  "id": 54181989,
  "center": {
    "lat": 54.1727712,
    "lon": 10.0706833
  },
  "nodes": [
    683429135,
    1258981376,
    1258981414,
    683429137,
    683429138,
    890693024,
    1222498818,
    683429135
  ],
  "tags": {
    "landuse": "cemetery"
  }
},
{
  "type": "way",
  "id": 55211433,
  "center": {
    "lat": 54.1183272,
    "lon": 10.2119568
  },
  "nodes": [
    694056620,
    694056621,
    694056622,
    1375764503,
    694056623,
    694056618,
    694056624,
    694056625,
    2918517342,
    694056626,
    722426289,
    694056627,
    694056629,
    694056630,
    5769559762,
    694056620
  ],
  "tags": {
    "landuse": "cemetery"
  }
},
{
  "type": "way",
  "id": 63045670,
  "center": {
    "lat": 54.4671987,
    "lon": 10.0509192
  },
  "nodes": [
    783574529,
    783574410,
    783574445,
    783574510,
    783574336,
    783574456,
    783574529
  ],
  "tags": {
    "landuse": "cemetery"
  }
},
{
  "type": "way",
  "id": 74074309,
  "center": {
    "lat": 54.9055889,
    "lon": 10.6127899
  },
  "nodes": [
    876407461,
    876408093,
    2687408604,
    876407515,
    6557090586,
    876407644,
    876407798,
    876407461
  ],
  "tags": {
    "amenity": "grave_yard",
    "denomination": "lutheran",
    "name": "Strynø Kirkegård",
    "religion": "christian"
  }
},
{
  "type": "way",
  "id": 76821178,
  "center": {
    "lat": 54.2146277,
    "lon": 10.4265000
  },
  "nodes": [
    904938008,
    904937881,
    904937987,
    3374162864,
    904937973,
    10725811954,
    904938008
  ],
  "tags": {
    "amenity": "grave_yard",
    "denomination": "lutheran",
    "religion": "christian"
  }
},
{
  "type": "way",
  "id": 81362397,
  "center": {
    "lat": 54.8234429,
    "lon": 10.6360339
  },
  "nodes": [
    948056869,
    948057154,
    948057024,
    948056683,
    948056767,
    948056869
  ],
  "tags": {
    "landuse": "cemetery",
    "name": "Ristinge Kirkegård",
    "religion": "christian"
  }
},
{
  "type": "way",
  "id": 83593844,
  "center": {
    "lat": 54.1341703,
    "lon": 10.6012003
  },
  "nodes": [
    973533057,
    1920728004,
    1920728014,
    973533033,
    440831277,
    6855299075,
    1836377510,
    12003569898,
    1696023593,
    1696023597,
    5893352513,
    5893352514,
    440831276,
    1920727991,
    973533057
  ],
  "tags": {
    "denomination": "lutheran",
    "landuse": "cemetery",
    "name": "Friedhof Eutin",
    "religion": "christian",
    "wikidata": "Q114298214"
  }
},
{
  "type": "way",
  "id": 83741267,
  "center": {
    "lat": 54.1552536,
    "lon": 10.4980714
  },
  "nodes": [
    975335326,
    975335356,
    975335376,
    2959932310,
    11884207773,
    975335326
  ],
  "tags": {
    "amenity": "grave_yard",
    "name": "Tierfriedhof"
  }
},
{
  "type": "way",
  "id": 88373571,
  "center": {
    "lat": 54.3179887,
    "lon": 10.5101158
  },
  "nodes": [
    529381959,
    1026494490,
    9463737664,
    1026494030,
    529381957,
    529381959
  ],
  "tags": {
    "denomination": "lutheran",
    "landuse": "cemetery",
    "religion": "christian"
  }
},
{
  "type": "way",
  "id": 88373577,
  "center": {
    "lat": 54.3182704,
    "lon": 10.5083453
  },
  "nodes": [
    1026493891,
    1026494791,
    10036107487,
    10036107488,
    1026494467,
    529381956,
    1026471836,
    1026493891
  ],
  "tags": {
    "denomination": "lutheran",
    "landuse": "cemetery",
    "religion": "christian"
  }
},
{
  "type": "way",
  "id": 88497501,
  "center": {
    "lat": 54.2773063,
    "lon": 10.6497059
  },
  "nodes": [
    1027916025,
    1027916101,
    1027916004,
    1027916159,
    1027916061,
    1027916219,
    1027916119,
    1054391869,
    1027916021,
    1027916025
  ],
  "tags": {
    "denomination": "lutheran",
    "landuse": "cemetery",
    "religion": "christian"
  }
},
{
  "type": "way",
  "id": 89527590,
  "center": {
    "lat": 54.4427421,
    "lon": 10.1645272
  },
  "nodes": [
    1037919318,
    1037919226,
    1037919772,
    1037919196,
    1037919237,
    1037919439,
    1037919152,
    1037919324,
    1037919378,
    1037919706,
    1037919332,
    1037919637,
    1037919736,
    1037919161,
    1037919527,
    1037919056,
    1037919107,
    1037919280,
    927886177,
    927886008,
    2299213219,
    1037919387,
    2299211903,
    2296717087,
    1037919542,
    1037919205,
    1037919383,
    1037919449,
    2296716896,
    1037919779,
    9141500785,
    9141500802,
    9141500800,
    9141500801,
    1037919751,
    1037919028,
    1037919212,
    1037919655,
    1037919114,
    1037919318
  ],
  "tags": {
    "cemetery": "wood",
    "landuse": "cemetery",
    "name": "Arboleum Julianenruh"
  }
},
{
  "type": "way",
  "id": 93358112,
  "center": {
    "lat": 54.9669640,
    "lon": 10.4197108
  },
  "nodes": [
    4016383079,
    10790645129,
    10790645128,
    1082515254,
    1082515907,
    4016383075,
    4016383077,
    10790645131,
    4016383079
  ],
  "tags": {
    "amenity": "grave_yard",
    "denomination": "lutheran",
    "religion": "christian"
  }
},
{
  "type": "way",
  "id": 95863307,
  "center": {
    "lat": 54.9035320,
    "lon": 10.0046963
  },
  "nodes": [
    1110939865,
    1110939859,
    1110939862,
    1889507079,
    1110939857,
    1110939860,
    1110939865
  ],
  "tags": {
    "amenity": "grave_yard",
    "religion": "christian"
  }
},
{
  "type": "way",
  "id": 96790238,
  "center": {
    "lat": 54.2123367,
    "lon": 10.1425588
  },
  "nodes": [
    2231392294,
    1121318474,
    1121318395,
    6987788829,
    6987788871,
    1121318495,
    6987788833,
    1121318284,
    6983364728,
    1121318479,
    6987788832,
    6987788831,
    6983364727,
    1121318397,
    1060217160,
    1060218196,
    6983362277,
    1060218084,
    6987802811,
    6987788862,
    6987802810,
    6983365026,
    6983365025,
    6983365024,
    6987788860,
    6987788861,
    6983365022,
    6983365021,
    6983365020,
    6983365019,
    6983365018,
    6987802809,
    2231392300,
    6987802806,
    6987802805,
    2231392294
  ],
  "tags": {
    "landuse": "cemetery"
  }
},
{
  "type": "way",
  "id": 102651760,
  "center": {
    "lat": 54.1095272,
    "lon": 10.8244641
  },
  "nodes": [
    1185557281,
    1185557289,
    1185557291,
    1185557278,
    1185557284,
    1185557267,
    1185557268,
    2032929344,
    1185557292,
    1185557299,
    1185557285,
    1185557272,
    1185557281
  ],
  "tags": {
    "landuse": "cemetery",
    "name": "Nordfriedhof",
    "source": "Bing"
  }
},
{
  "type": "way",
  "id": 102651761,
  "center": {
    "lat": 54.1071929,
    "lon": 10.8246847
  },
  "nodes": [
    1185557287,
    1185557279,
    1185557300,
    1185557274,
    1185557293,
    2032866762,
    318324137,
    1186331489,
    1186331492,
    1186331493,
    1186331491,
    1185557297,
    1185557280,
    1185557288,
    1185557275,
    1185557276,
    1185557287
  ],
  "tags": {
    "landuse": "cemetery",
    "name": "Südfriedhof",
    "source": "Bing"
  }
},
{
  "type": "way",
  "id": 102715997,
  "center": {
    "lat": 54.1071570,
    "lon": 10.8258149
  },
  "nodes": [
    1186331491,
    1186331489,
    1186331492,
    1186331493,
    1186331491
  ],
  "tags": {
    "amenity": "grave_yard",
    "name": "Jüdischer Friedhof",
    "religion": "jewish",
    "wikidata": "Q84941397"
  }
},
{
  "type": "way",
  "id": 105405768,
  "center": {
    "lat": 54.8886732,
    "lon": 10.4053204
  },
  "nodes": [
    1214183952,
    1214183950,
    10899556581,
    1214183678,
    10899556574,
    10899556573,
    2509820595,
    1214183952
  ],
  "tags": {
    "landuse": "cemetery",
    "name": "Ærøskøbing Kirkegård"
  }
},
{
  "type": "way",
  "id": 105548205,
  "center": {
    "lat": 54.9388481,
    "lon": 10.2571196
  },
  "nodes": [
    1215460062,
    1215460051,
    2504743976,
    2504743978,
    2504743970,
    2504743960,
    1215460049,
    4729078272,
    1215460062
  ],
  "tags": {
    "amenity": "grave_yard",
    "denomination": "lutheran",
    "religion": "christian"
  }
},
{
  "type": "way",
  "id": 105913289,
  "center": {
    "lat": 54.8607010,
    "lon": 10.5139852
  },
  "nodes": [
    1219539243,
    1219539197,
    1219539237,
    1219539231,
    1219539229,
    1219539246,
    1219539234,
    1219539272,
    1219539243
  ],
  "tags": {
    "landuse": "cemetery",
    "name": "Marstal Assistens Kirkegård"
  }
},
{
  "type": "way",
  "id": 107909267,
  "center": {
    "lat": 54.1765345,
    "lon": 10.5047394
  },
  "nodes": [
    1239260096,
    1239260100,
    1239259969,
    1239260403,
    1239259748,
    1239260284,
    1239260134,
    1239259754,
    1239260413,
    1239259984,
    1239260383,
    1239259916,
    1239259826,
    1239260171,
    1239260015,
    2401783854,
    1239260096
  ],
  "tags": {
    "email": "info@ruheforst-holsteinische-schweiz.de",
    "landuse": "cemetery",
    "name": "RuheForst Holsteinische Schweiz / Malente",
    "url": "www.ruheforst-holsteinische-schweiz.de"
  }
},
{
  "type": "way",
  "id": 112505488,
  "center": {
    "lat": 54.0393620,
    "lon": 10.3899761
  },
  "nodes": [
    1278539945,
    3499895565,
    3499895564,
    3499895563,
    1278540364,
    10211498358,
    4613683603,
    3499895562,
    3499895561,
    10211498365,
    3499895560,
    10211498364,
    3499895559,
    3499895558,
    1278541572,
    1278541600,
    4689561673,
    1278539945
  ],
  "tags": {
    "landuse": "cemetery",
    "name": "Friedhof Schlamersdorf"
  }
},
{
  "type": "way",
  "id": 114449513,
  "center": {
    "lat": 54.2570903,
    "lon": 10.7535160
  },
  "nodes": [
    1296495226,
    1296494980,
    1296494909,
    1296495055,
    1296495192,
    1296495385,
    1296495207,
    1296495300,
    1296495158,
    1296495023,
    1296495226
  ],
  "tags": {
    "landuse": "cemetery"
  }
},
{
  "type": "way",
  "id": 115792407,
  "center": {
    "lat": 54.9016091,
    "lon": 10.7610779
  },
  "nodes": [
    1307226208,
    5677460704,
    5677460703,
    1307226271,
    1307226330,
    1307226252,
    1307226446,
    1307226461,
    1307226200,
    1307226182,
    1307226112,
    1307226131,
    1307226208
  ],
  "tags": {
    "amenity": "grave_yard"
  }
},
{
  "type": "way",
  "id": 116260758,
  "center": {
    "lat": 54.2052479,
    "lon": 10.6784551
  },
  "nodes": [
    1311294846,
    1311295671,
    1311295092,
    1311294751,
    1311294846
  ],
  "tags": {
    "landuse": "cemetery"
  }
},
{
  "type": "way",
  "id": 116464900,
  "center": {
    "lat": 54.1995817,
    "lon": 10.4873590
  },
  "nodes": [
    417726937,
    1312930297,
    1312930266,
    1312930381,
    11912136420,
    11912136419,
    417726937
  ],
  "tags": {
    "landuse": "cemetery",
    "religion": "christian"
  }
},
{
  "type": "way",
  "id": 116945266,
  "center": {
    "lat": 54.3668164,
    "lon": 10.2097130
  },
  "nodes": [
    1247738491,
    10792648525,
    10792648526,
    1247738511,
    1317250245,
    12154509335,
    1317250487,
    1317249502,
    9019476838,
    1317249949,
    1317249854,
    1247738450,
    1247738503,
    9028226096,
    1247738427,
    1247738475,
    1247738491
  ],
  "tags": {
    "denomination": "lutheran",
    "landuse": "cemetery",
    "religion": "christian"
  }
},
{
  "type": "way",
  "id": 117942455,
  "center": {
    "lat": 54.3988471,
    "lon": 10.1740915
  },
  "nodes": [
    1034337930,
    1595593160,
    1595593164,
    1595593155,
    1595593144,
    10820244102,
    1595593142,
    1327564960,
    2980816774,
    1327564962,
    10820244103,
    1327564968,
    10820244104,
    10820259205,
    1034337561,
    1034337930
  ],
  "tags": {
    "denomination": "lutheran",
    "landuse": "cemetery",
    "name": "Friedhof Pries",
    "religion": "christian",
    "website": "https://www.friedhof-kiel.de/friedhoefe/pries.html"
  }
},
{
  "type": "way",
  "id": 119298633,
  "center": {
    "lat": 54.3672858,
    "lon": 10.9998957
  },
  "nodes": [
    1340917529,
    12042633886,
    2975691763,
    1340917506,
    1340917489,
    1340917498,
    8282221669,
    1340917550,
    9107242558,
    1340917517,
    1340917529
  ],
  "tags": {
    "amenity": "grave_yard",
    "name": "Neuer Friedhof,Ruhewald"
  }
},
{
  "type": "way",
  "id": 119759430,
  "center": {
    "lat": 54.1848858,
    "lon": 10.7496847
  },
  "nodes": [
    1344522766,
    1344524899,
    1344522904,
    1344524681,
    1344523486,
    1344523409,
    5012969415,
    1344524588,
    1344522766
  ],
  "tags": {
    "denomination": "protestant",
    "landuse": "cemetery",
    "name": "Friedhof Schönwalde",
    "religion": "christian"
  }
},
{
  "type": "way",
  "id": 121762943,
  "center": {
    "lat": 54.3132949,
    "lon": 10.1235991
  },
  "nodes": [
    1362167769,
    8197870984,
    1362167771,
    1362167779,
    1362167770,
    8197896091,
    8197896090,
    1362167769
  ],
  "tags": {
    "landuse": "cemetery",
    "name": "Jüdischer Friedhof",
    "religion": "jewish"
  }
},
{
  "type": "way",
  "id": 122115780,
  "center": {
    "lat": 54.1278297,
    "lon": 10.5933987
  },
  "nodes": [
    1365352524,
    1365352523,
    1365352522,
    6350064295,
    1365352520,
    1365352517,
    1365352518,
    1365352521,
    6350051724,
    1365352525,
    1365352526,
    440831266,
    1260145129,
    1365352530,
    1365352528,
    1365352527,
    1260145271,
    5012969327,
    5012969328,
    1365352524
  ],
  "tags": {
    "denomination": "protestant",
    "landuse": "cemetery",
    "name": "Friedhof Neudorf",
    "religion": "christian"
  }
},
{
  "type": "way",
  "id": 126129996,
  "center": {
    "lat": 54.0108765,
    "lon": 10.0281279
  },
  "nodes": [
    1399080146,
    1888523285,
    4190772500,
    1888523254,
    4190772498,
    1399080125,
    4190772505,
    1399080171,
    1020999585,
    1019204176,
    1829212706,
    1399080146
  ],
  "tags": {
    "landuse": "cemetery",
    "name": "Friedhof Boostedt",
    "url": "https://www.boostedt.de/fileadmin/Dateien/Gemeinde_Boostedt/Bu__rgerservice___Politik/Politik___Ortsrecht/Ortsrecht/020_1_705_Friedhofssatzung.pdf"
  }
},
{
  "type": "way",
  "id": 129586373,
  "center": {
    "lat": 54.2003186,
    "lon": 10.2693743
  },
  "nodes": [
    1429439947,
    1429439950,
    1429439951,
    1429439949,
    1429439948,
    1429439945,
    1429439947
  ],
  "tags": {
    "amenity": "grave_yard"
  }
},
{
  "type": "way",
  "id": 132926514,
  "center": {
    "lat": 54.3004856,
    "lon": 10.0538682
  },
  "nodes": [
    1462469653,
    1462469655,
    1462469666,
    1462469669,
    1462469668,
    601615814,
    1495295725,
    1495295753,
    1462469686,
    1495318378,
    1495373355,
    1495296094,
    1462469713,
    1462469736,
    5263507560,
    5263507559,
    1462569775,
    1695831567,
    9870263038,
    601615816,
    1462469694,
    1462469685,
    1462469653
  ],
  "tags": {
    "landuse": "cemetery",
    "name": "Friedhof Russee",
    "url": "https://www.kiel.de/de/_data/ortsrecht_bekanntmachungen/root/download.php?typ=lf&fid=430cdd462b1a987f2f7302f1ed76efa7",
    "website": "https://www.kiel.de/de/umwelt_verkehr/friedhoefe/friedhof_kiel_russee.php"
  }
},
{
  "type": "way",
  "id": 133231565,
  "center": {
    "lat": 54.0475245,
    "lon": 10.0277221
  },
  "nodes": [
    1466179888,
    2514773468,
    11836028265,
    11836028267,
    11836028268,
    305596221,
    305596222,
    305594888,
    305594889,
    305594891,
    1016769910,
    305596223,
    1016775217,
    1466179731,
    1466179732,
    305596224,
    2514773467,
    2514773464,
    2514773469,
    1466179890,
    1466179905,
    1466179898,
    1466179888
  ],
  "tags": {
    "denomination": "lutheran",
    "landuse": "cemetery",
    "name": "Friedhof Gadeland",
    "religion": "christian",
    "url": "http://www.friedhof-neumuenster.de/images/Satzung/Friedhofssatzung1a.pdf",
    "website": "https://friedhof-neumuenster.de/"
  }
},
{
  "type": "way",
  "id": 144458900,
  "center": {
    "lat": 54.9447961,
    "lon": 10.7622260
  },
  "nodes": [
    5928373344,
    7054525032,
    7054525030,
    5928373339,
    5928373338,
    5928373337,
    5928373336,
    5928373335,
    5928373352,
    1580093078,
    1580093079,
    2403219167,
    1580093075,
    5928373349,
    5928373346,
    5928373344
  ],
  "tags": {
    "amenity": "grave_yard",
    "denomination": "lutheran",
    "religion": "christian"
  }
},
{
  "type": "way",
  "id": 152255149,
  "center": {
    "lat": 54.8540290,
    "lon": 10.3996987
  },
  "nodes": [
    1650817525,
    12052365467,
    1650817411,
    1650817594,
    1650817656,
    1650817646,
    1650817664,
    1650817476,
    1650817304,
    1650817621,
    1650817676,
    1650817623,
    1650817644,
    1650817642,
    1650817632,
    1650817435,
    1650817378,
    1650817522,
    1650817468,
    1650817465,
    1650817567,
    1650817473,
    1650817471,
    1650817335,
    1650817525
  ],
  "tags": {
    "amenity": "grave_yard",
    "denomination": "lutheran",
    "religion": "christian"
  }
},
{
  "type": "way",
  "id": 153649707,
  "center": {
    "lat": 54.3936363,
    "lon": 10.1778798
  },
  "nodes": [
    1662864784,
    1662864739,
    1662864736,
    1662864759,
    1662864762,
    1662864783,
    1662864785,
    1662864787,
    1662864786,
    1662864784
  ],
  "tags": {
    "alt_name": "Alter Garnisonsfriedhof",
    "landuse": "cemetery",
    "name": "Friedhof Friedrichsort",
    "religion": "christian",
    "website": "http://www.denkmalprojekt.org/dkm_deutschland/kiel-friedrichsort_alter_garfrdh_wk1_sh.htm"
  }
},
{
  "type": "way",
  "id": 154816387,
  "center": {
    "lat": 54.8722316,
    "lon": 10.3572805
  },
  "nodes": [
    1672849139,
    10909522213,
    1672849064,
    1672849125,
    1672849082,
    1672849214,
    1672849195,
    7859303820,
    1672849283,
    1672849061,
    1672849069,
    1672849274,
    10909522214,
    1672849139
  ],
  "tags": {
    "amenity": "grave_yard",
    "denomination": "lutheran",
    "religion": "christian"
  }
},
{
  "type": "way",
  "id": 154876400,
  "center": {
    "lat": 54.8648648,
    "lon": 10.4889085
  },
  "nodes": [
    1673400543,
    1672896918,
    1672896560,
    1672896735,
    1673400543
  ],
  "tags": {
    "amenity": "grave_yard",
    "religion": "christian"
  }
},
{
  "type": "way",
  "id": 155338535,
  "center": {
    "lat": 54.8942340,
    "lon": 10.3099358
  },
  "nodes": [
    1677425542,
    4211679344,
    1677425442,
    1677425631,
    1677425654,
    1677425656,
    1677425673,
    1677425506,
    1677425468,
    7813803575,
    1677425566,
    1677425406,
    1677425602,
    1677425543,
    1677425437,
    1677425400,
    1677425645,
    1677425542
  ],
  "tags": {
    "amenity": "grave_yard",
    "denomination": "lutheran",
    "religion": "christian",
    "source": "Geodatastyrelsen : FOT ortofoto"
  }
},
{
  "type": "way",
  "id": 156185761,
  "center": {
    "lat": 54.2768926,
    "lon": 10.1209257
  },
  "nodes": [
    1684675653,
    1684675613,
    1684675620,
    1684675660,
    1684675671,
    1684675653
  ],
  "tags": {
    "landuse": "cemetery",
    "name": "Friedhof Meimersdorf",
    "url": "https://www.kiel.de/de/_data/ortsrecht_bekanntmachungen/root/download.php?typ=lf&fid=430cdd462b1a987f2f7302f1ed76efa7",
    "website": "https://www.kiel.de/de/umwelt_verkehr/friedhoefe/friedhof_meimersdorf.php"
  }
},
{
  "type": "way",
  "id": 164036800,
  "center": {
    "lat": 54.1896028,
    "lon": 10.6619921
  },
  "nodes": [
    1756972260,
    1756972265,
    1756972266,
    1756972264,
    1756972258,
    1756972256,
    1756972254,
    1756972252,
    1756972253,
    1756972260
  ],
  "tags": {
    "amenity": "grave_yard"
  }
},
{
  "type": "way",
  "id": 171449641,
  "center": {
    "lat": 54.3993817,
    "lon": 10.2287489
  },
  "nodes": [
    1824731702,
    1824731691,
    1824731736,
    2071315540,
    2071315538,
    2071315536,
    2071315535,
    1824731734,
    2492034494,
    2492034495,
    2492034507,
    1824731687,
    2492034514,
    1824731702
  ],
  "tags": {
    "landuse": "cemetery",
    "name": "Friedhof Laboe",
    "wikidata": "Q106779193"
  }
},
{
  "type": "way",
  "id": 173043971,
  "center": {
    "lat": 54.1469430,
    "lon": 10.9540049
  },
  "nodes": [
    353857986,
    12946628278,
    2173927147,
    1430226708,
    1430226693,
    1430226699,
    1430226697,
    1430226724,
    1430226755,
    353857982,
    1838697649,
    353857986
  ],
  "tags": {
    "landuse": "cemetery",
    "name": "Voßberg Friedhof",
    "religion": "christian",
    "website": "https://www.ev-kirche-groemitz.de/"
  }
},
{
  "type": "way",
  "id": 176569532,
  "center": {
    "lat": 54.1910390,
    "lon": 10.9862688
  },
  "nodes": [
    1870633069,
    8044412275,
    1870633067,
    3455500904,
    3455500898,
    1870633054,
    1870633055,
    8044412274,
    2077516131,
    3455500907,
    1870633069
  ],
  "tags": {
    "landuse": "cemetery"
  }
},
{
  "type": "way",
  "id": 178177244,
  "center": {
    "lat": 54.1817895,
    "lon": 10.0100246
  },
  "nodes": [
    1885512389,
    1885512395,
    1885512281,
    1885512387,
    1885512411,
    1885512539,
    1885512600,
    12500358517,
    1279046726,
    1885512389
  ],
  "tags": {
    "landuse": "cemetery"
  }
},
{
  "type": "way",
  "id": 193607696,
  "center": {
    "lat": 54.2900131,
    "lon": 10.5895415
  },
  "nodes": [
    1019590523,
    2041255464,
    1019579087,
    1019584962,
    5282226994,
    2041255534,
    5282226995,
    1019585586,
    1019590523
  ],
  "tags": {
    "landuse": "cemetery"
  }
},
{
  "type": "way",
  "id": 199081846,
  "center": {
    "lat": 54.0365683,
    "lon": 10.2288646
  },
  "nodes": [
    434870644,
    2091242863,
    2091242903,
    2091242833,
    434870644
  ],
  "tags": {
    "amenity": "grave_yard",
    "name": "Waldfriedhof"
  }
},
{
  "type": "way",
  "id": 200635640,
  "center": {
    "lat": 54.0047580,
    "lon": 10.1684663
  },
  "nodes": [
    2106028558,
    2106028378,
    2106028355,
    2106028519,
    2106028451,
    2106028357,
    2106028529,
    2106028388,
    2106028383,
    9967380900,
    2106028558
  ],
  "tags": {
    "amenity": "grave_yard"
  }
},
{
  "type": "way",
  "id": 203863559,
  "center": {
    "lat": 54.2240192,
    "lon": 10.3649073
  },
  "nodes": [
    2138748654,
    2138748667,
    2138748665,
    2138748663,
    1316818381,
    2138748654
  ],
  "tags": {
    "landuse": "cemetery",
    "name": "Kleintierfriedhof Lehmkuhlen"
  }
},
{
  "type": "way",
  "id": 204705720,
  "center": {
    "lat": 54.1355206,
    "lon": 10.8257820
  },
  "nodes": [
    462664385,
    2146844954,
    2146844990,
    2146845020,
    462664344,
    2146845205,
    2146845218,
    2146846603,
    2146846277,
    1361427355,
    2146845267,
    462664385
  ],
  "tags": {
    "landuse": "cemetery"
  }
},
{
  "type": "way",
  "id": 206436867,
  "center": {
    "lat": 54.0543087,
    "lon": 10.5261828
  },
  "nodes": [
    2164420500,
    2164420501,
    364367398,
    2164420503,
    2164420502,
    2164420500
  ],
  "tags": {
    "landuse": "cemetery"
  }
},
{
  "type": "way",
  "id": 207999457,
  "center": {
    "lat": 54.7717162,
    "lon": 10.7136469
  },
  "nodes": [
    2182947624,
    2182947540,
    2182947644,
    2182947592,
    2182947563,
    2182947630,
    2182947561,
    2182947596,
    2182947571,
    2182947599,
    2182947624
  ],
  "tags": {
    "amenity": "grave_yard",
    "denomination": "lutheran",
    "religion": "christian",
    "source": "Geodatastyrelsen : FOT ortofoto"
  }
},
{
  "type": "way",
  "id": 211888417,
  "center": {
    "lat": 54.1320220,
    "lon": 10.6019000
  },
  "nodes": [
    2218252596,
    2218252673,
    2218252677,
    2218252599,
    2218252596
  ],
  "tags": {
    "amenity": "grave_yard",
    "description": "Adelsfriedhof"
  }
},
{
  "type": "way",
  "id": 219753373,
  "center": {
    "lat": 54.2899375,
    "lon": 10.4267516
  },
  "nodes": [
    2288901755,
    2288901747,
    2288901746,
    2288901761,
    2288901762,
    2288901780,
    2288901779,
    2288901782,
    2288901773,
    2288901786,
    2288901774,
    2288901791,
    2288901802,
    2288901805,
    2288901781,
    2288901764,
    2288901755
  ],
  "tags": {
    "amenity": "grave_yard"
  }
},
{
  "type": "way",
  "id": 231989553,
  "center": {
    "lat": 54.9350896,
    "lon": 10.7067346
  },
  "nodes": [
    5923669877,
    10873166486,
    10873166494,
    5923669878,
    5923669879,
    2403218989,
    10873176314,
    10873166468,
    2403219004,
    10873166449,
    2403219021,
    2403219034,
    5923669872,
    2403219051,
    2403219055,
    2403219053,
    2403219132,
    10873166490,
    2403219115,
    5923669860,
    2403219061,
    10872992678,
    2403219028,
    10873166493,
    10873176319,
    5923669875,
    5923669877
  ],
  "tags": {
    "landuse": "cemetery",
    "name": "Rudkøbing Kirkegård",
    "religion": "christian"
  }
},
{
  "type": "way",
  "id": 232354906,
  "center": {
    "lat": 54.1071107,
    "lon": 10.8017215
  },
  "nodes": [
    2407096090,
    2407096093,
    2407096091,
    2407096086,
    2407096090
  ],
  "tags": {
    "landuse": "cemetery",
    "name": "Euthanasie-Opfer der NS-Zeit"
  }
},
{
  "type": "way",
  "id": 232687742,
  "center": {
    "lat": 54.2181518,
    "lon": 10.8811314
  },
  "nodes": [
    2410209166,
    2410209162,
    2410209161,
    2410209171,
    2410209169,
    2410209173,
    2410209167,
    2410209170,
    2422555525,
    2422555452,
    3683348026,
    2422555470,
    3683348028,
    3683348029,
    2422555474,
    2410209172,
    2410209163,
    2422555432,
    2422555463,
    2410209165,
    2410209166
  ],
  "tags": {
    "denomination": "lutheran",
    "landuse": "cemetery",
    "name": "Friedhof Lensahn",
    "note:de": "Kein öffentlicher Durchgang. Radfahren nicht erlaubt. Keine Hunde mitbringen.",
    "opening_hours": "Mar Su[-1]-Oct Su[-1] -1 day: 07:15-20:30; Oct Su[-1]-Mar Su[-1] -1 day: 08:15-18:00",
    "religion": "christian",
    "website": "https://www.kirche-lensahn.de/friedhof/"
  }
},
{
  "type": "way",
  "id": 233364092,
  "center": {
    "lat": 54.3674400,
    "lon": 10.5078013
  },
  "nodes": [
    646736396,
    2417612613,
    2417612614,
    2417612612,
    2417612610,
    2417612611,
    2417612615,
    646736398,
    646736397,
    646736396
  ],
  "tags": {
    "landuse": "cemetery"
  }
},
{
  "type": "way",
  "id": 263118898,
  "center": {
    "lat": 54.9237871,
    "lon": 10.7498880
  },
  "nodes": [
    2687408688,
    2687408677,
    917366534,
    7054524994,
    2687408629,
    2687408607,
    10873403410,
    10873370993,
    5910185180,
    2687408609,
    7054525008,
    2687408615,
    2687408675,
    2687408679,
    7054525007,
    2687408683,
    10873371004,
    2687408681,
    2687408688
  ],
  "tags": {
    "amenity": "grave_yard",
    "denomination": "lutheran",
    "religion": "christian"
  }
},
{
  "type": "way",
  "id": 263118900,
  "center": {
    "lat": 54.8042394,
    "lon": 10.7023373
  },
  "nodes": [
    2687408440,
    2687408431,
    5335926996,
    5335926995,
    2687408436,
    2687408497,
    2687408508,
    10873403247,
    5752011971,
    2687408506,
    10873403242,
    10873403250,
    2687408504,
    5752011963,
    2687408502,
    2687408499,
    10873403234,
    2687408495,
    2687408444,
    5752011982,
    2687408440
  ],
  "tags": {
    "amenity": "grave_yard",
    "denomination": "lutheran",
    "religion": "christian"
  }
},
{
  "type": "way",
  "id": 265866834,
  "center": {
    "lat": 54.8158040,
    "lon": 10.7351118
  },
  "nodes": [
    2714785205,
    2714785197,
    10873545019,
    10873545012,
    2714785196,
    10873514996,
    2714785194,
    5712966290,
    10873514991,
    5712966291,
    2714785192,
    2714785195,
    2714785202,
    2714785203,
    5712966443,
    2714785204,
    2714785205
  ],
  "tags": {
    "amenity": "grave_yard"
  }
},
{
  "type": "way",
  "id": 265866837,
  "center": {
    "lat": 54.8649202,
    "lon": 10.7294171
  },
  "nodes": [
    2714785252,
    2714785253,
    2714785254,
    2714785255,
    2714785260,
    933689523,
    2714785292,
    2714785293,
    2714785294,
    2714785295,
    10875288537,
    5679441751,
    10875288527,
    2714785291,
    2714785274,
    2714785256,
    2714785252
  ],
  "tags": {
    "amenity": "grave_yard",
    "denomination": "lutheran",
    "religion": "christian"
  }
},
{
  "type": "way",
  "id": 265866838,
  "center": {
    "lat": 54.8611473,
    "lon": 10.6775888
  },
  "nodes": [
    2714785251,
    5901418418,
    2714785232,
    2714785233,
    2714785250,
    4552398394,
    2714785251
  ],
  "tags": {
    "amenity": "grave_yard",
    "source": "Geodatastyrelsen : FOT ortofoto"
  }
},
{
  "type": "way",
  "id": 265866839,
  "center": {
    "lat": 54.8343796,
    "lon": 10.7059986
  },
  "nodes": [
    545740383,
    2714785207,
    2714785206,
    545740452,
    545740382,
    545740383
  ],
  "tags": {
    "amenity": "grave_yard",
    "denomination": "lutheran",
    "religion": "christian",
    "source": "Geodatastyrelsen : FOT ortofoto"
  }
},
{
  "type": "way",
  "id": 265866841,
  "center": {
    "lat": 54.7510371,
    "lon": 10.6796846
  },
  "nodes": [
    2714785191,
    2714785188,
    2714785189,
    2714785169,
    2714785168,
    2714785190,
    2714785191
  ],
  "tags": {
    "amenity": "grave_yard",
    "denomination": "lutheran",
    "religion": "christian"
  }
},
{
  "type": "way",
  "id": 265866842,
  "center": {
    "lat": 54.9963906,
    "lon": 10.8411232
  },
  "nodes": [
    2714785389,
    2714785367,
    2714785361,
    2714785362,
    2714785363,
    2714785364,
    10876035294,
    10876060611,
    2714785387,
    2714785388,
    10876035298,
    10876060627,
    2714785389
  ],
  "tags": {
    "amenity": "grave_yard",
    "denomination": "lutheran",
    "religion": "christian",
    "source": "Geodatastyrelsen : FOT ortofoto"
  }
},
{
  "type": "way",
  "id": 265866843,
  "center": {
    "lat": 54.9237034,
    "lon": 10.8008340
  },
  "nodes": [
    2714785319,
    2714785320,
    4654362778,
    2714785308,
    2714785296,
    2714785297,
    10875848414,
    10875848433,
    10875848434,
    10875848412,
    2714785299,
    2714785298,
    2714785301,
    2714785300,
    2714785319
  ],
  "tags": {
    "amenity": "grave_yard",
    "source": "Geodatastyrelsen : FOT ortofoto"
  }
},
{
  "type": "way",
  "id": 286078658,
  "center": {
    "lat": 54.2760516,
    "lon": 10.2495023
  },
  "nodes": [
    2897177822,
    2897177274,
    2897177258,
    2897177256,
    2897177255,
    2897177252,
    4960727767,
    2897177250,
    2897177251,
    1188271073,
    1188271002,
    1188271489,
    1188271378,
    1188271272,
    2897177254,
    2897177253,
    1188271189,
    1188271116,
    2897177257,
    2897177260,
    2897177267,
    2897177289,
    10269046692,
    2897177813,
    2897177822
  ],
  "tags": {
    "landuse": "cemetery",
    "name": "Friedhof Raisdorf"
  }
},
{
  "type": "way",
  "id": 295979187,
  "center": {
    "lat": 54.3280833,
    "lon": 10.5658441
  },
  "nodes": [
    1330930004,
    286457916,
    1330929894,
    1330929559,
    1331017965,
    1331017962,
    1331017970,
    1172855425,
    2997409496,
    1330930004
  ],
  "tags": {
    "email": "info@ruheforst-gutpanker.de",
    "landuse": "cemetery",
    "name": "RuheForst Gut Panker",
    "website": "http://www.ruheforst-gutpanker.de/"
  }
},
{
  "type": "way",
  "id": 302310763,
  "center": {
    "lat": 54.1723185,
    "lon": 10.0307476
  },
  "nodes": [
    3065713370,
    3065713362,
    3065713359,
    3065713358,
    3065713360,
    3065713370
  ],
  "tags": {
    "landuse": "cemetery"
  }
},
{
  "type": "way",
  "id": 305628553,
  "center": {
    "lat": 54.3697957,
    "lon": 10.9741571
  },
  "nodes": [
    3102794971,
    3102794972,
    3102794973,
    3102794974,
    3102794975,
    3876304505,
    3876304500,
    3876304507,
    3876304511,
    3102794976,
    3102794971
  ],
  "tags": {
    "landuse": "cemetery",
    "name": "Friedhof Heiligenhafen",
    "religion": "christian"
  }
},
{
  "type": "way",
  "id": 311538433,
  "center": {
    "lat": 54.1305771,
    "lon": 10.3339043
  },
  "nodes": [
    3172121704,
    3172121705,
    3172121706,
    3172121707,
    3172121704
  ],
  "tags": {
    "denomination": "lutheran",
    "landuse": "cemetery",
    "name": "Familienfriedhof von Brockdorff-Ahlefeld",
    "religion": "christian"
  }
},
{
  "type": "way",
  "id": 365053823,
  "center": {
    "lat": 54.0046492,
    "lon": 10.5688643
  },
  "nodes": [
    3690983452,
    3690983453,
    3690983454,
    3690983456,
    3690983457,
    12247185134,
    12247185132,
    3690983452
  ],
  "tags": {
    "landuse": "cemetery"
  }
},
{
  "type": "way",
  "id": 375124646,
  "center": {
    "lat": 54.3209969,
    "lon": 10.5962721
  },
  "nodes": [
    1326198804,
    9433625444,
    3785132409,
    3785132410,
    3785132408,
    1326198804
  ],
  "tags": {
    "landuse": "cemetery",
    "name": "Familiengrabstätte Waldersee",
    "religion": "christian"
  }
},
{
  "type": "way",
  "id": 404571296,
  "center": {
    "lat": 54.3458427,
    "lon": 10.1271182
  },
  "nodes": [
    4068466933,
    4068466934,
    4068466935,
    4068466955,
    4068466956,
    4068466936,
    4068466933
  ],
  "tags": {
    "cemetery": "sector",
    "landuse": "cemetery",
    "name": "Kiel War Cemetery (CWGC)"
  }
},
{
  "type": "way",
  "id": 447808847,
  "center": {
    "lat": 54.2928601,
    "lon": 10.8841029
  },
  "nodes": [
    4448720770,
    4448720769,
    4448720767,
    4448720768,
    4448720770
  ],
  "tags": {
    "denomination": "lutheran",
    "landuse": "cemetery",
    "name:signed": "no",
    "religion": "christian"
  }
},
{
  "type": "way",
  "id": 460386797,
  "center": {
    "lat": 54.2441294,
    "lon": 10.9033498
  },
  "nodes": [
    4560570294,
    4560570284,
    4560570293,
    4560570292,
    4560570291,
    4560570290,
    4560570289,
    4560570288,
    4560570287,
    4560570286,
    4560570285,
    4560570294
  ],
  "tags": {
    "amenity": "grave_yard"
  }
},
{
  "type": "way",
  "id": 472313902,
  "center": {
    "lat": 54.2275137,
    "lon": 10.3504388
  },
  "nodes": [
    10787050840,
    4665277129,
    4665277130,
    4665277131,
    4665277132,
    4665277133,
    4665277134,
    4665277135,
    4665277136,
    4665277137,
    4665277138,
    4665277139,
    4665277140,
    4665277141,
    4665277142,
    4665277143,
    4665277144,
    4665277145,
    4665277146,
    10787050818,
    4665277148,
    4665277149,
    4665277150,
    4665277151,
    4665277152,
    10787050817,
    4665277153,
    4665277154,
    10787050840
  ],
  "tags": {
    "landuse": "cemetery",
    "name": "Ruhepark Lehmkuhlen",
    "phone": "+49 4342 766188",
    "website": "https://ruhepark-lehmkuhlen.de/"
  }
},
{
  "type": "way",
  "id": 473151718,
  "center": {
    "lat": 54.8642808,
    "lon": 10.7309554
  },
  "nodes": [
    4673165224,
    4673165223,
    4673165222,
    4673165221,
    4673165220,
    5679420310,
    4673165219,
    4673165218,
    4673165217,
    4673165216,
    4673165224
  ],
  "tags": {
    "landuse": "cemetery"
  }
},
{
  "type": "way",
  "id": 481082725,
  "center": {
    "lat": 54.2292721,
    "lon": 10.3502289
  },
  "nodes": [
    4740252544,
    4740252543,
    4740252542,
    4740252541,
    4740252540,
    4740252539,
    4740252538,
    4740252537,
    4740250612,
    4740252536,
    4740252535,
    4740250616,
    4740250615,
    4740250614,
    4740250613,
    385603285,
    4740252546,
    4740252545,
    4740252544
  ],
  "tags": {
    "amenity": "grave_yard"
  }
},
{
  "type": "way",
  "id": 491886580,
  "center": {
    "lat": 54.1779907,
    "lon": 10.1985164
  },
  "nodes": [
    1328312157,
    4839734226,
    4839734225,
    4839734216,
    1328312321,
    1328312157
  ],
  "tags": {
    "landuse": "cemetery"
  }
},
{
  "type": "way",
  "id": 512687092,
  "center": {
    "lat": 54.1873557,
    "lon": 10.7546939
  },
  "nodes": [
    2318152543,
    5012969441,
    5012969440,
    5012969439,
    5012969438,
    2318152539,
    5012969443,
    5012969442,
    2318152543
  ],
  "tags": {
    "amenity": "grave_yard"
  }
},
{
  "type": "way",
  "id": 512687106,
  "center": {
    "lat": 54.2879535,
    "lon": 10.8046312
  },
  "nodes": [
    5012969664,
    5012969663,
    5012969662,
    5012969661,
    4991350424,
    1328431311,
    5012969664
  ],
  "tags": {
    "amenity": "grave_yard"
  }
},
{
  "type": "way",
  "id": 875090158,
  "center": {
    "lat": 54.9969842,
    "lon": 10.5996116
  },
  "nodes": [
    8145653224,
    8145653225,
    8145653226,
    8145653227,
    8145653228,
    8145653229,
    8145653230,
    8145653231,
    8145653232,
    8145653242,
    8145653233,
    8150853134,
    8145653234,
    8145653235,
    8145653236,
    8145653237,
    8145653238,
    8145653239,
    8145653240,
    8145653241,
    8150853133,
    8145653224
  ],
  "tags": {
    "landuse": "cemetery",
    "surface": "sett"
  }
},
{
  "type": "way",
  "id": 957954304,
  "center": {
    "lat": 54.2310834,
    "lon": 10.2720731
  },
  "nodes": [
    8863905673,
    8863905674,
    8863905675,
    1074340839,
    1074340986,
    1074340742,
    1074340455,
    8863905669,
    8863905668,
    8863905671,
    8863905670,
    8863905673
  ],
  "tags": {
    "landuse": "cemetery",
    "name": "Friedhof"
  }
},
{
  "type": "way",
  "id": 986990033,
  "center": {
    "lat": 54.1792490,
    "lon": 10.5410454
  },
  "nodes": [
    9123011454,
    9123011455,
    9123011456,
    9123011457,
    9123011454
  ],
  "tags": {
    "amenity": "grave_yard",
    "name": "Ruhestätte der Familie Harms und Gliemann",
    "website": "https://www.carto.net/andre.mw/photos/2009/07/11_goslar_malente/20090711-174800_ruhestaette_der_familien_harms_und_gliemann_am_holzberg.shtml"
  }
},
{
  "type": "way",
  "id": 1001175993,
  "center": {
    "lat": 54.2919370,
    "lon": 10.7808868
  },
  "nodes": [
    9241282868,
    9241282869,
    9241282870,
    9241282871,
    9241282868
  ],
  "tags": {
    "landuse": "cemetery"
  }
},
{
  "type": "way",
  "id": 1036461823,
  "center": {
    "lat": 54.9975593,
    "lon": 10.5997649
  },
  "nodes": [
    9548910336,
    9548910396,
    9553698777,
    10242038717,
    9548910333,
    9548910370,
    9548890303,
    9548890302,
    9548890301,
    9548910343,
    9548890300,
    9548890299,
    9548890298,
    9548890297,
    9548890296,
    11782346199,
    11782346214,
    9551039404,
    11786574088,
    11786574092,
    11786574087,
    11786574086,
    11786574083,
    9551039376,
    11786574084,
    11786574085,
    11782346200,
    9548910389,
    9548910385,
    9548910387,
    9548910386,
    9553698785,
    9548910381,
    9548910368,
    9553698786,
    9548910367,
    9548910366,
    9548910365,
    9548910364,
    9548910363,
    9548910393,
    9548910362,
    9548910392,
    9548910361,
    9548910360,
    9548910346,
    9548910358,
    9548910357,
    9548910356,
    9548910355,
    9548910353,
    9548910354,
    9548910336
  ],
  "tags": {
    "landuse": "cemetery",
    "religion": "christian"
  }
},
{
  "type": "way",
  "id": 1042526142,
  "center": {
    "lat": 54.9368181,
    "lon": 10.7096614
  },
  "nodes": [
    9596513012,
    9596513011,
    10873179690,
    9596513010,
    10873179687,
    9596513008,
    9596513007,
    9596513012
  ],
  "tags": {
    "amenity": "grave_yard",
    "name": "Rudkøbing Kirkegård"
  }
},
{
  "type": "way",
  "id": 1076334731,
  "center": {
    "lat": 54.3167684,
    "lon": 10.1916681
  },
  "nodes": [
    9870263034,
    9870263035,
    9870263036,
    9870263037,
    9870263034
  ],
  "tags": {
    "cemetery": "sector",
    "landuse": "cemetery",
    "name": "Muslimische Grabfelder",
    "religion": "muslim"
  }
},
{
  "type": "way",
  "id": 1076334732,
  "center": {
    "lat": 54.3017084,
    "lon": 10.0537995
  },
  "nodes": [
    9870263041,
    9870263042,
    9870263038,
    1695831567,
    1462569775,
    9870263040,
    9870263039,
    9870263041
  ],
  "tags": {
    "cemetery": "pet",
    "landuse": "cemetery",
    "name": "Tierfriedhof",
    "url": "https://www.kiel.de/de/_data/ortsrecht_bekanntmachungen/root/download.php?typ=lf&fid=436ff7f903f5d936996bcb52dd54c9e2"
  }
},
{
  "type": "way",
  "id": 1077939616,
  "center": {
    "lat": 54.2204694,
    "lon": 10.5555136
  },
  "nodes": [
    9882993759,
    11669315896,
    9308480147,
    9882993760,
    9882995477,
    9882995476,
    9882995475,
    9882995474,
    9882995479,
    9882995473,
    9882995478,
    9882993761,
    559149691,
    75755543,
    747862595,
    747862594,
    9882993762,
    9882993763,
    9882995481,
    9882995463,
    9882993759
  ],
  "tags": {
    "landuse": "cemetery",
    "name": "Sankt Johannis Friedhof"
  }
},
{
  "type": "way",
  "id": 1268583163,
  "center": {
    "lat": 54.9973978,
    "lon": 10.5997344
  },
  "nodes": [
    11806673705,
    11804281715,
    11813180882,
    11944553905,
    11944558976,
    11944553893,
    11944553891,
    11888476174,
    11782346197,
    11782346196,
    11782346195,
    11782346194,
    12076589626,
    11782346193,
    11806673705
  ],
  "tags": {
    "cemetery": "grave",
    "landuse": "cemetery",
    "religion": "christian"
  }
},
{
  "type": "way",
  "id": 1409200621,
  "center": {
    "lat": 54.1495728,
    "lon": 10.9574940
  },
  "nodes": [
    12949374672,
    12949374673,
    12949374674,
    12949374675,
    12949374676,
    12949374677,
    12949374678,
    12949374679,
    12949374680,
    12949374681,
    12949374682,
    12949374683,
    12949374672
  ],
  "tags": {
    "amenity": "grave_yard"
  }
},
{
  "type": "relation",
  "id": 7733781,
  "center": {
    "lat": 54.9591395,
    "lon": 10.8026396
  },
  "members": [
    {
      "type": "way",
      "ref": 265866840,
      "role": "outer"
    },
    {
      "type": "way",
      "ref": 265866831,
      "role": "inner"
    }
  ],
  "tags": {
    "amenity": "grave_yard",
    "denomination": "lutheran",
    "religion": "christian",
    "source": "Geodatastyrelsen : FOT ortofoto",
    "type": "multipolygon"
  }
},
{
  "type": "relation",
  "id": 15007111,
  "center": {
    "lat": 54.9971266,
    "lon": 10.5995772
  },
  "members": [
    {
      "type": "way",
      "ref": 24215429,
      "role": "outer"
    },
    {
      "type": "way",
      "ref": 875090158,
      "role": "inner"
    }
  ],
  "tags": {
    "amenity": "grave_yard",
    "type": "multipolygon"
  }
}

  ]
}
