{
  "version": 0.6,
  "generator": "Overpass API 0.7.62.8 e802775f",
  "osm3s": {
    "timestamp_osm_base": "2025-11-02T22:52:14Z",
    "copyright": "The data included in this document is from www.openstreetmap.org. The data is made available under ODbL."
  },
  "elements": [

{
  "type": "way",
  "id": 4882552,
  "center": {
    "lat": 47.0629494,
    "lon": 15.4617944
  },
  "nodes": [
    1427993009,
    1427993013,
    1224657148,
    1224659010,
    1224656337,
    1224656623,
    1224657942,
    1224657235,
    1224659409,
    1224660494,
    1224657565,
    1224656400,
    1224658721,
    1224656289,
    627763296,
    2300071573,
    2300071560,
    31611283,
    1224657788,
    627763337,
    627763321,
    627763381,
    2702277320,
    1450514307,
    1870344017,
    31611285,
    993871495,
    1427993139,
    1427993152,
    489970007,
    4066625182,
    4066625184,
    1427993179,
    1427993183,
    31611288,
    8754049562,
    8754049563,
    8754049572,
    2516852161,
    31611290,
    1427993159,
    1427993135,
    632292761,
    632292759,
    1427993047,
    1427993040,
    12110765169,
    9435403886,
    9435403881,
    9435403883,
    1427993023,
    627763300,
    8653643422,
    1427993025,
    2516829603,
    1427993011,
    1224659980,
    4229171969,
    1427993007,
    1224656844,
    1427993009
  ],
  "tags": {
    "denomination": "catholic",
    "dog": "no",
    "landuse": "cemetery",
    "name": "Katholischer Friedhof Sankt Peter",
    "religion": "christian",
    "source": "geoimage.at"
  }
},
{
  "type": "way",
  "id": 4984360,
  "center": {
    "lat": 47.0775486,
    "lon": 15.4666367
  },
  "nodes": [
    33054351,
    11184040558,
    982623177,
    982622693,
    11184040557,
    33054355,
    982622720,
    8207765606,
    982622880,
    33054358,
    982622951,
    4175623933,
    33054361,
    982622775,
    982623045,
    982623206,
    2516483538,
    33054339,
    8222323015,
    4175623956,
    4175623957,
    982622853,
    6974105201,
    982622983,
    33054342,
    7020745041,
    982623394,
    4739407889,
    982622975,
    4739407888,
    33054345,
    4739407890,
    33054348,
    4739407891,
    4739407892,
    33054351
  ],
  "tags": {
    "landuse": "cemetery",
    "name": "Sankt-Leonhard-Friedhof",
    "religion": "christian",
    "source": "GeoImage.at",
    "wikidata": "Q28970964",
    "wikimedia_commons": "Category:Friedhof St. Leonhard (Graz)",
    "wikipedia": "de:Friedhof St. Leonhard"
  }
},
{
  "type": "way",
  "id": 23881189,
  "center": {
    "lat": 47.0668539,
    "lon": 15.4164183
  },
  "nodes": [
    258848331,
    258848332,
    258848333,
    8426959192,
    258848334,
    1051129954,
    258848335,
    1111635211,
    258848331
  ],
  "tags": {
    "landuse": "cemetery",
    "name": "Steinfeldfriedhof",
    "religion": "christian",
    "wall": "yes",
    "wikidata": "Q37810547"
  }
},
{
  "type": "way",
  "id": 24877740,
  "center": {
    "lat": 47.0222210,
    "lon": 15.3967824
  },
  "nodes": [
    270331117,
    1255781106,
    2549379879,
    270331126,
    1370813093,
    12806867293,
    270331129,
    270331143,
    270331144,
    1370810952,
    270331145,
    270331146,
    3364179699,
    270331117
  ],
  "tags": {
    "heritage": "2",
    "heritage:operator": "bda",
    "landuse": "cemetery",
    "name": "Friedhof Straßgang",
    "ref:at:bda": "122706",
    "religion": "christian",
    "wikimedia_commons": "File:Graz-Strassgang-Friedhof 6530.jpg"
  }
},
{
  "type": "way",
  "id": 26936918,
  "center": {
    "lat": 47.3554091,
    "lon": 15.6976028
  },
  "nodes": [
    10302666877,
    1442016476,
    1442016471,
    505149100,
    1410988616,
    7446480236,
    295164569,
    1410988619,
    7446480237,
    1410988620,
    1410988622,
    1410988626,
    7446480238,
    295164573,
    7446480239,
    7446480240,
    7446480241,
    7446480242,
    7446480243,
    7446480244,
    1410988624,
    10302666875,
    10302666876,
    10302666877
  ],
  "tags": {
    "denomination": "catholic",
    "landuse": "cemetery",
    "name": "Friedhof Birkfeld",
    "religion": "christian"
  }
},
{
  "type": "way",
  "id": 27084882,
  "center": {
    "lat": 47.1073842,
    "lon": 15.4934780
  },
  "nodes": [
    297159335,
    1448534631,
    1448534636,
    963326895,
    3580020298,
    1448534637,
    3580020304,
    1448534638,
    1296416042,
    1296415507,
    7040701638,
    1359989664,
    297159332,
    297159378,
    963326849,
    963327059,
    963326966,
    963326913,
    963327146,
    963327053,
    963326949,
    963326854,
    963327078,
    963326970,
    1942562102,
    963326877,
    963327101,
    1942562040,
    2361342865,
    963326998,
    297159334,
    1942561969,
    297159335
  ],
  "tags": {
    "landuse": "cemetery",
    "religion": "christian",
    "source": "GeoImage.at"
  }
},
{
  "type": "way",
  "id": 27131873,
  "center": {
    "lat": 47.0492862,
    "lon": 15.4215267
  },
  "nodes": [
    297676118,
    297676120,
    4733403345,
    297676122,
    297676218,
    297676118
  ],
  "tags": {
    "addr:city": "Graz",
    "addr:postcode": "8020",
    "addr:street": "Kapellenstraße",
    "denomination": "nondenominational",
    "landuse": "cemetery",
    "name": "Muslimischer Friedhof",
    "religion": "muslim"
  }
},
{
  "type": "way",
  "id": 27497794,
  "center": {
    "lat": 47.1113969,
    "lon": 15.3396226
  },
  "nodes": [
    301886948,
    5365857925,
    5810486181,
    5325757190,
    5365857924,
    301886839,
    301968150,
    5365857923,
    301886894,
    5365857922,
    301886895,
    301886896,
    5365853498,
    301886897,
    301886900,
    301886943,
    301964921,
    5365867625,
    301964922,
    3304289383,
    1393128944,
    301886948
  ],
  "tags": {
    "denomination": "catholic",
    "landuse": "cemetery",
    "name": "Friedhof Judendorf-Straßengel",
    "religion": "christian",
    "source": "gis.stmk.gv.at 2024"
  }
},
{
  "type": "way",
  "id": 27612388,
  "center": {
    "lat": 47.3737815,
    "lon": 15.0774813
  },
  "nodes": [
    303201482,
    303201484,
    303201496,
    303201485,
    303201486,
    4320370521,
    4320370520,
    4320370519,
    4320370518,
    4320370517,
    303201487,
    303201488,
    303201489,
    303201490,
    7177210500,
    303201491,
    7177210499,
    303201492,
    303201493,
    4320370516,
    3926181662,
    303201482
  ],
  "tags": {
    "barrier": "wall",
    "landuse": "cemetery",
    "name": "Friedhof Donawitz"
  }
},
{
  "type": "way",
  "id": 28200376,
  "center": {
    "lat": 47.8099924,
    "lon": 15.2893958
  },
  "nodes": [
    309742980,
    309742981,
    309742982,
    1580221347,
    309742980
  ],
  "tags": {
    "landuse": "cemetery"
  }
},
{
  "type": "way",
  "id": 28204237,
  "center": {
    "lat": 47.8510629,
    "lon": 15.5621659
  },
  "nodes": [
    309782565,
    309782566,
    1316464547,
    7551281976,
    309782568,
    309782569,
    309782565
  ],
  "tags": {
    "denomination": "lutheran",
    "landuse": "cemetery",
    "religion": "christian"
  }
},
{
  "type": "way",
  "id": 28204238,
  "center": {
    "lat": 47.8515588,
    "lon": 15.5631146
  },
  "nodes": [
    309782572,
    1309772183,
    309782580,
    309782582,
    1309772152,
    965962577,
    965962579,
    965962578,
    965962580,
    309782575,
    7551281981,
    309782573,
    309782572
  ],
  "tags": {
    "denomination": "catholic",
    "landuse": "cemetery",
    "religion": "christian"
  }
},
{
  "type": "way",
  "id": 28228448,
  "center": {
    "lat": 47.6455808,
    "lon": 15.9775307
  },
  "nodes": [
    310033831,
    310033832,
    310033833,
    5723790851,
    310033834,
    310033831
  ],
  "tags": {
    "landuse": "cemetery",
    "name": "Friedhof Kranichberg",
    "religion": "christian",
    "wikidata": "Q126919255"
  }
},
{
  "type": "way",
  "id": 29037222,
  "center": {
    "lat": 47.7383019,
    "lon": 15.9770044
  },
  "nodes": [
    319334610,
    1367466607,
    319339547,
    319339546,
    319334611,
    319334610
  ],
  "tags": {
    "landuse": "cemetery",
    "name": "Pfarrfriedhof Sieding"
  }
},
{
  "type": "way",
  "id": 29038639,
  "center": {
    "lat": 47.6588616,
    "lon": 15.8758443
  },
  "nodes": [
    319356663,
    1852171192,
    1852171194,
    1964271273,
    1852171193,
    319356664,
    1356663116,
    1356663115,
    1356663113,
    319356665,
    1964271246,
    319356666,
    319356663
  ],
  "tags": {
    "landuse": "cemetery",
    "name": "Friedhof Schottwien",
    "religion": "christian",
    "source": "plan.at 2008",
    "wikidata": "Q38172833"
  }
},
{
  "type": "way",
  "id": 29038640,
  "center": {
    "lat": 47.7000650,
    "lon": 15.9993484
  },
  "nodes": [
    319356668,
    319333181,
    319333182,
    8575844501,
    1401271304,
    319333188,
    319333189,
    319356671,
    319356672,
    319356673,
    319356674,
    319356667,
    319356668
  ],
  "tags": {
    "landuse": "cemetery",
    "name": "Friedhof Pottschach",
    "religion": "christian",
    "wikidata": "Q100546396"
  }
},
{
  "type": "way",
  "id": 29038645,
  "center": {
    "lat": 47.6707308,
    "lon": 15.9447381
  },
  "nodes": [
    319356702,
    319394965,
    9170486036,
    9170486032,
    319356703,
    1768639346,
    9170485999,
    9170485981,
    319356704,
    319325718,
    319356705,
    319356702
  ],
  "tags": {
    "landuse": "cemetery",
    "name": "Bergfriedhof",
    "source": "plan.at 2008,geoimage.at",
    "wikidata": "Q125918930"
  }
},
{
  "type": "way",
  "id": 29038648,
  "center": {
    "lat": 47.6414826,
    "lon": 15.9349944
  },
  "nodes": [
    319356715,
    11403252565,
    319356718,
    319356719,
    11403252564,
    11403252563,
    319356720,
    1758871172,
    319356721,
    1758871174,
    319356715
  ],
  "tags": {
    "landuse": "cemetery",
    "religion": "christian",
    "source": "plan.at 2008"
  }
},
{
  "type": "way",
  "id": 29038649,
  "center": {
    "lat": 47.6415071,
    "lon": 15.8590569
  },
  "nodes": [
    319356722,
    4173049073,
    4173048948,
    4173048947,
    4173048950,
    4173048949,
    319356724,
    11693097087,
    11693097086,
    11693097089,
    11693097088,
    262226799,
    1774005929,
    319356722
  ],
  "tags": {
    "landuse": "cemetery",
    "name": "Friedhof Maria Schutz",
    "religion": "christian",
    "source": "plan.at 2008"
  }
},
{
  "type": "way",
  "id": 29038650,
  "center": {
    "lat": 47.6951240,
    "lon": 15.8640192
  },
  "nodes": [
    319356726,
    319356727,
    319356729,
    319356730,
    319356726
  ],
  "tags": {
    "landuse": "cemetery",
    "name": "Friedhof Payerbach",
    "source": "plan.at 2008; goeimage.at",
    "wikidata": "Q72164794"
  }
},
{
  "type": "way",
  "id": 29038651,
  "center": {
    "lat": 47.6933805,
    "lon": 15.8078859
  },
  "nodes": [
    319356731,
    319356732,
    319356733,
    319356734,
    319356731
  ],
  "tags": {
    "landuse": "cemetery",
    "name": "Friedhof Edlach",
    "source": "plan.at 2008"
  }
},
{
  "type": "way",
  "id": 29038652,
  "center": {
    "lat": 47.7055075,
    "lon": 15.8282680
  },
  "nodes": [
    319356735,
    319356736,
    11753558589,
    319356737,
    956208998,
    319356738,
    956209203,
    319356739,
    11753558628,
    11753558627,
    1010849116,
    1010849282,
    11753558593,
    11753558594,
    11753558595,
    11753558596,
    11753558597,
    11753558598,
    11753558586,
    319356735
  ],
  "tags": {
    "landuse": "cemetery",
    "name": "Friedhof Reichenau an der Rax",
    "wikidata": "Q38125734"
  }
},
{
  "type": "way",
  "id": 29038656,
  "center": {
    "lat": 47.7978143,
    "lon": 15.9860876
  },
  "nodes": [
    319356762,
    1261626099,
    1261626098,
    319356763,
    1261626097,
    2448164887,
    11882281955,
    11882281954,
    1261626096,
    319356764,
    1007838834,
    1007838838,
    1007838840,
    2448164898,
    2448164902,
    2448164901,
    319356765,
    319356762
  ],
  "tags": {
    "heritage": "2",
    "heritage:operator": "bda",
    "landuse": "cemetery",
    "ref:at:bda": "93658",
    "religion": "christian",
    "source": "plan.at 2008"
  }
},
{
  "type": "way",
  "id": 29038658,
  "center": {
    "lat": 47.8129679,
    "lon": 15.7064056
  },
  "nodes": [
    6646250903,
    6699450816,
    6646250904,
    319356772,
    7532113753,
    319356773,
    319356774,
    6699450815,
    6646250903
  ],
  "tags": {
    "landuse": "cemetery"
  }
},
{
  "type": "way",
  "id": 29716067,
  "center": {
    "lat": 47.0620507,
    "lon": 15.5443052
  },
  "nodes": [
    327384785,
    327384788,
    327384792,
    11821684476,
    10821480666,
    11142825776,
    327384807,
    327384810,
    327384785
  ],
  "tags": {
    "denomination": "roman_catholic",
    "email": "autal@graz-seckau.at",
    "landuse": "cemetery",
    "name": "Waldfriedhof Autal",
    "phone": "+43 316 491165",
    "religion": "christian",
    "source": "local knowledge",
    "wikidata": "Q128883396"
  }
},
{
  "type": "way",
  "id": 29716097,
  "center": {
    "lat": 47.0912864,
    "lon": 15.4164734
  },
  "nodes": [
    327384914,
    327384917,
    327384920,
    1253018761,
    327384923,
    357521357,
    357521359,
    357521361,
    357521366,
    357521368,
    357521370,
    357521364,
    327384925,
    327384914
  ],
  "tags": {
    "landuse": "cemetery",
    "name": "Kalvarienberg Friedhof",
    "religion": "christian",
    "source": "plan.at 2009"
  }
},
{
  "type": "way",
  "id": 29716154,
  "center": {
    "lat": 47.0484468,
    "lon": 15.4088595
  },
  "nodes": [
    327385124,
    327385151,
    2343906388,
    327385148,
    2343906384,
    2343906383,
    2343906382,
    2343906380,
    2343906381,
    327385139,
    7726493882,
    1118723749,
    2343906375,
    2343906373,
    2483608630,
    2343906374,
    2483608622,
    2483608660,
    327385135,
    2483608647,
    1128255434,
    2343906385,
    2343906386,
    1128255429,
    2343906387,
    2343906389,
    327385132,
    327385124
  ],
  "tags": {
    "barrier": "fence",
    "denomination": "lutheran",
    "landuse": "cemetery",
    "name": "Evangelischer Friedhof",
    "religion": "christian"
  }
},
{
  "type": "way",
  "id": 29716160,
  "center": {
    "lat": 47.0583077,
    "lon": 15.4142824
  },
  "nodes": [
    327385161,
    2489214905,
    2489214903,
    2489214918,
    327385165,
    10211810440,
    327385169,
    10211810441,
    10211810442,
    10606948399,
    10211810445,
    10211810448,
    10211810449,
    4327958330,
    2489214911,
    2489214912,
    327385161
  ],
  "tags": {
    "description": "Die Friedhofsanlage ist aus sicherheitstechnischen Gründen nicht öffentlich zugänglich.",
    "heritage": "2",
    "heritage:operator": "bda",
    "landuse": "cemetery",
    "name": "Israelitischer Friedhof",
    "ref:at:bda": "115086",
    "religion": "jewish",
    "source": "plan.at 2009",
    "start_date": "1865",
    "wikidata": "Q1716679",
    "wikipedia": "de:Jüdischer Friedhof Graz"
  }
},
{
  "type": "way",
  "id": 29716188,
  "center": {
    "lat": 47.1335622,
    "lon": 15.3667943
  },
  "nodes": [
    327385310,
    327385314,
    327385318,
    327385322,
    347395540,
    327385310
  ],
  "tags": {
    "landuse": "cemetery",
    "name": "Friedhof Dult",
    "source": "plan.at 2009"
  }
},
{
  "type": "way",
  "id": 29716205,
  "center": {
    "lat": 47.1337500,
    "lon": 15.3169611
  },
  "nodes": [
    327385363,
    4453448927,
    327385367,
    327385370,
    327385373,
    881388326,
    1223960245,
    327385363
  ],
  "tags": {
    "denomination": "roman_catholic",
    "heritage": "2",
    "heritage:operator": "bda",
    "landuse": "cemetery",
    "name": "Friedhof Gratwein",
    "ref:at:bda": "115698",
    "religion": "christian",
    "source": "GPS",
    "wikidata": "Q37774345"
  }
},
{
  "type": "way",
  "id": 29716212,
  "center": {
    "lat": 47.2664740,
    "lon": 15.3116639
  },
  "nodes": [
    327385382,
    12133954866,
    2644958180,
    2644958181,
    12124960117,
    2644958182,
    2644958185,
    6312708586,
    2644958184,
    2644958183,
    12124960114,
    327385385,
    327385389,
    2649494069,
    2649494070,
    2649494065,
    2649494068,
    2649494067,
    2649494066,
    2649494064,
    6312708585,
    2649494063,
    2649494072,
    2649494071,
    2426560244,
    327385393,
    1072540191,
    12133954868,
    327385396,
    327385382
  ],
  "tags": {
    "heritage": "2",
    "heritage:operator": "bda",
    "landuse": "cemetery",
    "ref:at:bda": "114387",
    "wikidata": "Q37772052"
  }
},
{
  "type": "way",
  "id": 30182014,
  "center": {
    "lat": 47.1050300,
    "lon": 15.8323109
  },
  "nodes": [
    332567671,
    3658633861,
    3658633219,
    3658633986,
    3658633183,
    1717374187,
    1717374183,
    334113199,
    332567674,
    332567671
  ],
  "tags": {
    "denomination": "roman_catholic",
    "landuse": "cemetery",
    "name": "Friedhof Sinabelkirchen",
    "religion": "christian",
    "wikidata": "Q128881799"
  }
},
{
  "type": "way",
  "id": 30293429,
  "center": {
    "lat": 47.0126448,
    "lon": 15.4424945
  },
  "nodes": [
    333978647,
    333978648,
    333978650,
    1028146165,
    1028145465,
    333978651,
    2199592725,
    333978647
  ],
  "tags": {
    "heritage": "2",
    "heritage:operator": "bda",
    "landuse": "cemetery",
    "name": "Alter Friedhof",
    "ref:at:bda": "115549",
    "start_date": "1042",
    "wikidata": "Q37774076"
  }
},
{
  "type": "way",
  "id": 30302824,
  "center": {
    "lat": 47.2221266,
    "lon": 15.6356661
  },
  "nodes": [
    334106592,
    334106604,
    1904500356,
    1904500357,
    334106608,
    1904500354,
    1904500353,
    334106612,
    334106615,
    11116065884,
    11116065883,
    11116065885,
    11116065882,
    334106619,
    1363775854,
    334106622,
    334106625,
    334106629,
    334106592
  ],
  "tags": {
    "landuse": "cemetery",
    "religion": "christian",
    "wikidata": "Q128881808"
  }
},
{
  "type": "way",
  "id": 30328573,
  "center": {
    "lat": 47.7717511,
    "lon": 15.3140990
  },
  "nodes": [
    334413062,
    3033121635,
    3033121221,
    3033121222,
    334413063,
    904224335,
    334413066,
    334413069,
    334413072,
    1077107691,
    334413074,
    334413076,
    1077107846,
    1423279380,
    334413077,
    3033121660,
    3033121671,
    3033121668,
    1423279381,
    3033121658,
    1423279379,
    334413062
  ],
  "tags": {
    "landuse": "cemetery"
  }
},
{
  "type": "way",
  "id": 30364849,
  "center": {
    "lat": 47.5395866,
    "lon": 15.5576688
  },
  "nodes": [
    334964681,
    334964683,
    12813610540,
    12813610531,
    334962790,
    334962788,
    1500634518,
    1500634516,
    334964681
  ],
  "tags": {
    "landuse": "cemetery",
    "name": "Friedhof Krieglach",
    "wikidata": "Q128804558"
  }
},
{
  "type": "way",
  "id": 30365554,
  "center": {
    "lat": 47.5232683,
    "lon": 15.4910951
  },
  "nodes": [
    334975304,
    334975302,
    10728735728,
    10728735734,
    10728735733,
    10728735731,
    10728735732,
    10728735729,
    10728735723,
    10728735807,
    10728735722,
    334975294,
    10728735815,
    10728735814,
    1615947638,
    334975296,
    334975306,
    334975305,
    8895368841,
    10728735720,
    334975304
  ],
  "tags": {
    "landuse": "cemetery",
    "name": "Friedhof Wartberg im Mürztal",
    "source": "plan.at 2009",
    "wikidata": "Q128822071"
  }
},
{
  "type": "way",
  "id": 30512634,
  "center": {
    "lat": 47.8939307,
    "lon": 15.9496617
  },
  "nodes": [
    336803664,
    336803667,
    4360522122,
    4360406167,
    4360406168,
    1096598914,
    336803674,
    336803676,
    4360406125,
    4360406124,
    336803678,
    1733720652,
    3387823703,
    336803664
  ],
  "tags": {
    "addr:postcode": "2763",
    "landuse": "cemetery",
    "name": "Friedhof Pernitz",
    "source": "plan.at 2009,geoimage.at",
    "wikidata": "Q128801704"
  }
},
{
  "type": "way",
  "id": 30512635,
  "center": {
    "lat": 47.8750887,
    "lon": 15.8832346
  },
  "nodes": [
    1733719539,
    3711183300,
    336822165,
    336803689,
    1733719528,
    1733719527,
    3711183312,
    3328765614,
    336803692,
    3328765615,
    1733719526,
    336803695,
    3711183299,
    1733719540,
    1733719539
  ],
  "tags": {
    "landuse": "cemetery",
    "name": "Bergfriedhof",
    "wikidata": "Q128419702"
  }
},
{
  "type": "way",
  "id": 30516041,
  "center": {
    "lat": 47.4304508,
    "lon": 15.0101369
  },
  "nodes": [
    336903032,
    336903034,
    8419513395,
    8419513394,
    8419513393,
    336903037,
    336903040,
    1163159973,
    8419513391,
    1163159895,
    336903044,
    336903047,
    336903049,
    336903051,
    336903053,
    336903055,
    6514962610,
    336903058,
    1163159838,
    1163159880,
    336903032
  ],
  "tags": {
    "landuse": "cemetery",
    "source": "plan.at 2009"
  }
},
{
  "type": "way",
  "id": 30516464,
  "center": {
    "lat": 47.3568506,
    "lon": 15.0918402
  },
  "nodes": [
    336911778,
    336911781,
    963275372,
    336911784,
    1462650453,
    3923721078,
    1462650458,
    336911787,
    336911790,
    3892040307,
    962031030,
    336911797,
    962030920,
    336911799,
    336911802,
    336911805,
    3892040308,
    336911778
  ],
  "tags": {
    "landuse": "cemetery",
    "name": "Erhardi-Friedhof",
    "source": "plan.at 2009"
  }
},
{
  "type": "way",
  "id": 30516467,
  "center": {
    "lat": 47.3983842,
    "lon": 15.1620758
  },
  "nodes": [
    336911855,
    3928307960,
    336911858,
    4870271305,
    336911421,
    336911867,
    336911869,
    336911871,
    336911855
  ],
  "tags": {
    "landuse": "cemetery",
    "source": "plan.at 2009; geoimage.at"
  }
},
{
  "type": "way",
  "id": 30516469,
  "center": {
    "lat": 47.3832635,
    "lon": 15.1089143
  },
  "nodes": [
    4349648593,
    4349648591,
    6314970642,
    4349648590,
    336911890,
    5121659799,
    336911893,
    1834963845,
    2569038417,
    2569038419,
    2569038420,
    2569038421,
    2569038418,
    336911896,
    336911899,
    4478296055,
    1834963874,
    336911902,
    336911905,
    4478296060,
    1834963877,
    6314970638,
    2569038454,
    4478296065,
    336911908,
    1834963889,
    6314970641,
    6314970639,
    6314970640,
    4478296066,
    4349648593
  ],
  "tags": {
    "landuse": "cemetery",
    "name": "Zentralfriedhof",
    "name:en": "Central cemetery"
  }
},
{
  "type": "way",
  "id": 30552182,
  "center": {
    "lat": 47.9749216,
    "lon": 15.9768622
  },
  "nodes": [
    337565106,
    337565111,
    337565115,
    337565121,
    1232588813,
    1232588811,
    337565106
  ],
  "tags": {
    "landuse": "cemetery",
    "name": "Friedhof Furth an der Triesting",
    "source": "plan.at 2009,geoimage.at"
  }
},
{
  "type": "way",
  "id": 30560374,
  "center": {
    "lat": 47.0822169,
    "lon": 15.1010660
  },
  "nodes": [
    337674665,
    337674670,
    3870732769,
    337674674,
    337674680,
    337674686,
    337674691,
    337674696,
    337674665
  ],
  "tags": {
    "landuse": "cemetery",
    "name": "Friedhof Piber",
    "religion": "christian",
    "source": "plan.at 2009"
  }
},
{
  "type": "way",
  "id": 30560538,
  "center": {
    "lat": 47.0676229,
    "lon": 15.0865728
  },
  "nodes": [
    337676109,
    4217213373,
    337676115,
    337676127,
    337676134,
    337676140,
    337676145,
    337676149,
    337676154,
    337676159,
    337676166,
    337676171,
    337676176,
    337676182,
    4217213372,
    337676109
  ],
  "tags": {
    "landuse": "cemetery",
    "religion": "christian",
    "source": "plan.at 2009"
  }
},
{
  "type": "way",
  "id": 30560710,
  "center": {
    "lat": 47.0643870,
    "lon": 15.0607400
  },
  "nodes": [
    337678125,
    1455093883,
    337678131,
    2967456874,
    337678142,
    337678149,
    11915741507,
    337678156,
    337678168,
    13121635938,
    337678197,
    11915741508,
    2967457997,
    2967456894,
    337678125
  ],
  "tags": {
    "landuse": "cemetery",
    "name": "Friedhof Maria Lankowitz",
    "religion": "christian",
    "source": "plan.at 2009"
  }
},
{
  "type": "way",
  "id": 30568301,
  "center": {
    "lat": 47.0574605,
    "lon": 15.1376042
  },
  "nodes": [
    337790073,
    337790075,
    337790078,
    337790081,
    337790084,
    337790088,
    337790093,
    337790097,
    337790103,
    1109533228,
    3406789589,
    3406789573,
    3406789591,
    337790108,
    1109533250,
    337790073
  ],
  "tags": {
    "landuse": "cemetery",
    "name": "Friedhof Voitsberg",
    "religion": "christian",
    "source": "plan.at 2009",
    "website": "http://voitsberg.graz-seckau.at/friedhof-der-pfarre-voitsberg?d=uebersichtsplan-zum-friedhof#.VQqYmCjch0s"
  }
},
{
  "type": "way",
  "id": 30796210,
  "center": {
    "lat": 47.3644469,
    "lon": 15.3328005
  },
  "nodes": [
    340883490,
    10837414973,
    10837414977,
    10837414974,
    10837414976,
    10837414975,
    926319462,
    340883491,
    340883492,
    10837414972,
    10837414971,
    10837414970,
    10837414963,
    10837414966,
    340883493,
    10837414978,
    10837414979,
    340883490
  ],
  "tags": {
    "denomination": "catholic",
    "landuse": "cemetery",
    "name": "Friedhof Kirchdorf",
    "religion": "christian"
  }
},
{
  "type": "way",
  "id": 31980997,
  "center": {
    "lat": 47.1685913,
    "lon": 15.8091918
  },
  "nodes": [
    358406285,
    10311329746,
    358406286,
    6092963380,
    2839382898,
    358406287,
    358406288,
    358406289,
    10311329733,
    2839382820,
    358406285
  ],
  "tags": {
    "landuse": "cemetery",
    "name": "Friedhof Pischelsdorf in der Steiermark",
    "religion": "christian"
  }
},
{
  "type": "way",
  "id": 32463321,
  "center": {
    "lat": 47.5686381,
    "lon": 15.6265586
  },
  "nodes": [
    364977269,
    4939725603,
    4939725593,
    364977270,
    4939725602,
    4939725597,
    4939725596,
    4939725601,
    364977271,
    4939725600,
    364977273,
    364977274,
    4939725612,
    4939725611,
    364977275,
    4939725610,
    4939725609,
    4939725608,
    364977276,
    4939725607,
    4939725606,
    364977277,
    4939725605,
    364977278,
    4939725604,
    364977279,
    364977269
  ],
  "tags": {
    "landuse": "cemetery",
    "name": "Friedhof Langenwang",
    "wikidata": "Q128804559"
  }
},
{
  "type": "way",
  "id": 32467996,
  "center": {
    "lat": 47.5971802,
    "lon": 15.6664807
  },
  "nodes": [
    10697305629,
    3457371198,
    10697305509,
    3457370585,
    7837416456,
    10697305657,
    10697305623,
    10697305652,
    10697305624,
    10697305644,
    10697305645,
    10697305651,
    365014526,
    10697305636,
    10697305640,
    365014528,
    10697305516,
    10697305619,
    10697305618,
    365014530,
    10697305620,
    1501814473,
    1501814471,
    365014531,
    10697305625,
    10697305626,
    1501814482,
    10697305627,
    10697305628,
    365014532,
    10697305629
  ],
  "tags": {
    "contact:website": "http://www.stadtwerkemuerzzuschlag.at/bestattung_muerz",
    "landuse": "cemetery",
    "name": "Stadtfriedhof Mürzzuschlag",
    "operator": "Stadtwerke Mürzzuschlag GmbH",
    "religion": "christian",
    "wikidata": "Q128804560"
  }
},
{
  "type": "way",
  "id": 32556207,
  "center": {
    "lat": 47.3377030,
    "lon": 15.0218914
  },
  "nodes": [
    366163942,
    1050223434,
    1050223387,
    2455110524,
    1050223310,
    1050223423,
    366163943,
    5208887366,
    1050223374,
    366163944,
    12199258546,
    12199258547,
    12199258548,
    1050223436,
    12199258549,
    1050223389,
    366163946,
    2455110526,
    1050223447,
    1050223400,
    1050223339,
    1050223322,
    366163942
  ],
  "tags": {
    "barrier": "fence",
    "heritage": "2",
    "historic": "heritage",
    "landuse": "cemetery",
    "religion": "christian",
    "wikidata": "Q38126645"
  }
},
{
  "type": "way",
  "id": 34599486,
  "center": {
    "lat": 47.5080961,
    "lon": 15.4550143
  },
  "nodes": [
    401706005,
    6553781383,
    6553781375,
    401706007,
    1411962496,
    1411962506,
    1411962514,
    6553799150,
    401706009,
    6553799149,
    6553799148,
    6553799147,
    1754106328,
    401706011,
    1411962515,
    1411962529,
    6553781382,
    401706005
  ],
  "tags": {
    "landuse": "cemetery",
    "name": "Friedhof Kindberg",
    "religion": "christian",
    "wikidata": "Q129206400"
  }
},
{
  "type": "way",
  "id": 37792794,
  "center": {
    "lat": 47.8621142,
    "lon": 15.0308464
  },
  "nodes": [
    443309105,
    443309106,
    2979350235,
    443309107,
    9784089720,
    443309108,
    443309105
  ],
  "tags": {
    "denomination": "catholic",
    "landuse": "cemetery",
    "religion": "christian"
  }
},
{
  "type": "way",
  "id": 38141721,
  "center": {
    "lat": 47.0294703,
    "lon": 15.9541424
  },
  "nodes": [
    448899282,
    448899283,
    3598401542,
    448899284,
    4118063564,
    4118063565,
    3598401544,
    448899285,
    448899308,
    448899282
  ],
  "tags": {
    "landuse": "cemetery",
    "name": "Friedhof Breitenfeld an der Rittschein"
  }
},
{
  "type": "way",
  "id": 38622150,
  "center": {
    "lat": 47.9345638,
    "lon": 15.4946189
  },
  "nodes": [
    457478073,
    1416348286,
    457478075,
    457478077,
    457478078,
    1363041631,
    457478080,
    1045154918,
    1416348302,
    457478081,
    457478082,
    457478073
  ],
  "tags": {
    "landuse": "cemetery",
    "name": "Friedhof Türnitz",
    "religion": "christian"
  }
},
{
  "type": "way",
  "id": 38869296,
  "center": {
    "lat": 47.6708287,
    "lon": 15.9405501
  },
  "nodes": [
    310117612,
    5271464228,
    5261762876,
    5271464229,
    5261762875,
    461726018,
    6906817417,
    5271464231,
    461726020,
    461726022,
    5271464230,
    310117612
  ],
  "tags": {
    "landuse": "cemetery",
    "name": "Waldfriedhof",
    "wikidata": "Q125918915"
  }
},
{
  "type": "way",
  "id": 39426186,
  "center": {
    "lat": 47.0083745,
    "lon": 15.2251833
  },
  "nodes": [
    472295476,
    472296220,
    472295481,
    472295483,
    472295484,
    472295476
  ],
  "tags": {
    "landuse": "cemetery"
  }
},
{
  "type": "way",
  "id": 43662664,
  "center": {
    "lat": 47.8147704,
    "lon": 15.2932809
  },
  "nodes": [
    552404540,
    882608053,
    882608186,
    552404541,
    552404542,
    552404543,
    7635365769,
    552404540
  ],
  "tags": {
    "landuse": "cemetery"
  }
},
{
  "type": "way",
  "id": 58276382,
  "center": {
    "lat": 47.3988648,
    "lon": 15.1362642
  },
  "nodes": [
    722723762,
    7170286994,
    722723777,
    7170286995,
    7170286964,
    7170287019,
    7170286996,
    722723779,
    7170287000,
    7170286999,
    7170286998,
    7170287003,
    722723787,
    7170287018,
    7170287017,
    722723789,
    722723758,
    7170287016,
    722723783,
    7170286965,
    722723762
  ],
  "tags": {
    "landuse": "cemetery",
    "name": "Proleber Friedhof"
  }
},
{
  "type": "way",
  "id": 67039697,
  "center": {
    "lat": 47.3430420,
    "lon": 15.9911932
  },
  "nodes": [
    287628578,
    810146575,
    1137539249,
    810146429,
    810146773,
    983475456,
    810146310,
    810146768,
    7077504594,
    357439640,
    1137539459,
    287628578
  ],
  "tags": {
    "denomination": "catholic",
    "landuse": "cemetery",
    "name": "Friedhof Grafendorf",
    "religion": "christian"
  }
},
{
  "type": "way",
  "id": 70139916,
  "center": {
    "lat": 47.3205255,
    "lon": 15.6885606
  },
  "nodes": [
    837795163,
    837795525,
    837795046,
    837794537,
    837795352,
    837794835,
    837795163
  ],
  "tags": {
    "denomination": "catholic",
    "landuse": "cemetery",
    "name": "Friedhof Koglhof",
    "religion": "christian"
  }
},
{
  "type": "way",
  "id": 75216936,
  "center": {
    "lat": 47.5299906,
    "lon": 15.9136811
  },
  "nodes": [
    11584118250,
    888026595,
    888026596,
    888026597,
    888026599,
    11584118248,
    888026630,
    11584118252,
    11584118253,
    11584118251,
    888026645,
    11584118249,
    11584118250
  ],
  "tags": {
    "cemetery": "war_cemetery",
    "landuse": "cemetery",
    "period": "1945",
    "religion": "christian"
  }
},
{
  "type": "way",
  "id": 75889237,
  "center": {
    "lat": 47.7845270,
    "lon": 15.9113017
  },
  "nodes": [
    895736111,
    895736119,
    11873378679,
    895736120,
    895736121,
    11873366296,
    2018996577,
    895736123,
    895736124,
    895736111
  ],
  "tags": {
    "landuse": "cemetery"
  }
},
{
  "type": "way",
  "id": 77908055,
  "center": {
    "lat": 47.4465618,
    "lon": 15.2873073
  },
  "nodes": [
    915636623,
    915636625,
    915636627,
    9520473564,
    915636633,
    915636635,
    9520461340,
    915636640,
    948082071,
    5271570609,
    915636644,
    915636646,
    915636648,
    915636649,
    915636650,
    915636651,
    915636652,
    915636655,
    915636657,
    915636659,
    915636661,
    915636663,
    915636665,
    9520473660,
    915636666,
    1669832109,
    1669832072,
    1669832097,
    1524985403,
    1669832102,
    1669832095,
    915636667,
    9520473684,
    9520473683,
    915636675,
    915636677,
    915636678,
    915636679,
    3904140975,
    915636680,
    1546900972,
    1546900914,
    1546900910,
    915636681,
    1546900976,
    948082090,
    915636683,
    1546900992,
    1546897476,
    1546897494,
    1546897477,
    948082087,
    948082084,
    915636685,
    915636687,
    915636623
  ],
  "tags": {
    "landuse": "cemetery",
    "name": "Stadtfriedhof",
    "wikidata": "Q129066159"
  }
},
{
  "type": "way",
  "id": 83046690,
  "center": {
    "lat": 47.6949072,
    "lon": 15.8649916
  },
  "nodes": [
    966159278,
    10232645876,
    1186655567,
    1186656133,
    8618136140,
    966159174,
    8618136139,
    10232645877,
    966158864,
    966159278
  ],
  "tags": {
    "landuse": "cemetery",
    "source": "geoimage.at"
  }
},
{
  "type": "way",
  "id": 83203972,
  "center": {
    "lat": 47.5261688,
    "lon": 15.2308091
  },
  "nodes": [
    968153856,
    10837042558,
    10837042559,
    968153776,
    10837042567,
    10837042566,
    10837042565,
    10837042564,
    968153877,
    10837042563,
    10837042562,
    10837042561,
    10837042560,
    968153863,
    10837008501,
    4842593046,
    10837042568,
    968153803,
    10837042571,
    1536441021,
    1536441007,
    1536441006,
    1536441010,
    10837008502,
    968153821,
    951480878,
    968153856
  ],
  "tags": {
    "landuse": "cemetery",
    "wikidata": "Q128398984"
  }
},
{
  "type": "way",
  "id": 85998048,
  "center": {
    "lat": 47.8700085,
    "lon": 15.1473647
  },
  "nodes": [
    998113412,
    998112218,
    998114378,
    998113721,
    998113412
  ],
  "tags": {
    "landuse": "cemetery"
  }
},
{
  "type": "way",
  "id": 86013176,
  "center": {
    "lat": 47.9846709,
    "lon": 15.0215400
  },
  "nodes": [
    998184275,
    8626030308,
    998183684,
    8941185090,
    1901368793,
    998183532,
    8842864977,
    8842864976,
    5042674521,
    5042674522,
    5042671512,
    5042671513,
    5042671514,
    5042671515,
    5042671516,
    5042671517,
    8842864974,
    8842864975,
    8941207270,
    998183032,
    998184275
  ],
  "tags": {
    "landuse": "cemetery",
    "name": "Friedhof Gresten",
    "religion": "christian",
    "wikidata": "Q37872306"
  }
},
{
  "type": "way",
  "id": 86072219,
  "center": {
    "lat": 47.9280988,
    "lon": 15.2880786
  },
  "nodes": [
    998807348,
    998807200,
    998806209,
    998806712,
    2994386115,
    998807348
  ],
  "tags": {
    "landuse": "cemetery",
    "source": "geoimage.at"
  }
},
{
  "type": "way",
  "id": 88524467,
  "center": {
    "lat": 47.0138090,
    "lon": 15.4403125
  },
  "nodes": [
    1028146350,
    2311361556,
    1028146001,
    1028146779,
    1028146951,
    10605214261,
    2659330599,
    2659330377,
    2659330447,
    2659329820,
    10605214260,
    1028147639,
    2311361554,
    10605214259,
    10605214258,
    1028145528,
    10605214257,
    1028146350
  ],
  "tags": {
    "landuse": "cemetery",
    "name": "Neuer Friedhof",
    "source": "OGD Steiermark"
  }
},
{
  "type": "way",
  "id": 89559164,
  "center": {
    "lat": 47.4018900,
    "lon": 15.8856672
  },
  "nodes": [
    1038178637,
    1038179179,
    1038179527,
    7279498754,
    7279498755,
    1038178874,
    1038179199,
    1038178467,
    1038178794,
    1038179710,
    1038178637
  ],
  "tags": {
    "landuse": "cemetery",
    "religion": "christian"
  }
},
{
  "type": "way",
  "id": 89559177,
  "center": {
    "lat": 47.4037381,
    "lon": 15.9032566
  },
  "nodes": [
    1038179445,
    1038179795,
    1038178508,
    1038179538,
    1038179445
  ],
  "tags": {
    "landuse": "cemetery"
  }
},
{
  "type": "way",
  "id": 90969787,
  "center": {
    "lat": 47.5385392,
    "lon": 15.2402591
  },
  "nodes": [
    1056235606,
    2391566307,
    1056235602,
    1056235604,
    2391566300,
    2391566299,
    2391566298,
    12384833393,
    1056235660,
    1845264020,
    3953396328,
    1056235606
  ],
  "tags": {
    "landuse": "cemetery",
    "source": "Bing",
    "wikidata": "Q37809793"
  }
},
{
  "type": "way",
  "id": 91736723,
  "center": {
    "lat": 47.6120355,
    "lon": 15.9824778
  },
  "nodes": [
    1066018804,
    1066018902,
    11221734115,
    1066018853,
    1083075111,
    1083075112,
    11221734117,
    11221734118,
    11221734119,
    11221734122,
    1066018890,
    1066018713,
    1066018689,
    1066019033,
    1083074980,
    11221734114,
    1066018748,
    1066018804
  ],
  "tags": {
    "denomination": "catholic",
    "landuse": "cemetery",
    "name": "Friedhof Kirchberg",
    "religion": "christian",
    "wikidata": "Q111576357"
  }
},
{
  "type": "way",
  "id": 92939261,
  "center": {
    "lat": 47.0555073,
    "lon": 15.4785945
  },
  "nodes": [
    1077526958,
    9429871467,
    9429779402,
    9429871466,
    1077526977,
    9429871470,
    3286080478,
    9429871471,
    1077526981,
    1612146069,
    1612146055,
    9429779399,
    9429802493,
    32856752,
    9429802492,
    9429995618,
    9429995617,
    9429993104,
    9429993108,
    9429993107,
    9429871472,
    32856740,
    32856744,
    9429871474,
    11380285762,
    9429802490,
    9429802491,
    9429871473,
    9429802489,
    9429802487,
    9429802488,
    9429993088,
    9429993089,
    9429802486,
    9429802484,
    9429802485,
    9429995621,
    9429802483,
    9429802482,
    9429802481,
    9429802477,
    9429802478,
    9429779409,
    9429802479,
    9429802480,
    32856746,
    3286034187,
    9429959695,
    32856748,
    9429871468,
    1524381957,
    9429871469,
    32856749,
    1077526958
  ],
  "tags": {
    "amenity": "grave_yard",
    "denomination": "roman_catholic",
    "landuse": "cemetery",
    "name": "Sankt Peter Ortsfriedhof",
    "official_name": "St. Peter Ortsfriedhof",
    "religion": "christian"
  }
},
{
  "type": "way",
  "id": 93417726,
  "center": {
    "lat": 47.4263304,
    "lon": 15.3411777
  },
  "nodes": [
    1083094400,
    3388983258,
    1083094414,
    1083094424,
    3388983261,
    1083094436,
    3388983266,
    1083094435,
    3388983273,
    1083094401,
    3388983263,
    1083094400
  ],
  "tags": {
    "landuse": "cemetery",
    "name": "Friedhof Frauenberg"
  }
},
{
  "type": "way",
  "id": 94947720,
  "center": {
    "lat": 47.2184546,
    "lon": 15.3997984
  },
  "nodes": [
    1102055755,
    2279227654,
    1102056137,
    6757473070,
    6757473071,
    6757473075,
    6757473073,
    6757473072,
    6757473082,
    6757473084,
    6757473083,
    1102055900,
    1102055755
  ],
  "tags": {
    "landuse": "cemetery"
  }
},
{
  "type": "way",
  "id": 94953339,
  "center": {
    "lat": 47.1988587,
    "lon": 15.3399317
  },
  "nodes": [
    1102084770,
    1102084756,
    1102084775,
    1102084655,
    1102084867,
    1102084844,
    1102084881,
    1102084868,
    1102084674,
    1102084864,
    8063295811,
    1102084776,
    8262116377,
    1102084770
  ],
  "tags": {
    "landuse": "cemetery"
  }
},
{
  "type": "way",
  "id": 95526649,
  "center": {
    "lat": 47.4053010,
    "lon": 15.2729333
  },
  "nodes": [
    1107697145,
    1847335971,
    6051530701,
    6051530704,
    4919380969,
    4919380970,
    1107697141,
    4919380971,
    1107697127,
    1107697134,
    1107697146,
    4919380954,
    6051530714,
    4919380956,
    4919380955,
    4919380953,
    4919380960,
    4919380959,
    4919380961,
    334418097,
    4919380962,
    4919380963,
    4919380964,
    334418096,
    334418095,
    334418094,
    1107697145
  ],
  "tags": {
    "landuse": "cemetery",
    "name": "Lichtenstein FH",
    "religion": "christian",
    "wikidata": "Q37759202"
  }
},
{
  "type": "way",
  "id": 95703180,
  "center": {
    "lat": 47.0583200,
    "lon": 15.1371802
  },
  "nodes": [
    1109533250,
    3406880439,
    1489953843,
    1489953845,
    1109533237,
    1109533256,
    3406789590,
    1489953842,
    337790073,
    1109533250
  ],
  "tags": {
    "landuse": "cemetery",
    "name": "Friedhof Voitsberg",
    "religion": "christian"
  }
},
{
  "type": "way",
  "id": 98937669,
  "center": {
    "lat": 47.3374786,
    "lon": 15.0266883
  },
  "nodes": [
    1144505845,
    1144505757,
    1144505781,
    1144505818,
    1169077837,
    336933501,
    1144505740,
    1144505775,
    1144505808,
    1144505838,
    1144505847,
    1144505845
  ],
  "tags": {
    "landuse": "cemetery",
    "name": "Soldatenfriedhof",
    "source": "survey"
  }
},
{
  "type": "way",
  "id": 99356834,
  "center": {
    "lat": 47.4432080,
    "lon": 15.9544693
  },
  "nodes": [
    1149219506,
    1149220278,
    1149218945,
    1149219297,
    2813027604,
    1149220299,
    2813027420,
    2813027648,
    2813027468,
    1149219506
  ],
  "tags": {
    "landuse": "cemetery",
    "name": "Friedhof Sankt Lorenzen am Wechsel",
    "religion": "christian"
  }
},
{
  "type": "way",
  "id": 100016839,
  "center": {
    "lat": 47.8712659,
    "lon": 15.3750389
  },
  "nodes": [
    1156354732,
    1156355033,
    1985464829,
    1156354912,
    7706725654,
    1156354699,
    1156355052,
    1985464844,
    1985464842,
    1156354969,
    1156354798,
    1156354626,
    1156354732
  ],
  "tags": {
    "landuse": "cemetery",
    "name": "Friedhof Annaberg"
  }
},
{
  "type": "way",
  "id": 100462165,
  "center": {
    "lat": 47.6605372,
    "lon": 15.8682272
  },
  "nodes": [
    1161390522,
    5872096172,
    1937186543,
    1161390473,
    1161390494,
    1161390438,
    1161390466,
    1161390547,
    1937186542,
    1161390542,
    1937186539,
    1937186538,
    1161390479,
    2509586824,
    1161390538,
    1161390450,
    1161390410,
    1161390522
  ],
  "tags": {
    "landuse": "cemetery",
    "name": "Friedhof Klamm",
    "religion": "christian"
  }
},
{
  "type": "way",
  "id": 100845771,
  "center": {
    "lat": 47.2288698,
    "lon": 15.9111639
  },
  "nodes": [
    1165401118,
    1165401923,
    1165400875,
    1165400846,
    2049611065,
    325248465,
    1165402026,
    1165401319,
    1165401222,
    1165401866,
    1165401992,
    1165401118
  ],
  "tags": {
    "landuse": "cemetery",
    "name": "Friedhof Kaindorf",
    "wikidata": "Q128881820"
  }
},
{
  "type": "way",
  "id": 100966776,
  "center": {
    "lat": 47.1444355,
    "lon": 15.0936002
  },
  "nodes": [
    1166332212,
    1166332230,
    3875881028,
    3875881024,
    3875881023,
    1166332220,
    3875881026,
    1166332197,
    1166332207,
    12980356470,
    1166332248,
    12980356467,
    1166332212
  ],
  "tags": {
    "landuse": "cemetery",
    "name": "Friedhof Kainach",
    "religion": "christian"
  }
},
{
  "type": "way",
  "id": 101287429,
  "center": {
    "lat": 47.5337196,
    "lon": 15.0792421
  },
  "nodes": [
    1169038279,
    1169038312,
    1169038332,
    1169038328,
    1169038293,
    1169038284,
    1169038308,
    1169038291,
    1169038317,
    1169038279
  ],
  "tags": {
    "landuse": "cemetery",
    "name": "Friedhof Oberort",
    "religion": "christian"
  }
},
{
  "type": "way",
  "id": 102411811,
  "center": {
    "lat": 47.1596007,
    "lon": 15.6594083
  },
  "nodes": [
    1204058210,
    4009530279,
    1182677655,
    334116728,
    3927636022,
    1182677646,
    1182677709,
    1182677696,
    1182677673,
    1204058210
  ],
  "tags": {
    "landuse": "cemetery",
    "name": "Friedhof St. Ruprecht an der Raab",
    "religion": "christian",
    "wikidata": "Q128881787"
  }
},
{
  "type": "way",
  "id": 102722573,
  "center": {
    "lat": 47.2989984,
    "lon": 15.8295415
  },
  "nodes": [
    1186404751,
    3471037812,
    1186405236,
    1186404821,
    1186405722,
    3471037989,
    8809270538,
    5205875456,
    3471037863,
    3471034488,
    1186405652,
    1186404751
  ],
  "tags": {
    "landuse": "cemetery",
    "name": "Friedhof Pöllau"
  }
},
{
  "type": "way",
  "id": 102945823,
  "center": {
    "lat": 47.1206321,
    "lon": 15.5973163
  },
  "nodes": [
    1188831493,
    1188831488,
    1188831499,
    1188831492,
    1188831475,
    1188831474,
    8274448890,
    8274448891,
    1188831487,
    8274448887,
    1188831482,
    1188831493
  ],
  "tags": {
    "landuse": "cemetery"
  }
},
{
  "type": "way",
  "id": 102945825,
  "center": {
    "lat": 47.1202165,
    "lon": 15.5962144
  },
  "nodes": [
    1188831491,
    1188831498,
    1188831481,
    1188831472,
    1188831485,
    1188831491
  ],
  "tags": {
    "landuse": "cemetery",
    "name": "Friedhof Eggersdorf",
    "religion": "christian"
  }
},
{
  "type": "way",
  "id": 103027064,
  "center": {
    "lat": 47.9563460,
    "lon": 15.5496210
  },
  "nodes": [
    1189652908,
    1189646637,
    1189649058,
    1474249239,
    1474247170,
    1189649953,
    1189646507,
    1189647676,
    1189646418,
    1189650587,
    1189652908
  ],
  "tags": {
    "landuse": "cemetery"
  }
},
{
  "type": "way",
  "id": 103261709,
  "center": {
    "lat": 47.3356479,
    "lon": 15.6101183
  },
  "nodes": [
    1192387093,
    1192387158,
    4266322417,
    4266322416,
    4266322415,
    4266322414,
    4266322413,
    1192387180,
    2912004764,
    1192387173,
    1192387111,
    4266322409,
    2912004714,
    1192387124,
    4266322411,
    1192387093
  ],
  "tags": {
    "barrier": "fence",
    "landuse": "cemetery",
    "name": "Friedhof Naintsch"
  }
},
{
  "type": "way",
  "id": 103278263,
  "center": {
    "lat": 47.2834113,
    "lon": 15.4764017
  },
  "nodes": [
    1192614365,
    2408906078,
    1192614309,
    2408906142,
    1192614356,
    1192614338,
    1192614365
  ],
  "tags": {
    "landuse": "cemetery",
    "name": "Friedhof Fladnitz an der Teichalm",
    "source": "bing"
  }
},
{
  "type": "way",
  "id": 103323499,
  "center": {
    "lat": 47.5761977,
    "lon": 15.4941841
  },
  "nodes": [
    1193209348,
    1193209837,
    4600178470,
    1193209569,
    1193209278,
    1193209007,
    1193209974,
    1193209675,
    1193209386,
    1193209348
  ],
  "tags": {
    "landuse": "cemetery",
    "name": "Friedhof Veitsch",
    "source": "bing"
  }
},
{
  "type": "way",
  "id": 104310423,
  "center": {
    "lat": 47.9317365,
    "lon": 15.0908739
  },
  "nodes": [
    1203613910,
    1203613165,
    1203614503,
    1157941305,
    1157943436,
    1203613910
  ],
  "tags": {
    "landuse": "cemetery",
    "name": "Friedhof Gaming",
    "wikidata": "Q37858933"
  }
},
{
  "type": "way",
  "id": 104384374,
  "center": {
    "lat": 47.2479037,
    "lon": 15.5196773
  },
  "nodes": [
    1204302127,
    1204302146,
    1204302159,
    1204302140,
    1204302110,
    5820911559,
    5820911557,
    5820911555,
    1204302127
  ],
  "tags": {
    "barrier": "hedge",
    "landuse": "cemetery",
    "name": "Friedhof Arzberg"
  }
},
{
  "type": "way",
  "id": 105153653,
  "center": {
    "lat": 47.1387254,
    "lon": 15.2869371
  },
  "nodes": [
    1211884757,
    1211884894,
    4215311610,
    4215311609,
    5368679252,
    3241582491,
    3241582489,
    4215311606,
    4215311611,
    1211884789,
    4215311612,
    1211884850,
    5368679256,
    1211884757
  ],
  "tags": {
    "heritage": "2",
    "heritage:operator": "bda",
    "landuse": "cemetery",
    "name": "Friedhof Rein Eisbach",
    "ref:at:bda": "115416",
    "source": "bing",
    "wikidata": "Q37773905"
  }
},
{
  "type": "way",
  "id": 105258072,
  "center": {
    "lat": 47.2233268,
    "lon": 15.2406576
  },
  "nodes": [
    1212996119,
    1212996116,
    1976183059,
    1976183058,
    1976183053,
    1212996083,
    1212996155,
    1212996119
  ],
  "tags": {
    "landuse": "cemetery",
    "source": "bing",
    "wikimedia_commons": "Category:Friedhof Übelbach"
  }
},
{
  "type": "way",
  "id": 105587383,
  "center": {
    "lat": 47.2771043,
    "lon": 15.6947733
  },
  "nodes": [
    1215880934,
    1215880949,
    1215880954,
    1830615670,
    1475356443,
    1215880955,
    1332456926,
    1332456918,
    1332456920,
    1332456925,
    1332456923,
    1215880939,
    1215880953,
    1215880951,
    1215880895,
    1215880915,
    1215880934
  ],
  "tags": {
    "heritage": "2",
    "heritage:operator": "bda",
    "landuse": "cemetery",
    "name": "Friedhof Anger",
    "ref:at:bda": "100152",
    "wheelchair": "limited",
    "wikidata": "Q37713856"
  }
},
{
  "type": "way",
  "id": 108358360,
  "center": {
    "lat": 47.2275343,
    "lon": 15.7294516
  },
  "nodes": [
    1243566940,
    1930531789,
    1930531898,
    1930531812,
    1930531832,
    1243566739,
    1243566808,
    1243566945,
    1243566940
  ],
  "tags": {
    "amenity": "grave_yard"
  }
},
{
  "type": "way",
  "id": 111502965,
  "center": {
    "lat": 47.4124608,
    "lon": 15.7283570
  },
  "nodes": [
    1270214994,
    1270214977,
    1270215150,
    1270215065,
    1270214901,
    1270214994
  ],
  "tags": {
    "landuse": "cemetery",
    "name": "Friedhof Strallegg",
    "source": "bing"
  }
},
{
  "type": "way",
  "id": 111989054,
  "center": {
    "lat": 47.0545835,
    "lon": 15.8466959
  },
  "nodes": [
    1274242343,
    5815953667,
    3402472895,
    3402472894,
    1274242347,
    3402472893,
    5815953670,
    1274242293,
    334112066,
    1274242301,
    1274242343
  ],
  "tags": {
    "landuse": "cemetery",
    "source": "bing"
  }
},
{
  "type": "way",
  "id": 112564865,
  "center": {
    "lat": 47.0887256,
    "lon": 15.9298619
  },
  "nodes": [
    1279113843,
    1279113813,
    1279113787,
    4768371034,
    4768371035,
    4768371037,
    4768371036,
    1279113796,
    5890174759,
    5890174760,
    5890174761,
    1279113797,
    5885028272,
    5890174762,
    5885028273,
    1279113811,
    5890174763,
    1279113843
  ],
  "tags": {
    "denomination": "roman_catholic",
    "landuse": "cemetery",
    "name": "Friedhof Ilz",
    "religion": "christian",
    "source": "bing;local knowledge;geoimage.at",
    "wikidata": "Q128881797"
  }
},
{
  "type": "way",
  "id": 113156296,
  "center": {
    "lat": 47.8452603,
    "lon": 15.3135676
  },
  "nodes": [
    1284069943,
    1284069963,
    1284069939,
    1284069984,
    11684533273,
    1284069943
  ],
  "tags": {
    "landuse": "cemetery"
  }
},
{
  "type": "way",
  "id": 114072334,
  "center": {
    "lat": 47.8946989,
    "lon": 15.7392367
  },
  "nodes": [
    1292838995,
    1292838998,
    1292839001,
    1292839004,
    1292838995
  ],
  "tags": {
    "fixme": "anschauen, was das wirklich ist",
    "landuse": "cemetery"
  }
},
{
  "type": "way",
  "id": 114117405,
  "center": {
    "lat": 47.9817094,
    "lon": 15.3252525
  },
  "nodes": [
    1293195112,
    1293195122,
    1293195086,
    1293195088,
    1293195106,
    1293195111,
    1293195127,
    1293195083,
    1293195096,
    1293195094,
    1293195110,
    1293195116,
    1293195082,
    1293195085,
    1293195112
  ],
  "tags": {
    "landuse": "cemetery"
  }
},
{
  "type": "way",
  "id": 114442710,
  "center": {
    "lat": 47.0889448,
    "lon": 15.5259442
  },
  "nodes": [
    1296415675,
    1296415561,
    1296416092,
    5294370725,
    5294370726,
    1296415856,
    1296560979,
    384934124,
    384934125,
    1296415814,
    1296415439,
    1296415675
  ],
  "tags": {
    "amenity": "grave_yard",
    "name": "Waldfriedhof",
    "religion": "christian"
  }
},
{
  "type": "way",
  "id": 115092150,
  "center": {
    "lat": 47.4703821,
    "lon": 15.1630461
  },
  "nodes": [
    1301795893,
    1301795898,
    1542336196,
    1950910190,
    4827199759,
    1950910371,
    4827199760,
    1542336176,
    1542336173,
    1301795893
  ],
  "tags": {
    "landuse": "cemetery"
  }
},
{
  "type": "way",
  "id": 115093860,
  "center": {
    "lat": 47.0032963,
    "lon": 15.9295079
  },
  "nodes": [
    1301807121,
    3785862830,
    4546199695,
    3785862829,
    1911696815,
    1301807125,
    3785862798,
    1301807127,
    1301807182,
    1301807208,
    1301807221,
    1301807121
  ],
  "tags": {
    "denomination": "catholic",
    "landuse": "cemetery",
    "religion": "christian",
    "source": "bing"
  }
},
{
  "type": "way",
  "id": 115611076,
  "center": {
    "lat": 47.2130852,
    "lon": 15.8189336
  },
  "nodes": [
    1305702857,
    1305702899,
    1305702850,
    1305702894,
    1305702918,
    1305702888,
    1305702874,
    1305702855,
    1305702857
  ],
  "tags": {
    "denomination": "catholic",
    "landuse": "cemetery",
    "name": "Friedhof Sankt Johann",
    "religion": "christian"
  }
},
{
  "type": "way",
  "id": 117632447,
  "center": {
    "lat": 47.6677053,
    "lon": 15.5761677
  },
  "nodes": [
    1324793666,
    4691446919,
    1324793675,
    1324793669,
    1324793670,
    1324793666
  ],
  "tags": {
    "landuse": "cemetery",
    "name": "Friedhof Neuberg"
  }
},
{
  "type": "way",
  "id": 121895826,
  "center": {
    "lat": 47.1369309,
    "lon": 15.1854330
  },
  "nodes": [
    1363394318,
    6466262822,
    1363394306,
    1363394307,
    1363394320,
    1363394322,
    1363394335,
    1363394358,
    1363394386,
    1363394399,
    1363394390,
    1363394383,
    1363394376,
    1363394326,
    1363394324,
    3345887867,
    3345887712,
    3345887752,
    1363394318
  ],
  "tags": {
    "amenity": "grave_yard",
    "heritage": "2",
    "heritage:operator": "bda",
    "name": "Friedhof Gschnaidt",
    "ref:at:bda": "115741",
    "wikidata": "Q55550763"
  }
},
{
  "type": "way",
  "id": 122734664,
  "center": {
    "lat": 47.9066006,
    "lon": 15.6157476
  },
  "nodes": [
    1211860102,
    7560286672,
    1211860581,
    1211862000,
    1211859895,
    1211861374,
    1211861274,
    1211860508,
    1211860102
  ],
  "tags": {
    "amenity": "grave_yard",
    "denomination": "catholic",
    "religion": "christian"
  }
},
{
  "type": "way",
  "id": 124085029,
  "center": {
    "lat": 47.0807707,
    "lon": 15.5791193
  },
  "nodes": [
    1381972059,
    1381972065,
    1381972053,
    4440930295,
    391501644,
    1381972055,
    1381972056,
    1381972059
  ],
  "tags": {
    "denomination": "catholic",
    "landuse": "cemetery",
    "name": "Friedhof Laßnitzhöhe",
    "religion": "christian",
    "source": "geoimage.at"
  }
},
{
  "type": "way",
  "id": 124859499,
  "center": {
    "lat": 47.3829564,
    "lon": 15.9704083
  },
  "nodes": [
    1085983241,
    1388336329,
    1388336331,
    1085983143,
    342024668,
    1388336322,
    1388336317,
    1388336314,
    1085983241
  ],
  "tags": {
    "denomination": "catholic",
    "landuse": "cemetery",
    "name": "Friedhof Eichberg",
    "religion": "christian"
  }
},
{
  "type": "way",
  "id": 126784616,
  "center": {
    "lat": 47.0425212,
    "lon": 15.7417022
  },
  "nodes": [
    1404539905,
    370430644,
    1404539906,
    1404539899,
    5196734716,
    5196734715,
    5196734713,
    5196734714,
    1404539900,
    1404539904,
    1404539905
  ],
  "tags": {
    "landuse": "cemetery",
    "source": "geoimage.at"
  }
},
{
  "type": "way",
  "id": 127872293,
  "center": {
    "lat": 47.0201383,
    "lon": 15.6877308
  },
  "nodes": [
    1414349154,
    1414349155,
    1414349149,
    1414349144,
    1414349142,
    1414349148,
    1414349151,
    1414349154
  ],
  "tags": {
    "landuse": "cemetery",
    "name": "Friedhof Sankt Marein bei Graz",
    "religion": "christian",
    "source": "geoimage.at"
  }
},
{
  "type": "way",
  "id": 128037938,
  "center": {
    "lat": 47.1773585,
    "lon": 15.4876873
  },
  "nodes": [
    1415809959,
    1415809932,
    1415809930,
    4186799508,
    1415809929,
    1415809926,
    9460784879,
    1415809953,
    4317898037,
    4186799581,
    1415809959
  ],
  "tags": {
    "landuse": "cemetery",
    "name": "Friedhof St. Radegund",
    "source": "geoimage.at"
  }
},
{
  "type": "way",
  "id": 129477243,
  "center": {
    "lat": 47.4032393,
    "lon": 15.2541973
  },
  "nodes": [
    1428429115,
    4919381525,
    1428429112,
    1428429099,
    1428429094,
    1428429079,
    1428429069,
    1428429068,
    1428429070,
    1428429081,
    1428429083,
    1428429085,
    1428429078,
    1428429080,
    1428429082,
    1428429093,
    1428429095,
    1428429096,
    1428429097,
    1428429110,
    4919381759,
    4919381757,
    4919381756,
    4919381758,
    1428429113,
    4919381755,
    1428429114,
    1428429116,
    1428429118,
    1428429119,
    1428429120,
    1854788783,
    1428429115
  ],
  "tags": {
    "heritage": "2",
    "image": "https://upload.wikimedia.org/wikipedia/commons/c/c3/Friedhof_St._Ruprecht.JPG",
    "landuse": "cemetery",
    "name": "St. Ruprecht Friedhof",
    "on_the_list:wikidata": "Q1855170",
    "on_the_list:wikipedia": "de:Liste der denkmalgeschützten Objekte in Bruck an der Mur",
    "religion": "christian",
    "wikidata": "Q37759202"
  }
},
{
  "type": "way",
  "id": 129510605,
  "center": {
    "lat": 47.0743848,
    "lon": 15.3566119
  },
  "nodes": [
    1428802799,
    1428802794,
    1428802793,
    1428802795,
    1428802796,
    1428802797,
    4436601815,
    1428802798,
    1428802799
  ],
  "tags": {
    "landuse": "cemetery",
    "religion": "christian",
    "source": "geoimage.at"
  }
},
{
  "type": "way",
  "id": 131202660,
  "center": {
    "lat": 47.3161765,
    "lon": 15.8573898
  },
  "nodes": [
    1444569972,
    9105815686,
    1444569990,
    1444569995,
    1444569997,
    1444570045,
    1444570043,
    9105815691,
    1444570079,
    1444570082,
    1444570097,
    1444570094,
    4065777427,
    1444570093,
    1444570076,
    1444570075,
    4590594050,
    9105815692,
    1444570030,
    1444570034,
    1444570008,
    1444570006,
    1444569972
  ],
  "tags": {
    "denomination": "catholic",
    "landuse": "cemetery",
    "name": "Friedhof Pöllauberg",
    "religion": "christian"
  }
},
{
  "type": "way",
  "id": 131348435,
  "center": {
    "lat": 47.4156039,
    "lon": 15.2054579
  },
  "nodes": [
    1445786653,
    1445786663,
    1838821838,
    1838821840,
    4893332961,
    1848566087,
    1838842632,
    1704140387,
    1838842630,
    1838821813,
    1848566009,
    1445786677,
    7178483790,
    7178483789,
    1838821809,
    7178483788,
    7178483792,
    1445786656,
    1848565967,
    7178483791,
    1445786661,
    1445786667,
    1445786673,
    1445786683,
    1838821836,
    1445786682,
    4893332970,
    1445786671,
    1445786639,
    1445786629,
    1445786638,
    1848565965,
    1848565964,
    1746021811,
    1445786653
  ],
  "tags": {
    "landuse": "cemetery",
    "source": "geoimage.at"
  }
},
{
  "type": "way",
  "id": 132194311,
  "center": {
    "lat": 47.4920404,
    "lon": 15.6860948
  },
  "nodes": [
    1454675326,
    1454675327,
    4401824525,
    1454675330,
    1454675329,
    1454675328,
    1454675325,
    1454675324,
    1454675326
  ],
  "tags": {
    "amenity": "grave_yard",
    "name": "Friedhof St. Kathrein"
  }
},
{
  "type": "way",
  "id": 133617662,
  "center": {
    "lat": 47.9467015,
    "lon": 15.3812064
  },
  "nodes": [
    1470726595,
    1470726588,
    1289012209,
    1470726626,
    1470726620,
    1470726606,
    1470726599,
    1470726595
  ],
  "tags": {
    "landuse": "cemetery"
  }
},
{
  "type": "way",
  "id": 135795131,
  "center": {
    "lat": 47.6733412,
    "lon": 15.7637592
  },
  "nodes": [
    1490723358,
    1490723364,
    2030070406,
    1490723389,
    1490723361,
    1490723358
  ],
  "tags": {
    "landuse": "cemetery",
    "source": "geoimage.at"
  }
},
{
  "type": "way",
  "id": 135905093,
  "center": {
    "lat": 47.6030769,
    "lon": 15.8923413
  },
  "nodes": [
    1491771974,
    1491771925,
    1491771894,
    1491771881,
    3157252970,
    1491771905,
    1491771926,
    1491771920,
    1491771944,
    1491771974
  ],
  "tags": {
    "landuse": "cemetery"
  }
},
{
  "type": "way",
  "id": 136432492,
  "center": {
    "lat": 47.3877084,
    "lon": 15.4495701
  },
  "nodes": [
    1496512658,
    1496512661,
    1496512657,
    1496512652,
    1496512658
  ],
  "tags": {
    "landuse": "cemetery"
  }
},
{
  "type": "way",
  "id": 136637061,
  "center": {
    "lat": 47.3912077,
    "lon": 15.4272709
  },
  "nodes": [
    1499098217,
    1499098200,
    1499098206,
    1499098222,
    1499098217
  ],
  "tags": {
    "amenity": "grave_yard",
    "source": "geoimage.at"
  }
},
{
  "type": "way",
  "id": 138331844,
  "center": {
    "lat": 47.6864011,
    "lon": 15.3230786
  },
  "nodes": [
    1432636830,
    1432636817,
    1516649586,
    1516649581,
    7566364754,
    7566364753,
    1516649587,
    1432636830
  ],
  "tags": {
    "landuse": "cemetery"
  }
},
{
  "type": "way",
  "id": 139993813,
  "center": {
    "lat": 47.4807784,
    "lon": 15.3659248
  },
  "nodes": [
    1534052460,
    1534052457,
    1534052453,
    1534052455,
    1534052449,
    1534052438,
    1534052451,
    1534052450,
    1534052460
  ],
  "tags": {
    "landuse": "cemetery",
    "source": "geoimage.at",
    "wikidata": "Q128822069"
  }
},
{
  "type": "way",
  "id": 139993815,
  "center": {
    "lat": 47.4740380,
    "lon": 15.3663700
  },
  "nodes": [
    1534052413,
    1534052415,
    1534052406,
    1534052407,
    1534052405,
    1534052404,
    1534052395,
    2522275085,
    1534052394,
    1534052413
  ],
  "tags": {
    "landuse": "cemetery",
    "source": "geoimage.at",
    "wikidata": "Q129206396"
  }
},
{
  "type": "way",
  "id": 143938405,
  "center": {
    "lat": 47.0431799,
    "lon": 15.4241632
  },
  "nodes": [
    1575085039,
    1575085036,
    1575085033,
    1575085041,
    1575085039
  ],
  "tags": {
    "cemetery": "sector",
    "name": "Islamisches Gräberfeld",
    "name:de": "Islamisches Gräberfeld",
    "ref": "47",
    "religion": "muslim",
    "source": "survey"
  }
},
{
  "type": "way",
  "id": 143940829,
  "center": {
    "lat": 47.0469812,
    "lon": 15.4282977
  },
  "nodes": [
    1575119043,
    1575119045,
    974890741,
    974890443,
    974891087,
    974890344,
    1575119024,
    1575119021,
    1575119026,
    1575119029,
    1575119032,
    1575119038,
    1575119041,
    1575119035,
    9434099319,
    1575119043
  ],
  "tags": {
    "cemetery": "sector",
    "denomination": "old_catholic",
    "name": "Altkatholischer Friedhof",
    "name:de": "Altkatholischer Friedhof",
    "religion": "christian"
  }
},
{
  "type": "way",
  "id": 143940931,
  "center": {
    "lat": 47.0436026,
    "lon": 15.4258018
  },
  "nodes": [
    1575123178,
    9435285687,
    1575123174,
    1575123176,
    1575123179,
    1575123178
  ],
  "tags": {
    "cemetery": "sector",
    "name": "Dritter Orden der Franziskaner"
  }
},
{
  "type": "way",
  "id": 143940932,
  "center": {
    "lat": 47.0432857,
    "lon": 15.4258462
  },
  "nodes": [
    1575123173,
    1575123172,
    1575123169,
    1575123162,
    1575123165,
    1575123173
  ],
  "tags": {
    "cemetery": "sector",
    "denomination": "ukrainian_greek_catholic",
    "name": "Friedhof der Ukrainer",
    "religion": "Ukrainian"
  }
},
{
  "type": "way",
  "id": 143940933,
  "center": {
    "lat": 47.0431977,
    "lon": 15.4254181
  },
  "nodes": [
    1575123167,
    1575123160,
    1575123162,
    1575123169,
    1575123167
  ],
  "tags": {
    "cemetery": "sector",
    "denomination": "coptic_orthodox",
    "name": "Koptischer Friedhof",
    "religion": "christian"
  }
},
{
  "type": "way",
  "id": 146182889,
  "center": {
    "lat": 47.5470413,
    "lon": 15.5174307
  },
  "nodes": [
    1594541191,
    1594541184,
    1594541190,
    1594541193,
    1594541196,
    1594541194,
    1594541195,
    1594541191
  ],
  "tags": {
    "landuse": "cemetery",
    "name": "Friedhof Mitterdorf"
  }
},
{
  "type": "way",
  "id": 147081550,
  "center": {
    "lat": 47.0106620,
    "lon": 15.1037133
  },
  "nodes": [
    1602703328,
    1602703334,
    5327247751,
    1602703316,
    1602703313,
    1602703348,
    1602703330,
    1602703320,
    1602703288,
    1602703332,
    1602703300,
    1602703284,
    1602703350,
    1602703304,
    1602703302,
    1602703323,
    4474954270,
    4474954273,
    1602703325,
    1602703301,
    1602703310,
    1602703306,
    1602703308,
    1602703343,
    1602703346,
    1602703328
  ],
  "tags": {
    "barrier": "wall",
    "denomination": "roman_catholic",
    "landuse": "cemetery",
    "religion": "christian"
  }
},
{
  "type": "way",
  "id": 148848219,
  "center": {
    "lat": 47.0246090,
    "lon": 15.0522805
  },
  "nodes": [
    1619097642,
    1996006929,
    1619097643,
    1619097667,
    1619097623,
    1619097606,
    1619097626,
    1619097642
  ],
  "tags": {
    "barrier": "wall",
    "landuse": "cemetery"
  }
},
{
  "type": "way",
  "id": 149022921,
  "center": {
    "lat": 47.4673387,
    "lon": 15.5001192
  },
  "nodes": [
    1620596559,
    1620596674,
    1620596453,
    1620596466,
    1620596413,
    1620596359,
    1620596233,
    1620596241,
    1620596334,
    1620596331,
    1620596559
  ],
  "tags": {
    "landuse": "cemetery",
    "name": "Friedhof Stanz im Mürztal",
    "religion": "christian"
  }
},
{
  "type": "way",
  "id": 153835066,
  "center": {
    "lat": 47.4865257,
    "lon": 15.7278832
  },
  "nodes": [
    1664645100,
    10156982644,
    10156982645,
    1664645098,
    10156982659,
    10156982654,
    2398900057,
    10156982642,
    1457514417,
    1664645097,
    1664645095,
    10156982641,
    10156982640,
    1664645099,
    10156982643,
    1664645100
  ],
  "tags": {
    "landuse": "cemetery",
    "source": "geoimage.at"
  }
},
{
  "type": "way",
  "id": 156109566,
  "center": {
    "lat": 47.4817986,
    "lon": 15.4066840
  },
  "nodes": [
    1684045126,
    1684045128,
    1684045123,
    1684045133,
    1684045141,
    1684045147,
    1684045165,
    1684045164,
    1684045162,
    1684045155,
    1684045145,
    1684045138,
    1684045126
  ],
  "tags": {
    "amenity": "grave_yard",
    "landuse": "cemetery",
    "religion": "christian",
    "wikidata": "Q38181379"
  }
},
{
  "type": "way",
  "id": 158326342,
  "center": {
    "lat": 47.1116485,
    "lon": 15.9526763
  },
  "nodes": [
    1705504307,
    1705504309,
    1705504308,
    1705504304,
    1705504307
  ],
  "tags": {
    "landuse": "cemetery",
    "name": "Friedhof Hainersdorf",
    "wikidata": "Q128858980"
  }
},
{
  "type": "way",
  "id": 163399812,
  "center": {
    "lat": 47.2094780,
    "lon": 15.3445311
  },
  "nodes": [
    1751005358,
    1751005372,
    1751005376,
    1751005383,
    8262096897,
    1751005381,
    4518509011,
    1751005380,
    1751005382,
    1751005377,
    1751005374,
    1751005378,
    1751005373,
    1751005370,
    1751005358
  ],
  "tags": {
    "landuse": "cemetery",
    "wikidata": "Q56260202",
    "wikimedia_commons": "Category:Friedhof Peggau"
  }
},
{
  "type": "way",
  "id": 163508310,
  "center": {
    "lat": 47.2448401,
    "lon": 15.8023461
  },
  "nodes": [
    1751791774,
    1751791770,
    7253887392,
    1751791772,
    7253887393,
    1751791776,
    1751791778,
    1751791780,
    7253887394,
    7253887395,
    7253887396,
    7253887416,
    7253887397,
    1751791774
  ],
  "tags": {
    "landuse": "cemetery"
  }
},
{
  "type": "way",
  "id": 163847906,
  "center": {
    "lat": 47.4800563,
    "lon": 15.4052357
  },
  "nodes": [
    1755202403,
    1755202412,
    4950215005,
    4950214997,
    1755202386,
    1755202378,
    1755202403
  ],
  "tags": {
    "landuse": "cemetery",
    "name": "Friedhof Allerheiligen im Mürztal",
    "religion": "christian",
    "wikidata": "Q129206398"
  }
},
{
  "type": "way",
  "id": 173491879,
  "center": {
    "lat": 47.1340202,
    "lon": 15.3493632
  },
  "nodes": [
    1842931903,
    1842931884,
    1842931886,
    1842931885,
    1842931911,
    1842931907,
    1842931895,
    1842931901,
    1842931915,
    1842931899,
    1842931909,
    1842931913,
    1842931905,
    1842931897,
    1842931903
  ],
  "tags": {
    "landuse": "cemetery"
  }
},
{
  "type": "way",
  "id": 174629880,
  "center": {
    "lat": 47.1923528,
    "lon": 15.2355168
  },
  "nodes": [
    1852859140,
    10299136550,
    1852859133,
    10299136566,
    1852859124,
    1852859125,
    1852859130,
    1852859137,
    1852859138,
    10299136551,
    1852859140
  ],
  "tags": {
    "amenity": "grave_yard",
    "barrier": "fence"
  }
},
{
  "type": "way",
  "id": 174914822,
  "center": {
    "lat": 47.3977687,
    "lon": 15.0295537
  },
  "nodes": [
    1855580220,
    10741974086,
    10741974089,
    1855580279,
    10741974064,
    10741974063,
    1855580245,
    1855580252,
    1855580208,
    4235358889,
    5775342626,
    1855580255,
    1855580239,
    5775342636,
    1855580232,
    1855580201,
    1855580199,
    1855580215,
    1855580220
  ],
  "tags": {
    "landuse": "cemetery",
    "source": "geoimage.at"
  }
},
{
  "type": "way",
  "id": 176923979,
  "center": {
    "lat": 47.3699086,
    "lon": 15.7606533
  },
  "nodes": [
    1874087967,
    1874087973,
    1874087976,
    1874087982,
    1874087986,
    1874087974,
    1874087968,
    1874087960,
    1874087955,
    1874087945,
    1874087924,
    1874087930,
    1874087948,
    1874087967
  ],
  "tags": {
    "barrier": "wall",
    "denomination": "catholic",
    "landuse": "cemetery",
    "religion": "christian"
  }
},
{
  "type": "way",
  "id": 176934052,
  "center": {
    "lat": 47.1796708,
    "lon": 15.5211880
  },
  "nodes": [
    6140790901,
    6140790900,
    1874126684,
    1874126694,
    1874126660,
    1874126669,
    262140812,
    262140810,
    344720775,
    13026969550,
    262140805,
    262140803,
    5823135042,
    1792119889,
    5823135043,
    262140801,
    5823135044,
    1792119895,
    5823135045,
    1792119898,
    9757485296,
    327922183,
    327922175,
    1394073194,
    327922159,
    327922152,
    327922127,
    327922111,
    327922105,
    327922097,
    327922093,
    327922081,
    327922067,
    9757485298,
    9757485299,
    9757485300,
    9757485301,
    9757485302,
    327922015,
    9757485304,
    9757485305,
    9757485303,
    9757485306,
    9757485297,
    9757485307,
    6140792124,
    9757485308,
    1874142602,
    1874142606,
    6140792113,
    6140792102,
    6140792101,
    9757485309,
    1874142604,
    1874142611,
    1874126691,
    6140790903,
    6140790901
  ],
  "tags": {
    "landuse": "cemetery",
    "name": "FriedWald Schöcklland",
    "website": "https://www.friedwald.de/"
  }
},
{
  "type": "way",
  "id": 178653806,
  "center": {
    "lat": 47.1198104,
    "lon": 15.5957161
  },
  "nodes": [
    1890039289,
    1890039249,
    1736277287,
    1890039153,
    1890039176,
    1890039206,
    1890039289
  ],
  "tags": {
    "landuse": "cemetery",
    "source": "GeoImage.at High-Res"
  }
},
{
  "type": "way",
  "id": 181115514,
  "center": {
    "lat": 47.7718725,
    "lon": 15.4987807
  },
  "nodes": [
    5484977966,
    5484977965,
    5484977963,
    5484977964,
    5484977966
  ],
  "tags": {
    "image": "File:Friedhof Lahnsattel 01.jpg",
    "landuse": "cemetery"
  }
},
{
  "type": "way",
  "id": 182457428,
  "center": {
    "lat": 47.7427347,
    "lon": 15.4853158
  },
  "nodes": [
    1928096562,
    1928096700,
    1928096504,
    1928096628,
    1928096626,
    1928096566,
    1928096562
  ],
  "tags": {
    "landuse": "cemetery",
    "name:signed": "no"
  }
},
{
  "type": "way",
  "id": 190432152,
  "center": {
    "lat": 47.0277442,
    "lon": 15.7867705
  },
  "nodes": [
    2010597839,
    2010597820,
    2010597831,
    2010597835,
    2010597837,
    2010597851,
    2010597853,
    2010597847,
    2010597839
  ],
  "tags": {
    "denomination": "catholic",
    "landuse": "cemetery",
    "name": "Friedhof Eichkögl",
    "religion": "christian",
    "source": "GeoImage.at High-Res"
  }
},
{
  "type": "way",
  "id": 191079886,
  "center": {
    "lat": 47.7889223,
    "lon": 15.1812365
  },
  "nodes": [
    2016654743,
    2016654760,
    9301615370,
    9301615369,
    2016654728,
    3142217986,
    2016654628,
    3142218006,
    2016654743
  ],
  "tags": {
    "landuse": "cemetery"
  }
},
{
  "type": "way",
  "id": 194776052,
  "center": {
    "lat": 47.0615241,
    "lon": 15.6071007
  },
  "nodes": [
    2052795647,
    5368195223,
    2052795983,
    2052795897,
    2052795913,
    2052796482,
    2052796308,
    2052795990,
    2052795684,
    2052796391,
    2052795783,
    2052796345,
    2052796096,
    2052796643,
    2052796477,
    2052796653,
    2052796633,
    2052795771,
    1330670557,
    2052795797,
    2052796565,
    2052795683,
    2052795647
  ],
  "tags": {
    "landuse": "cemetery"
  }
},
{
  "type": "way",
  "id": 198152814,
  "center": {
    "lat": 47.0453367,
    "lon": 15.2161220
  },
  "nodes": [
    2083273665,
    2083273088,
    2083273082,
    2083273508,
    2083273122,
    2083273131,
    2083273347,
    2083273037,
    2083273437,
    2083273157,
    2083273101,
    2083273371,
    2083273672,
    2083273665
  ],
  "tags": {
    "landuse": "cemetery",
    "name": "Friedhof Stallhofen"
  }
},
{
  "type": "way",
  "id": 203445138,
  "center": {
    "lat": 47.9951916,
    "lon": 15.3998434
  },
  "nodes": [
    2134617744,
    2134617734,
    2134617732,
    2134617726,
    2134617722,
    2134617718,
    2134617716,
    2134617714,
    2134617711,
    2134617720,
    2134617738,
    2134617740,
    2134617744
  ],
  "tags": {
    "denomination": "catholic",
    "landuse": "cemetery",
    "religion": "christian"
  }
},
{
  "type": "way",
  "id": 203922409,
  "center": {
    "lat": 47.6333365,
    "lon": 15.8267175
  },
  "nodes": [
    2139242662,
    9008566504,
    1151286760,
    2139242632,
    9008566501,
    2139242650,
    2139242662
  ],
  "tags": {
    "amenity": "grave_yard",
    "cemetery": "war_cemetery",
    "landuse": "cemetery",
    "name": "Soldatenfriedhof Semmering",
    "religion": "christian"
  }
},
{
  "type": "way",
  "id": 211691561,
  "center": {
    "lat": 47.2583283,
    "lon": 15.9730318
  },
  "nodes": [
    2216630468,
    2216630460,
    2216630452,
    2216630451,
    2216630455,
    2216630468
  ],
  "tags": {
    "amenity": "grave_yard",
    "name": "Sowjetische Kriegsgräberanlage",
    "wikidata": "Q128600863"
  }
},
{
  "type": "way",
  "id": 220848683,
  "center": {
    "lat": 47.9622013,
    "lon": 15.2047310
  },
  "nodes": [
    2299309770,
    2299309761,
    2299309773,
    2299309796,
    2299309781,
    2299309770
  ],
  "tags": {
    "denomination": "catholic",
    "landuse": "cemetery",
    "name": "Friedhof St. Anton an der Jeßnitz",
    "religion": "christian"
  }
},
{
  "type": "way",
  "id": 224712568,
  "center": {
    "lat": 47.0709214,
    "lon": 15.2538950
  },
  "nodes": [
    2335064697,
    2335064695,
    2335064687,
    3236108028,
    3236107757,
    3236108460,
    1984861461,
    2335064700,
    1984861468,
    2335064704,
    2335064702,
    3236107481,
    2335064697
  ],
  "tags": {
    "landuse": "cemetery",
    "name": "Friedhof St. Bartholomä",
    "source": "OGD Steiermark"
  }
},
{
  "type": "way",
  "id": 234387345,
  "center": {
    "lat": 47.3044935,
    "lon": 15.3639666
  },
  "nodes": [
    2426434307,
    2426434302,
    2426434306,
    2426434311,
    2426434307
  ],
  "tags": {
    "landuse": "cemetery",
    "name": "Friedhof Röthelstein",
    "wikidata": "Q128883386"
  }
},
{
  "type": "way",
  "id": 244408796,
  "center": {
    "lat": 47.0771824,
    "lon": 15.4652716
  },
  "nodes": [
    33054355,
    982623282,
    8222323012,
    2146043823,
    2146043818,
    982623177,
    982622693,
    11184040557,
    33054355
  ],
  "tags": {
    "landuse": "cemetery",
    "name": "Urnenfriedhof Sankt-Leonhard",
    "religion": "christian",
    "source": "GeoImage.at"
  }
},
{
  "type": "way",
  "id": 244446520,
  "center": {
    "lat": 47.0862819,
    "lon": 15.2806533
  },
  "nodes": [
    2517629311,
    2517629304,
    2517629302,
    6549343532,
    2517629314,
    2517629321,
    2517629328,
    2517629307,
    2517629306,
    2517644797,
    2517629309,
    2517629311
  ],
  "tags": {
    "landuse": "cemetery",
    "name": "Friedhof Sankt Oswald"
  }
},
{
  "type": "way",
  "id": 250938598,
  "center": {
    "lat": 47.5602394,
    "lon": 15.3403681
  },
  "nodes": [
    2572711921,
    2572712072,
    2572712090,
    2572712068,
    1728855866,
    2572712075,
    2572711921
  ],
  "tags": {
    "landuse": "cemetery",
    "name": "Friedhof Turnau",
    "wikidata": "Q37773934"
  }
},
{
  "type": "way",
  "id": 267001841,
  "center": {
    "lat": 47.2752953,
    "lon": 15.6958815
  },
  "nodes": [
    2724831678,
    2724831676,
    2724831675,
    2724831677,
    2724831679,
    2724831678
  ],
  "tags": {
    "landuse": "cemetery"
  }
},
{
  "type": "way",
  "id": 276156923,
  "center": {
    "lat": 47.4266725,
    "lon": 15.7804411
  },
  "nodes": [
    2807809681,
    3962544004,
    3962543998,
    3962543990,
    3962543985,
    3962543983,
    7401836330,
    7401836331,
    2807809668,
    2807809670,
    3962544033,
    5122877487,
    2807809681
  ],
  "tags": {
    "landuse": "cemetery"
  }
},
{
  "type": "way",
  "id": 278795335,
  "center": {
    "lat": 47.3006400,
    "lon": 15.5753036
  },
  "nodes": [
    2831018900,
    10173529190,
    10173529186,
    10173529189,
    2831018827,
    2831018542,
    2831018836,
    2831018874,
    10173529185,
    10173529182,
    2831018578,
    10173529183,
    2831018852,
    2831018819,
    2831018842,
    2831018501,
    2831018586,
    2831018816,
    2831018573,
    2831018834,
    2831018535,
    2831018900
  ],
  "tags": {
    "landuse": "cemetery",
    "name": "Friedhof Sankt Kathrein am Offenegg"
  }
},
{
  "type": "way",
  "id": 288436821,
  "center": {
    "lat": 47.1078332,
    "lon": 15.7060345
  },
  "nodes": [
    347294940,
    12761909571,
    12761909570,
    12761909572,
    12761909573,
    9793343863,
    9793343862,
    9793343860,
    347294941,
    1140535860,
    9793343864,
    1140535890,
    2919970519,
    2919969691,
    2919970522,
    1140535844,
    2919983737,
    2919983735,
    2919983741,
    347294942,
    2919983744,
    2919983731,
    2919983740,
    2919983736,
    2371728413,
    2371728608,
    2371728522,
    2342116301,
    2342116199,
    1140535880,
    12761909594,
    12761909593,
    1140535810,
    347294940
  ],
  "tags": {
    "landuse": "cemetery",
    "name": "Friedhof Gleisdorf",
    "wikidata": "Q38181086"
  }
},
{
  "type": "way",
  "id": 288973960,
  "center": {
    "lat": 47.1001081,
    "lon": 15.2195810
  },
  "nodes": [
    2925218853,
    2925218825,
    2925218820,
    2925218846,
    2925218853
  ],
  "tags": {
    "denomination": "roman_catholic",
    "landuse": "cemetery",
    "name": "Friedhof Stiwoll",
    "religion": "christian",
    "source": "geoimage. at 2012"
  }
},
{
  "type": "way",
  "id": 292890408,
  "center": {
    "lat": 47.4388105,
    "lon": 15.6534953
  },
  "nodes": [
    2964462798,
    4608346910,
    4608346907,
    2964462799,
    2964462800,
    2964462801,
    2964462802,
    2964462803,
    2964462804,
    2964462805,
    2964462798
  ],
  "tags": {
    "landuse": "cemetery",
    "name": "Friedhof Fischbach",
    "religion": "christian",
    "wheelchair": "yes"
  }
},
{
  "type": "way",
  "id": 295363757,
  "center": {
    "lat": 47.9847420,
    "lon": 15.0710881
  },
  "nodes": [
    2990716280,
    2990716271,
    2990716267,
    2990716274,
    4363416219,
    4363416230,
    1279571803,
    2990716280
  ],
  "tags": {
    "landuse": "cemetery"
  }
},
{
  "type": "way",
  "id": 301781913,
  "center": {
    "lat": 47.2765719,
    "lon": 15.5154474
  },
  "nodes": [
    1890478867,
    3059151209,
    3059151283,
    3059151480,
    3059151411,
    10964339320,
    3059151219,
    1890478867
  ],
  "tags": {
    "landuse": "cemetery",
    "name": "Friedhof Passail",
    "religion": "christian"
  }
},
{
  "type": "way",
  "id": 304518163,
  "center": {
    "lat": 47.7026890,
    "lon": 15.9281187
  },
  "nodes": [
    3090666088,
    3090666090,
    3090666091,
    2318737802,
    3090666100,
    3090666106,
    3090666109,
    3744628527,
    3744628526,
    3744625917,
    3090666108,
    3090666107,
    3090666103,
    3090666097,
    3090666095,
    3090666089,
    3090666088
  ],
  "tags": {
    "landuse": "cemetery",
    "source": "geoimage.at MaxRes"
  }
},
{
  "type": "way",
  "id": 308465568,
  "center": {
    "lat": 47.7686317,
    "lon": 15.7063807
  },
  "nodes": [
    3137493469,
    1393682765,
    3137493470,
    3137493471,
    3137493472,
    3137493473,
    3137493474,
    3137493475,
    3137493476,
    3137493469
  ],
  "tags": {
    "landuse": "cemetery",
    "name": "Evangelischer Friedhof",
    "wikidata": "Q38173978"
  }
},
{
  "type": "way",
  "id": 318994695,
  "center": {
    "lat": 47.6489253,
    "lon": 15.6289521
  },
  "nodes": [
    3254067590,
    3254067558,
    3254067559,
    3254067566,
    3254067563,
    10152127594,
    3254067567,
    10152127595,
    10152127598,
    3254067560,
    3254067561,
    10152127596,
    3254067562,
    10152127597,
    3254067590
  ],
  "tags": {
    "amenity": "grave_yard",
    "name": "Friedhof Kapellen"
  }
},
{
  "type": "way",
  "id": 320839765,
  "center": {
    "lat": 47.7392679,
    "lon": 15.3092140
  },
  "nodes": [
    3274856826,
    3274856822,
    1432640765,
    3736312013,
    3736312016,
    3736312017,
    3736312021,
    3274856825,
    3594427737,
    3274856824,
    3594427744,
    3594427745,
    3274856826
  ],
  "tags": {
    "denomination": "catholic",
    "landuse": "cemetery",
    "religion": "christian"
  }
},
{
  "type": "way",
  "id": 329709177,
  "center": {
    "lat": 47.4862822,
    "lon": 15.3926089
  },
  "nodes": [
    3366420433,
    3366420431,
    3366420429,
    3366420430,
    3366420432,
    3366420433
  ],
  "tags": {
    "landuse": "cemetery",
    "name": "Friedhof Mürzhofen"
  }
},
{
  "type": "way",
  "id": 333546213,
  "center": {
    "lat": 47.0572765,
    "lon": 15.1388340
  },
  "nodes": [
    1109533228,
    3406789578,
    3406789587,
    3406792793,
    3406792795,
    337790097,
    337790103,
    1109533228
  ],
  "tags": {
    "landuse": "cemetery",
    "name": "Friedhof Bärnbach",
    "religion": "christian",
    "source": "plan.at 2009",
    "website": "http://voitsberg.graz-seckau.at/friedhof-der-pfarre-voitsberg?d=uebersichtsplan-zum-friedhof#.VQqYmCjch0s"
  }
},
{
  "type": "way",
  "id": 333546214,
  "center": {
    "lat": 47.0587079,
    "lon": 15.1366296
  },
  "nodes": [
    3550476117,
    3406789590,
    1109533256,
    3406789586,
    3550476117
  ],
  "tags": {
    "landuse": "cemetery",
    "name": "Urnenfriedhof",
    "religion": "christian"
  }
},
{
  "type": "way",
  "id": 337440579,
  "center": {
    "lat": 47.5246314,
    "lon": 15.7798145
  },
  "nodes": [
    3445309711,
    4630096257,
    3445309674,
    4114306263,
    334142915,
    4630096258,
    3445309666,
    3445309710,
    4114306193,
    3445309705,
    3445309711
  ],
  "tags": {
    "heritage": "2",
    "heritage:operator": "bda",
    "landuse": "cemetery",
    "name": "Friedhof Rettenegg",
    "ref:at:bda": "101613",
    "religion": "christian",
    "wikidata": "Q37719046"
  }
},
{
  "type": "way",
  "id": 344298370,
  "center": {
    "lat": 47.1510160,
    "lon": 15.8975368
  },
  "nodes": [
    3510411568,
    3510411524,
    3510411493,
    3510411706,
    3510411527,
    3510411568
  ],
  "tags": {
    "landuse": "cemetery",
    "name": "Friedhof Großsteinbach",
    "wikidata": "Q128881806"
  }
},
{
  "type": "way",
  "id": 345094120,
  "center": {
    "lat": 47.2714831,
    "lon": 15.9635014
  },
  "nodes": [
    336309527,
    336309525,
    336309521,
    2430412569,
    7239497301,
    11925040691,
    11925040693,
    11925040694,
    2430412573,
    2430412575,
    336309527
  ],
  "tags": {
    "landuse": "cemetery",
    "name": "Stadtfriedhof Hartberg",
    "start_date": "1897",
    "wikidata": "Q129109959"
  }
},
{
  "type": "way",
  "id": 348591766,
  "center": {
    "lat": 47.3827794,
    "lon": 15.5722414
  },
  "nodes": [
    3546867967,
    3546867937,
    3546867908,
    9703309353,
    3546867952,
    3546867967
  ],
  "tags": {
    "denomination": "catholic",
    "landuse": "cemetery",
    "name": "Friedhof Gasen",
    "religion": "christian"
  }
},
{
  "type": "way",
  "id": 359377041,
  "center": {
    "lat": 47.0465871,
    "lon": 15.8927952
  },
  "nodes": [
    3641033071,
    5813208374,
    3641032577,
    3641032752,
    3641032549,
    3641033092,
    3641033071
  ],
  "tags": {
    "landuse": "cemetery",
    "name": "Friedhof Ottendorf an der Rittschein"
  }
},
{
  "type": "way",
  "id": 359606606,
  "center": {
    "lat": 47.2024937,
    "lon": 15.9649731
  },
  "nodes": [
    3642838676,
    3642838674,
    3642838675,
    3642838677,
    3642838679,
    3642838683,
    3642838685,
    3642838684,
    3642838681,
    3642838680,
    3642838676
  ],
  "tags": {
    "landuse": "cemetery",
    "wikidata": "Q128858981"
  }
},
{
  "type": "way",
  "id": 365482567,
  "center": {
    "lat": 47.4218352,
    "lon": 15.7836958
  },
  "nodes": [
    3694927381,
    3694927379,
    3694927378,
    3694927380,
    3694927381
  ],
  "tags": {
    "amenity": "grave_yard",
    "name": "Soldatenfriedhof"
  }
},
{
  "type": "way",
  "id": 389691799,
  "center": {
    "lat": 47.0482082,
    "lon": 15.9456057
  },
  "nodes": [
    3928623172,
    4361277239,
    3928623178,
    3928623179,
    4361277216,
    3928623175,
    3928623176,
    3928623177,
    3928623172
  ],
  "tags": {
    "landuse": "cemetery"
  }
},
{
  "type": "way",
  "id": 409364724,
  "center": {
    "lat": 47.4664197,
    "lon": 15.7876441
  },
  "nodes": [
    4112879227,
    4113067162,
    4112879221,
    5149612070,
    4112879223,
    4112879225,
    3970971431,
    3970971455,
    3970971456,
    3970971564,
    3970971563,
    3970971577,
    4112879224,
    4113067164,
    4112879220,
    3970971586,
    3970971589,
    4112879229,
    4112879226,
    3970971590,
    3970971587,
    3970971583,
    3970971581,
    3970971572,
    4112849382,
    4112879228,
    5149612072,
    5149612073,
    4112879222,
    4112879218,
    4112879219,
    5149612071,
    4112879227
  ],
  "tags": {
    "amenity": "grave_yard",
    "religion": "christian",
    "source": "basemap.at"
  }
},
{
  "type": "way",
  "id": 409367928,
  "center": {
    "lat": 47.4682331,
    "lon": 15.7870957
  },
  "nodes": [
    4112946423,
    4112946425,
    4112946424,
    4112946426,
    7425629083,
    7425629082,
    7425629087,
    7425629086,
    7425629085,
    7425629084,
    4112946423
  ],
  "tags": {
    "landuse": "cemetery",
    "religion": "christian"
  }
},
{
  "type": "way",
  "id": 434929238,
  "center": {
    "lat": 47.6697633,
    "lon": 15.1695555
  },
  "nodes": [
    4328380779,
    4328380788,
    4328380789,
    4328380778,
    4328380773,
    4328380774,
    4328380771,
    4328380779
  ],
  "tags": {
    "landuse": "cemetery"
  }
},
{
  "type": "way",
  "id": 434997150,
  "center": {
    "lat": 47.0337053,
    "lon": 15.3033801
  },
  "nodes": [
    279010206,
    4329328781,
    3421522063,
    3474486849,
    3421521911,
    4329328780,
    4329328778,
    4329328779,
    3474486843,
    279010208,
    279010210,
    3475959867,
    3475959978,
    3409448227,
    2748174216,
    3289790161,
    3289790640,
    2748174214,
    3475963884,
    279010212,
    3409448207,
    3474486828,
    3474486824,
    279010206
  ],
  "tags": {
    "landuse": "cemetery",
    "name": "Friedhof Hitzendorf"
  }
},
{
  "type": "way",
  "id": 478439888,
  "center": {
    "lat": 47.6755492,
    "lon": 15.4939913
  },
  "nodes": [
    8996419282,
    4716556425,
    4716556424,
    4716556423,
    4716556427,
    4716556428,
    8996419279,
    8996419284,
    8996419280,
    8996419281,
    8996419282
  ],
  "tags": {
    "barrier": "fence",
    "fence_type": "wood",
    "landuse": "cemetery",
    "name": "Friedhof Mürzsteg",
    "religion": "christian"
  }
},
{
  "type": "way",
  "id": 545419302,
  "center": {
    "lat": 47.6716138,
    "lon": 15.9398951
  },
  "nodes": [
    5271460680,
    5271464232,
    5271460679,
    5271460678,
    5271460677,
    5271460680
  ],
  "tags": {
    "landuse": "cemetery",
    "name": "russischer Soldatenfriedhof",
    "wikidata": "Q125918926"
  }
},
{
  "type": "way",
  "id": 625809138,
  "center": {
    "lat": 47.5253114,
    "lon": 15.7835146
  },
  "nodes": [
    5908527697,
    5908527696,
    5908527695,
    5908527694,
    5908527693,
    5908527692,
    5908527691,
    5908527690,
    5908527697
  ],
  "tags": {
    "landuse": "cemetery",
    "name": "Soldatenfriedhof Rettenegg"
  }
},
{
  "type": "way",
  "id": 627751102,
  "center": {
    "lat": 47.5155186,
    "lon": 15.1742769
  },
  "nodes": [
    3506956495,
    3506956497,
    3506956561,
    3507263439,
    3507263436,
    3506956495
  ],
  "tags": {
    "landuse": "cemetery"
  }
},
{
  "type": "way",
  "id": 724158060,
  "center": {
    "lat": 47.2117974,
    "lon": 15.5590813
  },
  "nodes": [
    6791440937,
    1761260949,
    1761260932,
    6791440938,
    1761260939,
    11142477389,
    6058273204,
    1761260872,
    11142477388,
    1761260910,
    1761260938,
    6058273164,
    1761260948,
    6058273180,
    4042239309,
    4042239310,
    4042239317,
    4042239320,
    4042239330,
    4042239328,
    6058273218,
    4042239347,
    4042239354,
    4042239353,
    1761260950,
    6058273265,
    6791440937
  ],
  "tags": {
    "landuse": "cemetery",
    "wikidata": "Q38184265"
  }
},
{
  "type": "way",
  "id": 843681062,
  "center": {
    "lat": 47.9805052,
    "lon": 15.7356955
  },
  "nodes": [
    7869889988,
    7869889989,
    7869889990,
    7869889991,
    7869889992,
    7869889993,
    7869889994,
    7869889995,
    7869889996,
    7869889997,
    7869889998,
    7869889988
  ],
  "tags": {
    "denomination": "catholic",
    "landuse": "cemetery",
    "religion": "christian"
  }
},
{
  "type": "way",
  "id": 888877065,
  "center": {
    "lat": 47.4861930,
    "lon": 15.3934329
  },
  "nodes": [
    8263857753,
    8263857752,
    8263857751,
    8263857750,
    8263857749,
    8263857748,
    8263857747,
    8263857746,
    8263857745,
    8263857744,
    8263857743,
    8263857742,
    8263857741,
    8263857740,
    8263857739,
    8263857738,
    8263857737,
    8263857736,
    8263857753
  ],
  "tags": {
    "heritage": "2",
    "heritage:operator": "bda",
    "landuse": "cemetery",
    "ref:at:bda": "9882",
    "wikidata": "Q38183595"
  }
},
{
  "type": "way",
  "id": 954023983,
  "center": {
    "lat": 47.5456119,
    "lon": 15.1663685
  },
  "nodes": [
    8829936587,
    8829936588,
    8829936589,
    8829936610,
    8829936590,
    8829936591,
    8829961920,
    8829961923,
    8829936587
  ],
  "tags": {
    "landuse": "cemetery"
  }
},
{
  "type": "way",
  "id": 997870913,
  "center": {
    "lat": 47.4653287,
    "lon": 15.9156690
  },
  "nodes": [
    9213700738,
    9213700737,
    9213700736,
    9213700735,
    9213700734,
    9213700733,
    9213700732,
    9213700731,
    9213700726,
    9213700725,
    9213700730,
    9213700738
  ],
  "tags": {
    "landuse": "cemetery",
    "name": "Friedhof Festenburg",
    "religion": "christian",
    "website": "https://www.festenburg.at/de/pfarre/friedhof/",
    "wikidata": "Q129206422",
    "wikimedia_commons": "Category:Bergfriedhof Festenburg"
  }
},
{
  "type": "way",
  "id": 1008858392,
  "center": {
    "lat": 47.5545394,
    "lon": 15.3294961
  },
  "nodes": [
    9308452895,
    9308452894,
    9308452893,
    9308452892,
    9308452891,
    9308452895
  ],
  "tags": {
    "landuse": "cemetery",
    "wikidata": "Q129206402"
  }
},
{
  "type": "way",
  "id": 1008858398,
  "center": {
    "lat": 47.3555813,
    "lon": 15.6971307
  },
  "nodes": [
    9308496754,
    9308496753,
    9308496752,
    9308496751,
    9308496750,
    9308496749,
    9308496748,
    9308496747,
    9308496746,
    9308496745,
    9308496744,
    9308496743,
    9308496742,
    9308496741,
    9308496740,
    9308496754
  ],
  "tags": {
    "landuse": "cemetery",
    "name": "Friedhof Birkfeld"
  }
},
{
  "type": "way",
  "id": 1008858400,
  "center": {
    "lat": 47.4493521,
    "lon": 15.8816190
  },
  "nodes": [
    9308496777,
    9308496776,
    9308496780,
    9308496781,
    9308496779,
    9308496778,
    9308496777
  ],
  "tags": {
    "amenity": "grave_yard",
    "name": "Soldatenfriedhof Waldbach-Mönichwald",
    "source": "Land Steiermark - data.steiermark.gv.at"
  }
},
{
  "type": "way",
  "id": 1010804246,
  "center": {
    "lat": 47.1981725,
    "lon": 15.3593526
  },
  "nodes": [
    9325651982,
    9325651979,
    9325651980,
    9325651981,
    9325651982
  ],
  "tags": {
    "cemetery": "sector"
  }
},
{
  "type": "way",
  "id": 1017357996,
  "center": {
    "lat": 47.1630179,
    "lon": 15.5304916
  },
  "nodes": [
    9383731798,
    9383731801,
    9383731799,
    1396197499,
    9383731800,
    9383731798
  ],
  "tags": {
    "addr:city": "Kumberg",
    "addr:housenumber": "27",
    "addr:postcode": "8062",
    "addr:street": "Meierhöfenstraße",
    "landuse": "cemetery",
    "name": "Friedhof Kumberg",
    "religion": "christian"
  }
},
{
  "type": "way",
  "id": 1022433094,
  "center": {
    "lat": 47.0558685,
    "lon": 15.4795289
  },
  "nodes": [
    9429719677,
    9429719676,
    9429719675,
    9429719674,
    9429719677
  ],
  "tags": {
    "cemetery": "grave",
    "name": "Dr.Karl Ritter von Jaeger – Stifter des Kriegerdenkmals"
  }
},
{
  "type": "way",
  "id": 1022433095,
  "center": {
    "lat": 47.0556399,
    "lon": 15.4795912
  },
  "nodes": [
    9429719681,
    9429719680,
    9429719679,
    9429719678,
    9429719681
  ],
  "tags": {
    "cemetery": "grave",
    "name": "Maurer Gottfried – Erbauer des Glockenspiels"
  }
},
{
  "type": "way",
  "id": 1022433096,
  "center": {
    "lat": 47.0556491,
    "lon": 15.4798473
  },
  "nodes": [
    9429719687,
    9429719686,
    9429719685,
    9429719684,
    9429719683,
    9429719682,
    9429719687
  ],
  "tags": {
    "cemetery": "sector",
    "ref": "4"
  }
},
{
  "type": "way",
  "id": 1022433097,
  "center": {
    "lat": 47.0551358,
    "lon": 15.4801242
  },
  "nodes": [
    9429719695,
    9429719694,
    9429719693,
    9429719692,
    9429719691,
    9429719690,
    9429719689,
    9429719688,
    9429719695
  ],
  "tags": {
    "cemetery": "sector",
    "ref": "3"
  }
},
{
  "type": "way",
  "id": 1022433098,
  "center": {
    "lat": 47.0557232,
    "lon": 15.4802236
  },
  "nodes": [
    9429719699,
    9429719698,
    9429719697,
    9429719696,
    9429719699
  ],
  "tags": {
    "cemetery": "sector",
    "ref": "2"
  }
},
{
  "type": "way",
  "id": 1022433099,
  "center": {
    "lat": 47.0551908,
    "lon": 15.4804941
  },
  "nodes": [
    9429719703,
    9429719702,
    9429719701,
    9429719700,
    9429719703
  ],
  "tags": {
    "cemetery": "sector",
    "ref": "1"
  }
},
{
  "type": "way",
  "id": 1022458954,
  "center": {
    "lat": 47.0556131,
    "lon": 15.4766669
  },
  "nodes": [
    9429913306,
    9429913305,
    9429913304,
    9429913303,
    9429913306
  ],
  "tags": {
    "cemetery": "sector",
    "ref": "17"
  }
},
{
  "type": "way",
  "id": 1022458955,
  "center": {
    "lat": 47.0556472,
    "lon": 15.4770108
  },
  "nodes": [
    9429913310,
    9429913309,
    9429913308,
    9429913307,
    9429913310
  ],
  "tags": {
    "cemetery": "sector",
    "ref": "16"
  }
},
{
  "type": "way",
  "id": 1022458956,
  "center": {
    "lat": 47.0553672,
    "lon": 15.4772861
  },
  "nodes": [
    9429935624,
    9429935623,
    9429935622,
    9429935621,
    9429935620,
    9429935619,
    9429935618,
    9429913311,
    9429935617,
    9429913312,
    9429913316,
    9429913315,
    9429913314,
    9429913313,
    9429935624
  ],
  "tags": {
    "cemetery": "sector",
    "ref": "15"
  }
},
{
  "type": "way",
  "id": 1022458957,
  "center": {
    "lat": 47.0557041,
    "lon": 15.4773582
  },
  "nodes": [
    9429935630,
    9429935629,
    9429935628,
    9429935627,
    9429935626,
    9429935625,
    9429935630
  ],
  "tags": {
    "cemetery": "sector",
    "ref": "14"
  }
},
{
  "type": "way",
  "id": 1022458958,
  "center": {
    "lat": 47.0557679,
    "lon": 15.4777810
  },
  "nodes": [
    9429935634,
    9429935633,
    9429935632,
    9429935631,
    9429935634
  ],
  "tags": {
    "cemetery": "sector",
    "ref": "13"
  }
},
{
  "type": "way",
  "id": 1022458959,
  "center": {
    "lat": 47.0554576,
    "lon": 15.4778329
  },
  "nodes": [
    9429935638,
    9429935637,
    9429935636,
    9429935635,
    9429935638
  ],
  "tags": {
    "cemetery": "sector",
    "ref": "12"
  }
},
{
  "type": "way",
  "id": 1022458960,
  "center": {
    "lat": 47.0554979,
    "lon": 15.4781290
  },
  "nodes": [
    9429935644,
    9429935643,
    9429935642,
    9429935641,
    9429935640,
    9429935639,
    9429935644
  ],
  "tags": {
    "cemetery": "sector",
    "ref": "11"
  }
},
{
  "type": "way",
  "id": 1022458961,
  "center": {
    "lat": 47.0558014,
    "lon": 15.4780656
  },
  "nodes": [
    9429935648,
    9429935647,
    9429935646,
    9429935645,
    9429935648
  ],
  "tags": {
    "cemetery": "sector",
    "ref": "10"
  }
},
{
  "type": "way",
  "id": 1022458966,
  "center": {
    "lat": 47.0556551,
    "lon": 15.4785122
  },
  "nodes": [
    9429935662,
    9429935661,
    9429935660,
    9429935659,
    9429935657,
    9429935658,
    9429935662
  ],
  "tags": {
    "cemetery": "sector",
    "ref": "9"
  }
},
{
  "type": "way",
  "id": 1022458968,
  "center": {
    "lat": 47.0556038,
    "lon": 15.4787849
  },
  "nodes": [
    9429935681,
    9429935680,
    9429935679,
    9429935678,
    9429935677,
    9429935676,
    9429935667,
    9429995662,
    9429995661,
    9429935668,
    9429935675,
    9429935669,
    9429935672,
    9429935674,
    9429935671,
    9429935670,
    9429935673,
    9429935681
  ],
  "tags": {
    "cemetery": "sector",
    "ref": "8"
  }
},
{
  "type": "way",
  "id": 1022458969,
  "center": {
    "lat": 47.0559262,
    "lon": 15.4787695
  },
  "nodes": [
    9429935687,
    9429935686,
    9429935685,
    9429935684,
    9429935683,
    9429935682,
    9429935687
  ],
  "tags": {
    "cemetery": "sector",
    "ref": "7"
  }
},