{
  "version": 0.6,
  "generator": "Overpass API 0.7.62.8 e802775f",
  "osm3s": {
    "timestamp_osm_base": "2025-11-02T22:53:19Z",
    "copyright": "The data included in this document is from www.openstreetmap.org. The data is made available under ODbL."
  },
  "elements": [

{
  "type": "way",
  "id": 11412181,
  "center": {
    "lat": 48.3118985,
    "lon": 14.2857309
  },
  "nodes": [
    101580829,
    1574593791,
    101580834,
    1574594226,
    1574594443,
    1574594575,
    1574594606,
    1574594539,
    1574594644,
    1574594635,
    1574594728,
    1574594810,
    1574594837,
    101580838,
    1574595002,
    101580839,
    101580840,
    1574595126,
    1574595124,
    1574595097,
    1574595091,
    101580841,
    1574594431,
    101580843,
    101580845,
    101580846,
    101580829
  ],
  "tags": {
    "alt_name": "Urfahrer Friedhof",
    "amenity": "grave_yard",
    "landuse": "cemetery",
    "name": "Friedhof der Stadtpfarre Urfahr",
    "name:en": "Cementry Urfahr",
    "religion": "christian",
    "wikidata": "Q30149708",
    "wikimedia_commons": "Category:Pfarrfriedhof Urfahr",
    "wikipedia": "de:Pfarrfriedhof Urfahr"
  }
},
{
  "type": "way",
  "id": 15533474,
  "center": {
    "lat": 48.3538730,
    "lon": 14.4233465
  },
  "nodes": [
    154999199,
    154999201,
    154999202,
    9181967534,
    313214173,
    313214175,
    313214177,
    9181967527,
    9181967526,
    313214179,
    9181967532,
    9181967533,
    154999204,
    154999199
  ],
  "tags": {
    "amenity": "grave_yard",
    "denomination": "catholic",
    "landuse": "cemetery",
    "name": "Röm.-kath.-Friedhof",
    "religion": "christian"
  }
},
{
  "type": "way",
  "id": 15661359,
  "center": {
    "lat": 48.2426495,
    "lon": 14.3324969
  },
  "nodes": [
    156157888,
    1330696365,
    156157891,
    1330695909,
    1330696403,
    12518992223,
    12518992218,
    1330695915,
    1330696407,
    156157893,
    1330695807,
    1330695629,
    12518992221,
    156157894,
    1330695569,
    1330696019,
    156157888
  ],
  "tags": {
    "date": "1782",
    "landuse": "cemetery",
    "name": "Friedhof Ebelsberg",
    "name:de": "Friedhof Ebelsberg",
    "name:en": "cemetery Ebelsberg",
    "wikidata": "Q37785146"
  }
},
{
  "type": "way",
  "id": 18382253,
  "center": {
    "lat": 48.2721205,
    "lon": 14.4447778
  },
  "nodes": [
    189471306,
    189471310,
    189471314,
    12065321837,
    3778586307,
    189471317,
    12017507033,
    189471319,
    189471322,
    189471325,
    189471328,
    189471331,
    2545868997,
    2712299030,
    12065321835,
    12065321836,
    2712299031,
    2712299026,
    189471306
  ],
  "tags": {
    "landuse": "cemetery",
    "name": "Friedhof St. Georgen an der Gusen",
    "religion": "no"
  }
},
{
  "type": "way",
  "id": 23275756,
  "center": {
    "lat": 48.1605661,
    "lon": 14.3398268
  },
  "nodes": [
    251889645,
    1251728914,
    401439293,
    401439294,
    401439295,
    401439296,
    401439297,
    401439298,
    6390177608,
    1879138711,
    1251728853,
    1251728888,
    6390177604,
    1251728892,
    1251728884,
    1251728862,
    6390177607,
    6390177605,
    6390177606,
    251889646,
    251889647,
    366638882,
    251889645
  ],
  "tags": {
    "landuse": "cemetery",
    "name": "Friedhof Niederneukirchen"
  }
},
{
  "type": "way",
  "id": 24444079,
  "center": {
    "lat": 48.0453942,
    "lon": 14.4195977
  },
  "nodes": [
    265662854,
    3825356425,
    3825356426,
    3825356423,
    3825356419,
    3825356400,
    1469746288,
    3639979335,
    1470926686,
    1470926685,
    3639979308,
    273229807,
    265662855,
    3639934545,
    3639934544,
    3639934525,
    3639934527,
    270297359,
    3825356357,
    273236376,
    265662856,
    3639934506,
    265662859,
    1094567336,
    3639934539,
    265662860,
    1094567540,
    1470926616,
    1470926622,
    1470926638,
    1470926624,
    1470926632,
    1094567699,
    3639979313,
    3825356369,
    1470926653,
    1470926665,
    3639979326,
    1469745879,
    1094568099,
    265662861,
    265662862,
    3643264335,
    3643264337,
    265662863,
    3825356405,
    1469784215,
    3825356413,
    265662854
  ],
  "tags": {
    "alt_name": "Taborfriedhof",
    "denomination": "roman_catholic",
    "landuse": "cemetery",
    "name": "Friedhof Steyr",
    "opening_hours": "Nov-Feb: 07:00-17:00; Mar,Apr,Sep: 07:00-19:00; May-Aug: 07:00-20:00; Oct: 07:00-18:00",
    "religion": "christian",
    "wikidata": "Q2386636",
    "wikipedia": "de:Taborfriedhof"
  }
},
{
  "type": "way",
  "id": 24444106,
  "center": {
    "lat": 48.0447650,
    "lon": 14.4230182
  },
  "nodes": [
    265663077,
    265663078,
    265663079,
    3643275262,
    3643275257,
    265663081,
    265663082,
    1094567674,
    265663083,
    3643275230,
    3643275228,
    265663084,
    3643275226,
    3643275225,
    3643275224,
    3643275223,
    3825471322,
    3825471323,
    265663085,
    265663086,
    3825471337,
    1094567594,
    3825471338,
    1464294401,
    3643275240,
    265663087,
    3643275248,
    265663077
  ],
  "tags": {
    "barrier": "wall",
    "landuse": "cemetery",
    "name": "Urnenfriedhof Steyr",
    "religion": "christian"
  }
},
{
  "type": "way",
  "id": 24464902,
  "center": {
    "lat": 48.0226334,
    "lon": 14.4008046
  },
  "nodes": [
    265955521,
    2268053533,
    12676261075,
    2268053532,
    265955522,
    2268053516,
    260796239,
    2268053513,
    265955523,
    2268053506,
    265955524,
    2268053509,
    265955525,
    2268053518,
    2268053520,
    265955526,
    265955521
  ],
  "tags": {
    "landuse": "cemetery",
    "name": "Friedhof Garsten",
    "religion": "christian"
  }
},
{
  "type": "way",
  "id": 24465808,
  "center": {
    "lat": 48.0895907,
    "lon": 14.4138616
  },
  "nodes": [
    265969843,
    265969844,
    1811884412,
    1811884410,
    265969845,
    265969846,
    265969843
  ],
  "tags": {
    "barrier": "wall",
    "landuse": "cemetery"
  }
},
{
  "type": "way",
  "id": 24466159,
  "center": {
    "lat": 48.0379344,
    "lon": 14.3854748
  },
  "nodes": [
    9537353284,
    1534568004,
    265973285,
    2431361260,
    265973286,
    265973287,
    265973290,
    9537353284
  ],
  "tags": {
    "barrier": "wall",
    "landuse": "cemetery",
    "name": "Friedhof Christkindl"
  }
},
{
  "type": "way",
  "id": 24467120,
  "center": {
    "lat": 48.0436465,
    "lon": 14.3040885
  },
  "nodes": [
    265983921,
    265983922,
    338978738,
    265983924,
    7652315090,
    7652315089,
    12568439290,
    469131354,
    12568439289,
    265983925,
    265983921
  ],
  "tags": {
    "landuse": "cemetery",
    "religion": "christian",
    "wikidata": "Q38100570"
  }
},
{
  "type": "way",
  "id": 24873824,
  "center": {
    "lat": 48.0785139,
    "lon": 14.4612186
  },
  "nodes": [
    270292048,
    270292049,
    270292050,
    270292051,
    270292048
  ],
  "tags": {
    "landuse": "cemetery",
    "name": "Friedhof Haidershofen",
    "religion": "christian",
    "wikidata": "Q126900781"
  }
},
{
  "type": "way",
  "id": 24958134,
  "center": {
    "lat": 48.2387962,
    "lon": 14.2535664
  },
  "nodes": [
    271210715,
    3741084839,
    271210718,
    3362110806,
    271210719,
    1039107658,
    271210722,
    271210724,
    3362110810,
    3362110812,
    3362110811,
    3362110809,
    3362110808,
    3362110807,
    271210715
  ],
  "tags": {
    "landuse": "cemetery",
    "name": "Waldfriedhof Traun-St. Martin"
  }
},
{
  "type": "way",
  "id": 24958241,
  "center": {
    "lat": 48.2273838,
    "lon": 14.2333526
  },
  "nodes": [
    271214172,
    3451313206,
    271214177,
    3451313204,
    271214180,
    3451313192,
    2392835900,
    271214183,
    3689563519,
    3451313105,
    271214185,
    3451313096,
    1066186177,
    3451313044,
    3451313037,
    271214188,
    3451312924,
    3451312917,
    1066186988,
    3451312915,
    3451312916,
    3451313107,
    2392835899,
    3451313115,
    3451313126,
    271214194,
    3451313128,
    2392835897,
    3451313121,
    271214197,
    2392835904,
    2392835903,
    271214200,
    2510247852,
    271214207,
    271214210,
    271214213,
    3689563528,
    271214216,
    3451313207,
    3451313208,
    271214219,
    3451313209,
    2392835896,
    271214172
  ],
  "tags": {
    "landuse": "cemetery",
    "name": "Stadtfriedhof Traun"
  }
},
{
  "type": "way",
  "id": 25535861,
  "center": {
    "lat": 48.8882872,
    "lon": 14.6200542
  },
  "nodes": [
    278303799,
    278303801,
    278303802,
    278303803,
    2408059424,
    2408059429,
    2408059426,
    2408059430,
    2408059431,
    2408059433,
    278303799
  ],
  "tags": {
    "landuse": "cemetery",
    "name": "nový hřbitov Borovany",
    "religion": "christian",
    "sorting_name": "Borovany"
  }
},
{
  "type": "way",
  "id": 25578966,
  "center": {
    "lat": 48.0402301,
    "lon": 14.2036910
  },
  "nodes": [
    278820111,
    278820112,
    278820113,
    278820114,
    278820111
  ],
  "tags": {
    "landuse": "cemetery",
    "name": "Friedhof Bad Hall",
    "religion": "christian"
  }
},
{
  "type": "way",
  "id": 25648218,
  "center": {
    "lat": 48.1227454,
    "lon": 14.8655162
  },
  "nodes": [
    279584622,
    279584623,
    4921778992,
    4921778929,
    3731601036,
    3731601032,
    4921778399,
    279584624,
    279584621,
    4921777348,
    4921777394,
    695130375,
    4921777333,
    4921777326,
    279584622
  ],
  "tags": {
    "addr:city": "Amstetten",
    "addr:country": "AT",
    "addr:housenumber": "20",
    "addr:postcode": "3300",
    "addr:street": "Kirchenstraße",
    "landuse": "cemetery",
    "name": "Alter Friedhof",
    "religion": "christian",
    "wikidata": "Q126900858"
  }
},
{
  "type": "way",
  "id": 25675046,
  "center": {
    "lat": 48.1108181,
    "lon": 14.9297715
  },
  "nodes": [
    279896735,
    279896714,
    11209563474,
    280958659,
    279896756,
    2283237336,
    279896717,
    279896735
  ],
  "tags": {
    "historic": "memorial",
    "landuse": "cemetery",
    "name": "Soldatenfriedhof aus dem 1. Weltkrieg",
    "wikidata": "Q126900824"
  }
},
{
  "type": "way",
  "id": 26266334,
  "center": {
    "lat": 48.1447394,
    "lon": 14.2763309
  },
  "nodes": [
    287697758,
    8350079577,
    8350079584,
    287697766,
    6654737808,
    6654737807,
    6654737806,
    4216869244,
    4216869245,
    4216869246,
    4216869247,
    5316517802,
    5306032398,
    5306032394,
    287697758
  ],
  "tags": {
    "denomination": "catholic",
    "landuse": "cemetery",
    "name": "Friedhof St. Marien",
    "religion": "christian"
  }
},
{
  "type": "way",
  "id": 26735014,
  "center": {
    "lat": 48.0253465,
    "lon": 14.7546822
  },
  "nodes": [
    293238829,
    293238833,
    293238838,
    293238857,
    293238846,
    293238841,
    293238829
  ],
  "tags": {
    "landuse": "cemetery",
    "religion": "christian"
  }
},
{
  "type": "way",
  "id": 27652424,
  "center": {
    "lat": 48.2842556,
    "lon": 14.2483597
  },
  "nodes": [
    303707528,
    303707529,
    1224718041,
    1224718245,
    1224718163,
    303707531,
    1107823354,
    1224718067,
    1107823174,
    303707532,
    1224718292,
    1107823205,
    1107823267,
    303707533,
    1107823317,
    1224149753,
    1224150017,
    1224149940,
    1224149659,
    1224718146,
    1224718106,
    1224718266,
    1224718080,
    1224718250,
    1224718285,
    303707528
  ],
  "tags": {
    "landuse": "cemetery",
    "name": "Kommunalfriedhof Leonding"
  }
},
{
  "type": "way",
  "id": 27763267,
  "center": {
    "lat": 48.4283877,
    "lon": 14.4801578
  },
  "nodes": [
    304862520,
    304862522,
    12337669220,
    12337669219,
    304862523,
    2415929263,
    304862524,
    2415929277,
    304862520
  ],
  "tags": {
    "landuse": "cemetery",
    "name": "Friedhof Neumarkt im Mühlkreis"
  }
},
{
  "type": "way",
  "id": 27781703,
  "center": {
    "lat": 48.0213749,
    "lon": 14.4228573
  },
  "nodes": [
    305051985,
    305051986,
    305051987,
    305051988,
    1385590493,
    305051989,
    305051990,
    305051991,
    305051993,
    305051994,
    305051985
  ],
  "tags": {
    "amenity": "grave_yard",
    "religion": "christian"
  }
},
{
  "type": "way",
  "id": 28126071,
  "center": {
    "lat": 48.0012231,
    "lon": 14.2578829
  },
  "nodes": [
    308920306,
    308920307,
    12574069130,
    308920308,
    308920309,
    308920306
  ],
  "tags": {
    "landuse": "cemetery",
    "name": "Friedhof Waldneukirchen",
    "religion": "christian"
  }
},
{
  "type": "way",
  "id": 28285933,
  "center": {
    "lat": 48.1405421,
    "lon": 14.2290528
  },
  "nodes": [
    310627405,
    12919824816,
    12919824817,
    12919824820,
    12919824821,
    310627406,
    1612255336,
    1640336770,
    1612255330,
    1612255313,
    12919824814,
    4720258415,
    1612255316,
    310627407,
    12919824813,
    310627409,
    310627410,
    12919824812,
    310627405
  ],
  "tags": {
    "landuse": "cemetery",
    "name": "Friedhof Neuhofen an der Krems"
  }
},
{
  "type": "way",
  "id": 28341996,
  "center": {
    "lat": 48.2144352,
    "lon": 14.2869972
  },
  "nodes": [
    311278695,
    5225182496,
    5225182495,
    5225182501,
    311278697,
    5225182503,
    311278699,
    5225182523,
    311278700,
    5225182500,
    5225182499,
    5225182498,
    5225182497,
    311278695
  ],
  "tags": {
    "landuse": "cemetery",
    "name": "Friedhof Ansfelden",
    "religion": "christian",
    "wikidata": "Q38179623"
  }
},
{
  "type": "way",
  "id": 28579013,
  "center": {
    "lat": 48.3551904,
    "lon": 14.4233041
  },
  "nodes": [
    313914315,
    313914316,
    313914317,
    313914318,
    313914315
  ],
  "tags": {
    "amenity": "grave_yard",
    "created_by": "Potlatch 0.10f",
    "denomination": "protestant",
    "name": "Ev. Friedhof",
    "religion": "christian"
  }
},
{
  "type": "way",
  "id": 28593233,
  "center": {
    "lat": 48.9575184,
    "lon": 14.4971920
  },
  "nodes": [
    314068758,
    863234778,
    863225825,
    4547159732,
    863241013,
    863231178,
    878539572,
    314068759,
    4547156140,
    314068760,
    314068761,
    863232692,
    863235819,
    314068758
  ],
  "tags": {
    "amenity": "grave_yard",
    "barrier": "wall",
    "wikidata": "Q95690558"
  }
},
{
  "type": "way",
  "id": 28593360,
  "center": {
    "lat": 48.9843747,
    "lon": 14.4672555
  },
  "nodes": [
    940196253,
    940194773,
    940194369,
    5920437814,
    5920437815,
    940194991,
    768241502,
    940195016,
    940194503,
    768241557,
    940196281,
    940195865,
    7216634079,
    9111870380,
    940196515,
    940196477,
    940196069,
    940196104,
    940194586,
    940196883,
    940196084,
    940195648,
    940196869,
    940196495,
    940194395,
    940196690,
    940195247,
    940194812,
    940196669,
    940196262,
    940195839,
    940196253
  ],
  "tags": {
    "amenity": "grave_yard",
    "name": "Statoměstský hřbitov",
    "religion": "christian",
    "source": "cuzk:km"
  }
},
{
  "type": "way",
  "id": 29097410,
  "center": {
    "lat": 48.2521937,
    "lon": 14.6305836
  },
  "nodes": [
    320056468,
    320056469,
    320056470,
    320056471,
    320056472,
    320056473,
    320056474,
    320056476,
    320056478,
    320056479,
    320056480,
    320056481,
    320056482,
    320056483,
    320056484,
    8327474856,
    8327474855,
    8327474854,
    320056486,
    320056487,
    320056468
  ],
  "tags": {
    "landuse": "cemetery",
    "name": "Neuer Friedhof, Urnenfriedhof",
    "source": "plan.at 2008"
  }
},
{
  "type": "way",
  "id": 29097411,
  "center": {
    "lat": 48.2522410,
    "lon": 14.6285750
  },
  "nodes": [
    320056488,
    5393028181,
    320056489,
    320056490,
    320056491,
    2133880614,
    5393028177,
    9620990533,
    9620990534,
    320056492,
    320056493,
    9620990535,
    320056488
  ],
  "tags": {
    "landuse": "cemetery",
    "source": "plan.at 2008"
  }
},
{
  "type": "way",
  "id": 29363676,
  "center": {
    "lat": 48.0714629,
    "lon": 14.0501042
  },
  "nodes": [
    322997166,
    322997167,
    2531010799,
    3819729721,
    3819729720,
    322997168,
    3888127618,
    322997169,
    1237059262,
    3819729722,
    322997166
  ],
  "tags": {
    "barrier": "wall",
    "landuse": "cemetery",
    "name": "Friedhof Sattledt"
  }
},
{
  "type": "way",
  "id": 29363679,
  "center": {
    "lat": 48.1992087,
    "lon": 14.1321176
  },
  "nodes": [
    322997181,
    322997182,
    1620745205,
    322997183,
    322997184,
    322997185,
    322997186,
    322997187,
    322997181
  ],
  "tags": {
    "landuse": "cemetery",
    "name": "Kriegerfriedhof",
    "source": "plan.at 2008",
    "wikidata": "Q89475094"
  }
},
{
  "type": "way",
  "id": 29363680,
  "center": {
    "lat": 48.1923400,
    "lon": 14.1094487
  },
  "nodes": [
    322997188,
    1704836467,
    712638103,
    1704836476,
    322997189,
    322997190,
    322997191,
    322997188
  ],
  "tags": {
    "addr:postcode": "4614",
    "denomination": "catholic",
    "landuse": "cemetery",
    "name": "Pfarrfriedhof",
    "religion": "christian",
    "source": "plan.at 2008"
  }
},
{
  "type": "way",
  "id": 29363681,
  "center": {
    "lat": 48.1949441,
    "lon": 14.1020348
  },
  "nodes": [
    322997192,
    1694977829,
    322997193,
    322997194,
    1694977655,
    1694977555,
    322997195,
    322997196,
    1694977210,
    322997197,
    322997198,
    1694977242,
    1694977237,
    322997199,
    1694977869,
    1694977864,
    322997192
  ],
  "tags": {
    "addr:postcode": "4614",
    "landuse": "cemetery",
    "name": "Kommunalfriedhof"
  }
},
{
  "type": "way",
  "id": 29363682,
  "center": {
    "lat": 48.1490914,
    "lon": 14.0388813
  },
  "nodes": [
    322997200,
    1541209075,
    322997201,
    1541209060,
    322997202,
    1406729705,
    1406729698,
    322997203,
    527382983,
    528060966,
    322997200
  ],
  "tags": {
    "landuse": "cemetery",
    "name": "Pfarrfriedhof",
    "wikidata": "Q129195774"
  }
},
{
  "type": "way",
  "id": 29386626,
  "center": {
    "lat": 48.4166218,
    "lon": 14.6137283
  },
  "nodes": [
    323222442,
    323222483,
    323222481,
    323222480,
    323222478,
    323222476,
    323222474,
    323222472,
    323222471,
    323222469,
    323222467,
    323222465,
    323222464,
    323222462,
    323222460,
    323222458,
    323222456,
    323222454,
    323222452,
    323222450,
    323222447,
    323222446,
    323222444,
    323222442
  ],
  "tags": {
    "landuse": "cemetery",
    "source": "aerial gutau",
    "wikidata": "Q118713229"
  }
},
{
  "type": "way",
  "id": 29438674,
  "center": {
    "lat": 48.8409548,
    "lon": 14.9916894
  },
  "nodes": [
    324461271,
    324461264,
    324461265,
    324461269,
    324461271
  ],
  "tags": {
    "landuse": "cemetery",
    "name": "Friedhof der Marktgemeinde Brand-Nagelberg",
    "religion": "christian",
    "source": "plan.at 2009,geoimage.at"
  }
},
{
  "type": "way",
  "id": 29439345,
  "center": {
    "lat": 48.7570314,
    "lon": 14.9714201
  },
  "nodes": [
    324468260,
    324468239,
    324468242,
    5358728309,
    5358728286,
    262438199,
    262438198,
    324468244,
    324468247,
    324468249,
    324468255,
    262438202,
    6839582696,
    324468257,
    324468260
  ],
  "tags": {
    "landuse": "cemetery",
    "leisure": "park",
    "name": "Flüchtlingsfriedhof",
    "wikidata": "Q126915526"
  }
},
{
  "type": "way",
  "id": 29439347,
  "center": {
    "lat": 48.7683718,
    "lon": 14.9832286
  },
  "nodes": [
    324468283,
    324468266,
    324468269,
    324468272,
    2463969368,
    2463969367,
    1565421412,
    5239621312,
    5239621268,
    324468274,
    324468280,
    5239621934,
    2463969351,
    2463969349,
    2463969350,
    2463969355,
    2463969356,
    2463969354,
    2463969357,
    324468283
  ],
  "tags": {
    "heritage": "2",
    "heritage:operator": "bda",
    "landuse": "cemetery",
    "ref:at:bda": "25932",
    "religion": "christian",
    "start_date": "1803",
    "wikidata": "Q37925586"
  }
},
{
  "type": "way",
  "id": 29455665,
  "center": {
    "lat": 48.0536983,
    "lon": 14.1246375
  },
  "nodes": [
    324633576,
    1542767194,
    1542767057,
    1999971873,
    7400686454,
    324633581,
    1542767150,
    6257545832,
    324633584,
    6257545831,
    1542767046,
    687781458,
    687781426,
    11086683262,
    1542767134,
    1542767224,
    324633594,
    7400686452,
    1542767022,
    7400686453,
    1542767029,
    324633576
  ],
  "tags": {
    "landuse": "cemetery",
    "name": "Friedhof Kremsmünster",
    "religion": "christian",
    "wikidata": "Q37756085"
  }
},
{
  "type": "way",
  "id": 29558624,
  "center": {
    "lat": 48.2805432,
    "lon": 14.2020938
  },
  "nodes": [
    325744924,
    325744931,
    325744939,
    325744946,
    6318350590,
    6318350589,
    325744954,
    288900320,
    325744984,
    366934971,
    288911843,
    325744895,
    325744909,
    1354101970,
    1354101967,
    1354101971,
    1354101969,
    325744924
  ],
  "tags": {
    "landuse": "cemetery",
    "source": "plan.at 2009,bing"
  }
},
{
  "type": "way",
  "id": 29565819,
  "center": {
    "lat": 48.3253939,
    "lon": 14.2937611
  },
  "nodes": [
    1611671949,
    1611672036,
    325823840,
    1611671836,
    1611671609,
    1283380847,
    1611671417,
    1611671282,
    1611671280,
    1611671285,
    1611671294,
    1611671312,
    1611671350,
    1611671372,
    1611671387,
    1611671416,
    1611671403,
    1283380843,
    1611671507,
    1611671532,
    1283380846,
    1611671541,
    1611671630,
    1611671656,
    1609281000,
    1283380826,
    1611671639,
    1283380833,
    1611671726,
    1611671717,
    1607457798,
    1607457813,
    1607457840,
    1607457865,
    1607457883,
    1607457904,
    1607457941,
    1272036831,
    1611672020,
    1611672026,
    1272036607,
    254296741,
    1611672066,
    1272036860,
    1272036897,
    1272036741,
    1272036811,
    1611672089,
    254296742,
    1272036567,
    254297041,
    254297042,
    1611672061,
    1611672058,
    254297043,
    1611672065,
    3642626465,
    3642626452,
    1611672041,
    1611671949
  ],
  "tags": {
    "alt_name": "Park der Erinnerung",
    "landuse": "cemetery",
    "name": "Urnenhain Urfahr",
    "note": "genaue umrisse schwierig zu ermitteln. basierend auf http://www.linzag.at/cms/media/linzagwebsite/images_3/bestattungfriedhfe/friedhofplaene/Urnenhain.jpg"
  }
},
{
  "type": "way",
  "id": 29565826,
  "center": {
    "lat": 48.3197254,
    "lon": 14.2700345
  },
  "nodes": [
    325823895,
    325823963,
    1258658579,
    1593097488,
    1593097481,
    1593097485,
    325823968,
    1593097525,
    1258658582,
    1593097615,
    325823975,
    1593097724,
    1593097693,
    1593097634,
    325823983,
    1593097624,
    1593097667,
    1593097642,
    1593097622,
    325823895
  ],
  "tags": {
    "alt_name": "Soldatenfriedhof Urfahr;Soldatenfriedhof Pöstlingberg;Soldatenfriedhof beim Petrinum",
    "cemetery": "war_cemetery",
    "landuse": "cemetery",
    "name": "Waldfriedhof Urfahr",
    "name:en": "Military cemetery Linz",
    "wikidata": "Q37789883",
    "wikimedia_commons": "Category:Soldatenfriedhof, Pöstlingberg"
  }
},
{
  "type": "way",
  "id": 29565828,
  "center": {
    "lat": 48.2575248,
    "lon": 14.3116481
  },
  "nodes": [
    325824000,
    325824008,
    1480632839,
    1480632795,
    325824013,
    1371485224,
    1371485226,
    1371485227,
    1458215840,
    325824000
  ],
  "tags": {
    "denomination": "catholic",
    "landuse": "cemetery",
    "leaf_type": "mixed",
    "name": "Urnenhain Kleinmünchen",
    "religion": "christian",
    "wikidata": "Q19971515"
  }
},
{
  "type": "way",
  "id": 29565868,
  "center": {
    "lat": 48.2173396,
    "lon": 14.4668692
  },
  "nodes": [
    325824785,
    325824553,
    325824565,
    325824576,
    325824587,
    325824594,
    3148044965,
    3148044966,
    3148044967,
    325824735,
    274862459,
    1099338117,
    325824755,
    325824765,
    325824775,
    325824785
  ],
  "tags": {
    "landuse": "cemetery",
    "religion": "christian",
    "source": "plan.at 2009"
  }
},
{
  "type": "way",
  "id": 29565876,
  "center": {
    "lat": 48.2213843,
    "lon": 14.4149276
  },
  "nodes": [
    325824816,
    325824826,
    325824866,
    1440870095,
    325824873,
    1440870044,
    325824887,
    1440870068,
    1440870105,
    1440870135,
    325824897,
    325824952,
    325824816
  ],
  "tags": {
    "barrier": "wall",
    "landuse": "cemetery",
    "name:signed": "no",
    "source": "plan.at 2009"
  }
},
{
  "type": "way",
  "id": 29565879,
  "center": {
    "lat": 48.1517297,
    "lon": 14.1727237
  },
  "nodes": [
    325824980,
    9370624425,
    325824990,
    325824999,
    325825010,
    325824980
  ],
  "tags": {
    "landuse": "cemetery"
  }
},
{
  "type": "way",
  "id": 29565909,
  "center": {
    "lat": 48.2406220,
    "lon": 14.2668840
  },
  "nodes": [
    325825391,
    325825401,
    325825408,
    325825414,
    1216547759,
    325825425,
    1216547315,
    325825479,
    1216547685,
    325825484,
    1216548166,
    325825491,
    1216547230,
    1216548425,
    1216547456,
    325825497,
    325825501,
    1216547376,
    1185651034,
    1216548357,
    325825391
  ],
  "tags": {
    "addr:postcode": "4050",
    "description": "Die „Gedenkstätte für gefallene Sowjetsoldaten 1941–1945“ auf dem Stadtfriedhof Linz/St. Martin in Traun umfasst einen Soldatenfriedhof für circa 1100 Sowjetsoldaten. (Quelle: Wikipedia)",
    "landuse": "cemetery",
    "name": "Soldatenfriedhof",
    "source": "plan.at 2009",
    "wikipedia": "de:Liste von Soldatenfriedhöfen in Österreich"
  }
},
{
  "type": "way",
  "id": 29566013,
  "center": {
    "lat": 48.2325180,
    "lon": 14.2402572
  },
  "nodes": [
    325826586,
    3392340819,
    325826592,
    325826598,
    329416419,
    325826586
  ],
  "tags": {
    "landuse": "cemetery",
    "name": "Urnenfriedhof"
  }
},
{
  "type": "way",
  "id": 29920433,
  "center": {
    "lat": 48.9176300,
    "lon": 14.3703173
  },
  "nodes": [
    329758079,
    329758085,
    7474282503,
    329758091,
    7474282512,
    7474282511,
    329758093,
    7474282509,
    329758079
  ],
  "tags": {
    "landuse": "cemetery",
    "name": "Hřbitov Vrábče"
  }
},
{
  "type": "way",
  "id": 29993474,
  "center": {
    "lat": 48.5188410,
    "lon": 14.5046331
  },
  "nodes": [
    330182368,
    330182369,
    6639647861,
    330182370,
    330182371,
    330182368
  ],
  "tags": {
    "amenity": "grave_yard",
    "cemetery": "war_cemetery",
    "landuse": "cemetery",
    "name": "Sowjetrussischer Soldatenfriedhof",
    "wikidata": "Q37892277",
    "wikimedia_commons": "Category:Sowjetrussischer Soldatenfriedhof Freistadt"
  }
},
{
  "type": "way",
  "id": 30218421,
  "center": {
    "lat": 48.0935572,
    "lon": 14.8494553
  },
  "nodes": [
    333041146,
    333041148,
    333041149,
    333041151,
    333041146
  ],
  "tags": {
    "addr:postcode": "3300",
    "landuse": "cemetery",
    "source": "plan.at 2009,geoimage.at"
  }
},
{
  "type": "way",
  "id": 30218922,
  "center": {
    "lat": 48.1733847,
    "lon": 14.5361869
  },
  "nodes": [
    333051351,
    1776507080,
    3815109389,
    1776507071,
    333051353,
    333051355,
    2313404546,
    333051358,
    3818848584,
    333051361,
    1193881081,
    333051363,
    333051351
  ],
  "tags": {
    "addr:city": "St. Valentin",
    "addr:country": "AT",
    "addr:postcode": "4300",
    "landuse": "cemetery",
    "name": "Friedhof St. Valentin",
    "religion": "christian",
    "source": "plan.at 2009,geoimage.at"
  }
},
{
  "type": "way",
  "id": 30219426,
  "center": {
    "lat": 48.1107339,
    "lon": 14.5727593
  },
  "nodes": [
    333062904,
    3224793100,
    333062917,
    3224788330,
    3224788341,
    3224790865,
    333062921,
    333062929,
    333062904
  ],
  "tags": {
    "landuse": "cemetery",
    "name": "Friedhof Haag",
    "religion": "christian",
    "source": "plan.at 2009"
  }
},
{
  "type": "way",
  "id": 30219986,
  "center": {
    "lat": 48.0742006,
    "lon": 14.8240460
  },
  "nodes": [
    333075983,
    333075985,
    333075988,
    333075990,
    11516178566,
    333075995,
    333075998,
    333076000,
    333076002,
    333076004,
    333075983
  ],
  "tags": {
    "addr:city": "Ulmerfeld",
    "addr:country": "AT",
    "addr:postcode": "3363",
    "landuse": "cemetery",
    "name": "Friedhof Ulmerfeld",
    "religion": "christian",
    "source": "plan.at 2009,geoimage.at"
  }
},
{
  "type": "way",
  "id": 30265351,
  "center": {
    "lat": 48.2946644,
    "lon": 14.3018355
  },
  "nodes": [
    333553259,
    333553260,
    333553228,
    3772103710,
    974686589,
    974686593,
    955895613,
    333553229,
    1034114285,
    611572832,
    1034114234,
    1034113837,
    333553230,
    1034113998,
    611572829,
    1034114141,
    1034113775,
    1034114072,
    3772103709,
    333553231,
    611572828,
    1034114168,
    3772103693,
    1034113873,
    1034113665,
    611572831,
    3771683625,
    3771683628,
    611572836,
    3771683627,
    1034113559,
    1034239822,
    3771683626,
    1034114214,
    333553232,
    1034114322,
    3771683622,
    1034037005,
    3771683615,
    1034037038,
    1034036898,
    333553233,
    611572888,
    1034037051,
    333553234,
    611572830,
    1034036937,
    1034113510,
    1033956478,
    1033956284,
    1033956303,
    974454065,
    333553235,
    611572890,
    5598474102,
    5598474098,
    5598474101,
    5598474100,
    5598474099,
    611572917,
    974454062,
    3772103675,
    611572922,
    333553227,
    974691311,
    974691312,
    974691306,
    1679742435,
    1679742431,
    1033916323,
    924657499,
    333553261,
    1033915909,
    1033915999,
    333553263,
    1034036910,
    1034036922,
    1034036932,
    1033915959,
    333553264,
    1033916040,
    1033916133,
    1033916286,
    333553259
  ],
  "tags": {
    "addr:housenumber": "1",
    "addr:postcode": "4020",
    "addr:street": "Friedhofstraße",
    "alt_name": "Barbarafriedhof",
    "contact:email": "office@barbarafriedhof.at",
    "contact:fax": "+43 732 65451416",
    "contact:phone": "+43 732 654514",
    "contact:website": "http://www.barbarafriedhof.at",
    "description:de": "Öffnungszeiten variieren je nach Jahreszeit. Angegeben sind die Kernöffnungszeiten",
    "heritage": "2",
    "heritage:operator": "bda",
    "landuse": "cemetery",
    "name": "St. Barbara-Friedhof Linz",
    "name:en": "St. Barbara cemetery Linz",
    "opening_hours": "Nov-Feb Mo-Su 07:00-16:45; Mar PH,Mo-Su 07:00-17:45; Apr PH,Mo-Su 07:00-19:45; May-Aug PH,Mo-Su 06:30-19:45; Sep PH,Mo-Su 06:30-18:45; Oct PH,Mo-Su 07:00-17:45",
    "operator": "St. Barbara Gottesackerstiftung",
    "ref:at:bda": "58945",
    "religion": "christian;jewish",
    "wikidata": "Q2317440",
    "wikipedia": "de:St. Barbara-Friedhof"
  }
},
{
  "type": "way",
  "id": 30328830,
  "center": {
    "lat": 48.2858517,
    "lon": 14.1083139
  },
  "nodes": [
    334421392,
    1039538764,
    1039538691,
    1039538710,
    639286649,
    1039538555,
    1718010545,
    1033791804,
    1718010544,
    334421394,
    639286632,
    1028380545,
    1718010538,
    1038599558,
    11544126189,
    11544126190,
    1039750460,
    1028380540,
    1033844395,
    334421400,
    11544126192,
    1039538773,
    334421392
  ],
  "tags": {
    "addr:postcode": "4072",
    "landuse": "cemetery",
    "source": "plan.at 2009"
  }
},
{
  "type": "way",
  "id": 30328832,
  "center": {
    "lat": 48.3112130,
    "lon": 14.0197024
  },
  "nodes": [
    334421425,
    334421430,
    1563439200,
    1563439196,
    1563439219,
    334421431,
    334421432,
    1563439243,
    1563439255,
    1563439250,
    334421434,
    974558976,
    974558914,
    334421425
  ],
  "tags": {
    "landuse": "cemetery",
    "name": "Evangelischer Friedhof",
    "religion": "christian",
    "source": "plan.at 2009"
  }
},
{
  "type": "way",
  "id": 30328833,
  "center": {
    "lat": 48.3075528,
    "lon": 14.0195818
  },
  "nodes": [
    334421435,
    334421436,
    334421437,
    334421438,
    1562862974,
    334421435
  ],
  "tags": {
    "addr:postcode": "4070",
    "landuse": "cemetery",
    "name": "Röm.-kath.-Friedhof",
    "religion": "christian",
    "source": "plan.at 2009"
  }
},
{
  "type": "way",
  "id": 30359171,
  "center": {
    "lat": 48.4983115,
    "lon": 14.5005805
  },
  "nodes": [
    334864683,
    7053082345,
    334864685,
    1531147807,
    334864687,
    334864689,
    334864683
  ],
  "tags": {
    "landuse": "cemetery",
    "name": "Friedhof Freistadt",
    "source": "plan.at 2009"
  }
},
{
  "type": "way",
  "id": 30361783,
  "center": {
    "lat": 48.4424583,
    "lon": 14.5420204
  },
  "nodes": [
    334907459,
    1199367785,
    334907466,
    1223100519,
    334907469,
    334907471,
    2410899477,
    334907459
  ],
  "tags": {
    "barrier": "wall",
    "landuse": "cemetery",
    "name": "Friedhof Kefermarkt",
    "source": "plan.at 2009"
  }
},
{
  "type": "way",
  "id": 30478247,
  "center": {
    "lat": 48.3100946,
    "lon": 14.2401722
  },
  "nodes": [
    336283505,
    5842224532,
    336283511,
    336283513,
    5842224536,
    345518107,
    336283487,
    365844882,
    336283520,
    345518106,
    5842224535,
    5842224533,
    336283505
  ],
  "tags": {
    "landuse": "cemetery",
    "noname": "yes",
    "religion": "christian",
    "source": "plan.at 2009"
  }
},
{
  "type": "way",
  "id": 30478377,
  "center": {
    "lat": 48.3732920,
    "lon": 14.3517786
  },
  "nodes": [
    336284528,
    336284529,
    1717007173,
    1717007176,
    336284530,
    336284531,
    336284528
  ],
  "tags": {
    "denomination": "catholic",
    "landuse": "cemetery",
    "religion": "christian"
  }
},
{
  "type": "way",
  "id": 30478378,
  "center": {
    "lat": 48.3314107,
    "lon": 14.1722534
  },
  "nodes": [
    336284532,
    336284533,
    336284534,
    336284535,
    1584408796,
    1584408794,
    336284536,
    336284537,
    1584408789,
    336284538,
    1584408787,
    336284539,
    336284532
  ],
  "tags": {
    "landuse": "cemetery",
    "source": "geoimage.at"
  }
},
{
  "type": "way",
  "id": 30478379,
  "center": {
    "lat": 48.3471337,
    "lon": 14.0546076
  },
  "nodes": [
    336284541,
    336284545,
    8497690218,
    8497690217,
    8497636216,
    8497636215,
    336284553,
    336284557,
    336284541
  ],
  "tags": {
    "landuse": "cemetery"
  }
},
{
  "type": "way",
  "id": 30478382,
  "center": {
    "lat": 48.4665624,
    "lon": 14.2684293
  },
  "nodes": [
    336284659,
    336284665,
    336284670,
    336284677,
    336284687,
    336284688,
    336284659
  ],
  "tags": {
    "landuse": "cemetery",
    "source": "plan.at 2009",
    "wikidata": "Q128797259"
  }
},
{
  "type": "way",
  "id": 30478383,
  "center": {
    "lat": 48.4622114,
    "lon": 14.2254874
  },
  "nodes": [
    336284689,
    1966358751,
    1966358747,
    1966358736,
    1966358738,
    336284692,
    336284691,
    336284690,
    1966358759,
    1966358766,
    1966358775,
    1966358770,
    11428647781,
    336284689
  ],
  "tags": {
    "landuse": "cemetery"
  }
},
{
  "type": "way",
  "id": 30478384,
  "center": {
    "lat": 48.5221261,
    "lon": 14.2971952
  },
  "nodes": [
    1195368286,
    1195368292,
    1397586530,
    1397586448,
    336284698,
    1397586641,
    336284700,
    336284701,
    336284702,
    3070827882,
    9057829115,
    9057829114,
    9057829113,
    9057829112,
    9057829111,
    9057829110,
    1195368286
  ],
  "tags": {
    "landuse": "cemetery",
    "religion": "christian",
    "wikidata": "Q118773510"
  }
},
{
  "type": "way",
  "id": 30573119,
  "center": {
    "lat": 48.0820496,
    "lon": 14.3760542
  },
  "nodes": [
    337852534,
    9764348799,
    9764348800,
    337852539,
    337852544,
    13155172132,
    337852551,
    337852534
  ],
  "tags": {
    "landuse": "cemetery",
    "name": "Friedhof Wolfern",
    "religion": "christian",
    "source": "plan.at 2009"
  }
},
{
  "type": "way",
  "id": 30585307,
  "center": {
    "lat": 48.0277032,
    "lon": 14.2006418
  },
  "nodes": [
    338003465,
    684333693,
    684333715,
    684333723,
    338003472,
    338003478,
    338003486,
    338003491,
    338003465
  ],
  "tags": {
    "landuse": "cemetery",
    "name": "Friedhof Pfarrkirchen"
  }
},
{
  "type": "way",
  "id": 31023429,
  "center": {
    "lat": 48.0996150,
    "lon": 14.1100173
  },
  "nodes": [
    649007791,
    531519902,
    428857625,
    7077902304,
    344940257,
    344940256,
    9376247394,
    649007706,
    649007775,
    649007788,
    649007791
  ],
  "tags": {
    "landuse": "cemetery"
  }
},
{
  "type": "way",
  "id": 32904527,
  "center": {
    "lat": 48.0110096,
    "lon": 14.3311737
  },
  "nodes": [
    370577942,
    370577944,
    370577946,
    13192193350,
    13192206963,
    370577947,
    2698001160,
    2698001179,
    370577942
  ],
  "tags": {
    "landuse": "cemetery",
    "religion": "christian"
  }
},
{
  "type": "way",
  "id": 33631522,
  "center": {
    "lat": 48.3666773,
    "lon": 14.5182372
  },
  "nodes": [
    384741764,
    384741765,
    12913370133,
    384741766,
    12913370130,
    384741767,
    413429516,
    12913370132,
    12913370131,
    384741764
  ],
  "tags": {
    "amenity": "grave_yard"
  }
},
{
  "type": "way",
  "id": 33679542,
  "center": {
    "lat": 48.2506643,
    "lon": 14.0347554
  },
  "nodes": [
    385076487,
    385076488,
    385076489,
    385076490,
    385076487
  ],
  "tags": {
    "landuse": "cemetery",
    "name": "Röm. kath. Friedhof Scharten"
  }
},
{
  "type": "way",
  "id": 34064421,
  "center": {
    "lat": 48.0614737,
    "lon": 14.1367657
  },
  "nodes": [
    390345333,
    390345335,
    390345337,
    978824016,
    390345345,
    9006808954,
    390345333
  ],
  "tags": {
    "landuse": "cemetery"
  }
},
{
  "type": "way",
  "id": 34602019,
  "center": {
    "lat": 48.3506735,
    "lon": 14.5097676
  },
  "nodes": [
    401785535,
    401785537,
    401785539,
    3094693933,
    401785540,
    3094693932,
    401785544,
    401785546,
    3094693934,
    3094693935,
    401785535
  ],
  "tags": {
    "landuse": "cemetery",
    "religion": "christian",
    "source": "survey"
  }
},
{
  "type": "way",
  "id": 34944293,
  "center": {
    "lat": 48.4082913,
    "lon": 14.4188660
  },
  "nodes": [
    410095482,
    410095484,
    1228257639,
    1228257634,
    1228257640,
    1228257638,
    410095486,
    1228257637,
    410095488,
    410095490,
    410095482
  ],
  "tags": {
    "landuse": "cemetery",
    "source": "yahoo"
  }
},
{
  "type": "way",
  "id": 35610276,
  "center": {
    "lat": 48.0289729,
    "lon": 14.7874541
  },
  "nodes": [
    417381279,
    417381281,
    417381283,
    429771078,
    417381293,
    429771077,
    417381295,
    4657616660,
    417381296,
    417381298,
    4657616661,
    4657616662,
    417381300,
    10275805739,
    417381279
  ],
  "tags": {
    "landuse": "cemetery",
    "name": "Friedhof Allhartsberg",
    "religion": "christian"
  }
},
{
  "type": "way",
  "id": 37616030,
  "center": {
    "lat": 48.9992455,
    "lon": 14.4851787
  },
  "nodes": [
    440925386,
    440925387,
    5057756368,
    440925388,
    4547159911,
    4547159935,
    440925389,
    4547159901,
    4547159898,
    4688571002,
    5057756363,
    5057756364,
    5057756371,
    5057756370,
    5057756369,
    5057756365,
    5057756366,
    5057756367,
    440925386
  ],
  "tags": {
    "fixme": "Otev. doba letní 7-19, zimní 7-17",
    "landuse": "cemetery",
    "name": "Hřbitov svaté Otýlie",
    "opening_hours": "07:00-19:00",
    "short_name": "Hřbitov sv. Otýlie",
    "wikidata": "Q24877350"
  }
},
{
  "type": "way",
  "id": 37994977,
  "center": {
    "lat": 48.1312276,
    "lon": 14.1466272
  },
  "nodes": [
    446245516,
    446245518,
    446245519,
    9372739844,
    9372739845,
    9372739846,
    446245516
  ],
  "tags": {
    "landuse": "cemetery"
  }
},
{
  "type": "way",
  "id": 38250236,
  "center": {
    "lat": 48.0919073,
    "lon": 14.2666335
  },
  "nodes": [
    450964531,
    450964538,
    13176981484,
    450964544,
    4408569632,
    4408569631,
    2464343869,
    2464343902,
    450964553,
    450964531
  ],
  "tags": {
    "amenity": "grave_yard",
    "denomination": "catholic",
    "name": "Friedhof Schiedlberg",
    "religion": "christian"
  }
},
{
  "type": "way",
  "id": 39682152,
  "center": {
    "lat": 48.5504087,
    "lon": 14.2158045
  },
  "nodes": [
    475736976,
    4359249838,
    4359249837,
    475736979,
    5038728158,
    475736972,
    475736968,
    475736976
  ],
  "tags": {
    "landuse": "cemetery",
    "note": "Erweiterung 2015",
    "wikidata": "Q128797238"
  }
},
{
  "type": "way",
  "id": 39683146,
  "center": {
    "lat": 48.5428227,
    "lon": 14.1430558
  },
  "nodes": [
    475763191,
    9520109448,
    475763223,
    9520109450,
    2075059236,
    1195368290,
    1195368283,
    1195368285,
    475763212,
    2075059332,
    9520109452,
    9520109451,
    6236067294,
    2075059398,
    9520109449,
    475763203,
    475763191
  ],
  "tags": {
    "barrier": "wall",
    "landuse": "cemetery",
    "wikidata": "Q113774989"
  }
},
{
  "type": "way",
  "id": 39683147,
  "center": {
    "lat": 48.5675075,
    "lon": 14.1024126
  },
  "nodes": [
    475763329,
    1066697065,
    1066697024,
    1066697049,
    1066697041,
    1066697072,
    1066697071,
    976501826,
    976501848,
    475763320,
    475763395,
    475763401,
    475763340,
    475763384,
    475763373,
    475763350,
    976501759,
    976501784,
    475763362,
    475763324,
    475763329
  ],
  "tags": {
    "amenity": "grave_yard",
    "wikidata": "Q128797239"
  }
},
{
  "type": "way",
  "id": 39900720,
  "center": {
    "lat": 48.3941705,
    "lon": 14.2304334
  },
  "nodes": [
    479007545,
    479007557,
    479007574,
    3524816483,
    3524816486,
    3524816489,
    479007545
  ],
  "tags": {
    "denomination": "catholic",
    "landuse": "cemetery",
    "name": "Friedhof Eidenberg",
    "religion": "christian"
  }
},
{
  "type": "way",
  "id": 42795296,
  "center": {
    "lat": 48.1479616,
    "lon": 14.8928329
  },
  "nodes": [
    535142764,
    535142767,
    535142768,
    535142769,
    6008537685,
    6008537684,
    6008537671,
    6008537670,
    535142771,
    535142764
  ],
  "tags": {
    "landuse": "cemetery",
    "name": "Friedhof Viehdorf",
    "religion": "christian"
  }
},
{
  "type": "way",
  "id": 45197878,
  "center": {
    "lat": 48.4331782,
    "lon": 14.3016838
  },
  "nodes": [
    573631599,
    1052169013,
    1052169034,
    573631594,
    859860492,
    573631596,
    573631608,
    1052172546,
    1052172539,
    1052172548,
    573631599
  ],
  "tags": {
    "barrier": "wall",
    "denomination": "catholic",
    "landuse": "cemetery",
    "religion": "christian",
    "source": "geoimage.at"
  }
},
{
  "type": "way",
  "id": 47053820,
  "center": {
    "lat": 48.2858820,
    "lon": 14.3651334
  },
  "nodes": [
    600148781,
    1298557102,
    1298557249,
    600148782,
    12139801322,
    600148783,
    1298557219,
    12139801323,
    1298557045,
    600148784,
    12139801324,
    1298557334,
    1298557192,
    1298557467,
    12139801325,
    1298557314,
    1298557115,
    1298557357,
    1298557174,
    1298557451,
    12139801328,
    1298557302,
    12139801327,
    12139801326,
    600148785,
    600148786,
    1298557431,
    1298557280,
    1298557081,
    12139801329,
    12139801330,
    1298557326,
    1298557127,
    12139801370,
    600148787,
    12139768318,
    1162996937,
    1162996931,
    12139768309,
    12139768308,
    12139768312,
    12139768311,
    12139768310,
    1298557412,
    12139768307,
    12139768306,
    12139768305,
    12139768304,
    12139768313,
    1162996936,
    12139801333,
    12139801336,
    12139801337,
    600148788,
    1298557264,
    1298557098,
    1298557295,
    600148790,
    12155852673,
    12139801366,
    1298557036,
    12139801365,
    600148781
  ],
  "tags": {
    "addr:city": "Steyregg",
    "addr:country": "AT",
    "addr:housenumber": "30",
    "addr:postcode": "4221",
    "addr:street": "Kirchengasse",
    "amenity": "grave_yard",
    "name": "Friedhof Steyregg Nr 1",
    "religion": "christian"
  }
},
{
  "type": "way",
  "id": 48116881,
  "center": {
    "lat": 48.2951836,
    "lon": 14.3047834
  },
  "nodes": [
    611572918,
    1034114028,
    1034114320,
    1034114292,
    3772103686,
    611572925,
    1034113788,
    1034113645,
    1034113830,
    1034113942,
    1034113572,
    1034114154,
    611572926,
    611572924,
    1034113923,
    611572918
  ],
  "tags": {
    "alt_name": "Israelitischer Friedhof",
    "amenity": "grave_yard",
    "barrier": "wall",
    "name": "Jüdischer Friedhof",
    "name:en": "Jewish cemetery Linz",
    "religion": "jewish"
  }
},
{
  "type": "way",
  "id": 49367786,
  "center": {
    "lat": 48.8579335,
    "lon": 14.4910761
  },
  "nodes": [
    626994877,
    1748688794,
    626994878,
    626994884,
    626994885,
    626994877
  ],
  "tags": {
    "barrier": "wall",
    "landuse": "cemetery"
  }
},
{
  "type": "way",
  "id": 49794923,
  "center": {
    "lat": 48.3372514,
    "lon": 14.3049304
  },
  "nodes": [
    632655267,
    1660434224,
    1660434285,
    1660434383,
    9654189277,
    632655268,
    632655270,
    632655266,
    1660433925,
    1660433953,
    1660434018,
    1660434126,
    1660434133,
    1660434150,
    1660434160,
    632655267
  ],
  "tags": {
    "heritage": "2",
    "heritage:operator": "bda",
    "landuse": "cemetery",
    "name": "Friedhof St. Magdalena",
    "name:en": "St. Magdalena cemetery",
    "ref:at:bda": "37761",
    "religion": "christian",
    "wikidata": "Q14541498"
  }
},
{
  "type": "way",
  "id": 54453229,
  "center": {
    "lat": 48.7889027,
    "lon": 14.7890992
  },
  "nodes": [
    686060669,
    686060672,
    686060674,
    686060677,
    12536614870,
    10173442108,
    10173442107,
    686060679,
    686060681,
    686060669
  ],
  "tags": {
    "landuse": "cemetery"
  }
},
{
  "type": "way",
  "id": 55340129,
  "center": {
    "lat": 48.1244080,
    "lon": 14.8631802
  },
  "nodes": [
    695130349,
    696704128,
    6851269797,
    6851269798,
    6851269799,
    695130342,
    6885381885,
    696704130,
    6885381884,
    696704131,
    6634987018,
    6634987017,
    696704133,
    695130356,
    696704135,
    696704137,
    696704146,
    696704144,
    696704143,
    696704139,
    6885381890,
    6885381891,
    695130360,
    3756234972,
    6885381886,
    6885381889,
    6885381887,
    6885381888,
    696704140,
    695130349
  ],
  "tags": {
    "landuse": "cemetery",
    "name": "Neuer Friedhof",
    "religion": "christian",
    "wikidata": "Q111575589"
  }
},
{
  "type": "way",
  "id": 59313908,
  "center": {
    "lat": 48.5434229,
    "lon": 14.3866592
  },
  "nodes": [
    735741571,
    735741551,
    735741575,
    735741554,
    735741571
  ],
  "tags": {
    "landuse": "cemetery",
    "name": "Friedhof Reichenthal",
    "wikidata": "Q128797262"
  }
},
{
  "type": "way",
  "id": 59711941,
  "center": {
    "lat": 48.2234057,
    "lon": 14.0191960
  },
  "nodes": [
    741065648,
    741065651,
    8379180754,
    8379180753,
    8379180751,
    1195092684,
    8379180752,
    1195092120,
    741065675,
    741065680,
    1195092591,
    1195092227,
    1195092878,
    1195092536,
    1195092173,
    1195092772,
    1195092377,
    741065637,
    741065648
  ],
  "tags": {
    "landuse": "cemetery",
    "name": "alter Friedhof"
  }
},
{
  "type": "way",
  "id": 61235742,
  "center": {
    "lat": 48.8522701,
    "lon": 14.6396577
  },
  "nodes": [
    765349159,
    284227065,
    6461496261,
    2143764556,
    6461495877,
    284216699,
    2143764522,
    765349130,
    765349329,
    3300883518,
    3300883529,
    284226925,
    765349159
  ],
  "tags": {
    "landuse": "cemetery",
    "religion": "christian"
  }
},
{
  "type": "way",
  "id": 61896636,
  "center": {
    "lat": 48.9921899,
    "lon": 14.1419708
  },
  "nodes": [
    284965644,
    284965637,
    284965525,
    284965649,
    8691416849,
    284965644
  ],
  "tags": {
    "landuse": "cemetery",
    "name": "Hřbitov",
    "religion": "christian"
  }
},
{
  "type": "way",
  "id": 66941113,
  "center": {
    "lat": 48.0736189,
    "lon": 14.7543271
  },
  "nodes": [
    4077672527,
    4077671748,
    5867462185,
    1250004630,
    1250004626,
    1250004625,
    1250004628,
    808605526,
    4077671747,
    808605528,
    808605529,
    1250004627,
    11040003884,
    11040003885,
    1250004634,
    4077672527
  ],
  "tags": {
    "landuse": "cemetery",
    "name": "Friedhof Aschbach-Markt",
    "religion": "christian"
  }
},
{
  "type": "way",
  "id": 68514330,
  "center": {
    "lat": 48.8150686,
    "lon": 14.3262935
  },
  "nodes": [
    823890006,
    823889820,
    823890051,
    11542772286,
    11961670821,
    11961670818,
    6979512783,
    3163122137,
    12563820932,
    3163122141,
    3163122145,
    3163122143,
    3163122146,
    3163122144,
    11037048975,
    823889796,
    7170569875,
    7170569879,
    7170569878,
    7170569877,
    7170569876,
    823889862,
    9183455420,
    823890130,
    823890192,
    9183455419,
    6958965871,
    8747465274,
    823889940,
    823890041,
    823889891,
    823889979,
    284459511,
    8777747608,
    823890230,
    823889823,
    6997526576,
    823890006
  ],
  "tags": {
    "barrier": "wall",
    "denomination": "roman_catholic",
    "landuse": "cemetery",
    "name": "Městský hřbitov",
    "religion": "christian",
    "wikidata": "Q107466311"
  }
},
{
  "type": "way",
  "id": 68810230,
  "center": {
    "lat": 48.2310730,
    "lon": 14.8589745
  },
  "nodes": [
    826754156,
    826753631,
    9516641097,
    826754740,
    826754298,
    4014566116,
    826753543,
    4014566260,
    4014566286,
    4014566545,
    10197473434,
    1443127667,
    826754156
  ],
  "tags": {
    "landuse": "cemetery",
    "religion": "christian",
    "wikidata": "Q37872502"
  }
},
{
  "type": "way",
  "id": 69364932,
  "center": {
    "lat": 48.9944992,
    "lon": 14.5418952
  },
  "nodes": [
    831189695,
    4311136268,
    10245500919,
    831189682,
    4311136260,
    4311136258,
    4311136256,
    4311136254,
    4311136253,
    4311136252,
    831189639,
    4311136255,
    831189626,
    4311136267,
    831189695
  ],
  "tags": {
    "landuse": "cemetery",
    "religion": "christian",
    "wikidata": "Q107050308"
  }
},
{
  "type": "way",
  "id": 69887236,
  "center": {
    "lat": 48.3133890,
    "lon": 14.7624594
  },
  "nodes": [
    835393851,
    835393853,
    2760699659,
    835393854,
    835393856,
    2760699663,
    835393857,
    2760699666,
    835393858,
    2760699661,
    2760699647,
    2760699644,
    2760699637,
    2760699653,
    2760699678,
    2760699646,
    835393851
  ],
  "tags": {
    "landuse": "cemetery",
    "religion": "christian"
  }
},
{
  "type": "way",
  "id": 70142036,
  "center": {
    "lat": 48.3531811,
    "lon": 14.5367289
  },
  "nodes": [
    837825593,
    837825587,
    5408051517,
    837825601,
    837825576,
    837825593
  ],
  "tags": {
    "denomination": "catholic",
    "landuse": "cemetery",
    "name": "Friedhof Pregarten",
    "religion": "christian"
  }
},
{
  "type": "way",
  "id": 71076500,
  "center": {
    "lat": 48.9444214,
    "lon": 14.4519555
  },
  "nodes": [
    846544406,
    13140576045,
    846544410,
    846544409,
    846544407,
    846544405,
    846544404,
    846544406
  ],
  "tags": {
    "barrier": "wall",
    "landuse": "cemetery"
  }
},
{
  "type": "way",
  "id": 73539999,
  "center": {
    "lat": 48.1215542,
    "lon": 14.7392777
  },
  "nodes": [
    871699379,
    1789072248,
    871699315,
    871699367,
    1789072255,
    1789072256,
    1789072258,
    1789072257,
    871699410,
    871699290,
    1789072252,
    871699379
  ],
  "tags": {
    "denomination": "catholic",
    "landuse": "cemetery",
    "religion": "christian"
  }
},
{
  "type": "way",
  "id": 73711987,
  "center": {
    "lat": 48.1243219,
    "lon": 14.3557993
  },
  "nodes": [
    872869985,
    872870023,
    872870039,
    872870113,
    872869985
  ],
  "tags": {
    "amenity": "grave_yard",
    "name": "Maria Laah",
    "religion": "christian"
  }
},
{
  "type": "way",
  "id": 74507337,
  "center": {
    "lat": 48.0619159,
    "lon": 14.7110826
  },
  "nodes": [
    880623536,
    3105434307,
    3105434324,
    3105434310,
    3105434297,
    880623653,
    880623659,
    11055046045,
    880623463,
    880623556,
    1410071090,
    1410071097,
    1410071176,
    1410071087,
    880623536
  ],
  "tags": {
    "heritage": "2",
    "heritage:operator": "bda",
    "landuse": "cemetery",
    "ref:at:bda": "27951",
    "religion": "christian",
    "wikidata": "Q37939782"
  }
},
{
  "type": "way",
  "id": 74507357,
  "center": {
    "lat": 48.0738643,
    "lon": 14.6159512
  },
  "nodes": [
    880623768,
    3171970267,
    880623560,
    3133886174,
    880623406,
    880623768
  ],
  "tags": {
    "denomination": "catholic",
    "landuse": "cemetery",
    "name": "Friedhof Sankt Johann in Engstetten",
    "religion": "christian"
  }
},
{
  "type": "way",
  "id": 80775818,
  "center": {
    "lat": 48.9733356,
    "lon": 14.5308664
  },
  "nodes": [
    4599771066,
    4599974207,
    4599974290,
    941954627,
    4599974291,
    941957050,
    4599974206,
    4599974203,
    4599974204,
    4599771065,
    4599974205,
    4599974202,
    4599771066
  ],
  "tags": {
    "landuse": "cemetery",
    "name": "Hřbitov Dobrá Voda",
    "religion": "christian"
  }
},
{
  "type": "way",
  "id": 83705666,
  "center": {
    "lat": 48.5748892,
    "lon": 14.0493379
  },
  "nodes": [
    974827491,
    974827372,
    974827621,
    3315638845,
    974827427,
    3315638847,
    1928748020,
    974827669,
    974827479,
    974827727,
    974827710,
    1928748019,
    974827511,
    974827757,
    974827545,
    974827321,
    974827491
  ],
  "tags": {
    "landuse": "cemetery",
    "source": "geoimage.at"
  }
},
{
  "type": "way",
  "id": 84503530,
  "center": {
    "lat": 48.6191053,
    "lon": 14.2480889
  },
  "nodes": [
    981701320,
    981701333,
    981701334,
    981701327,
    981701330,
    981701320
  ],
  "tags": {
    "barrier": "wall",
    "landuse": "cemetery"
  }
},
{
  "type": "way",
  "id": 84575029,
  "center": {
    "lat": 48.5319011,
    "lon": 14.8075116
  },
  "nodes": [
    982637859,
    10819141770,
    982637954,
    10819141769,
    10819141768,
    6232764506,
    10819141767,
    6232764505,
    6232764504,
    6232764503,
    6232764502,
    1950684485,
    10819145450,
    10819145449,
    10819145448,
    10819145447,
    10819145446,
    10819145442,
    10819145443,
    10819145445,
    10819145444,
    10819145441,
    10819145440,
    10819145439,
    10819145438,
    10819145436,
    10819145437,
    1950684493,
    1950684483,
    1950684486,
    1950684488,
    10819141774,
    10819141761,
    1950684475,
    1950684473,
    10819141760,
    10819141775,
    10819141772,
    10819141771,
    982637859
  ],
  "tags": {
    "landuse": "cemetery",
    "source": "geoimage.at"
  }
},
{
  "type": "way",
  "id": 84623632,
  "center": {
    "lat": 48.1242715,
    "lon": 14.9897304
  },
  "nodes": [
    983103929,
    983103864,
    983103895,
    10539952503,
    983103943,
    10539952497,
    983103824,
    983103929
  ],
  "tags": {
    "landuse": "cemetery",
    "religion": "christian"
  }
},
{
  "type": "way",
  "id": 84623917,
  "center": {
    "lat": 48.1296888,
    "lon": 14.9539200
  },
  "nodes": [
    983110561,
    983110580,
    2488318053,
    2488318033,
    2488318037,
    2488318038,
    2488318021,
    983110573,
    8343382051,
    983110558,
    8343382049,
    8343382048,
    8343382050,
    983110555,
    8343382047,
    983110562,
    8343382052,
    983110553,
    2488318138,
    2488318136,
    983110561
  ],
  "tags": {
    "landuse": "cemetery",
    "religion": "christian"
  }
},
{
  "type": "way",
  "id": 84653915,
  "center": {
    "lat": 48.4316997,
    "lon": 14.7766111
  },
  "nodes": [
    983381871,
    2567647324,
    983381361,
    983381634,
    11054345546,
    983381825,
    983382090,
    983381871
  ],
  "tags": {
    "landuse": "cemetery",
    "source": "geoimage.at"
  }
},
{
  "type": "way",
  "id": 84997112,
  "center": {
    "lat": 48.4664043,
    "lon": 14.1620774
  },
  "nodes": [
    986523665,
    986523748,
    986523692,
    986523673,
    986523654,
    986523861,
    986523665
  ],
  "tags": {
    "landuse": "cemetery",
    "source": "geoimage.at"
  }
},
{
  "type": "way",
  "id": 85388849,
  "center": {
    "lat": 48.4867376,
    "lon": 14.1348866
  },
  "nodes": [
    989984071,
    989984293,
    989984101,
    989984017,
    989984071
  ],
  "tags": {
    "landuse": "cemetery",
    "source": "geoimage.at"
  }
},
{
  "type": "way",
  "id": 86067289,
  "center": {
    "lat": 48.0136635,
    "lon": 14.9736837
  },
  "nodes": [
    998722570,
    3145555494,
    998721964,
    3145555493,
    998720845,
    3145555473,
    998723788,
    998722570
  ],
  "tags": {
    "landuse": "cemetery",
    "name": "Friedhof Randegg",
    "religion": "christian",
    "source": "geoimage.at"
  }
},
{
  "type": "way",
  "id": 86251349,
  "center": {
    "lat": 48.0138773,
    "lon": 14.7501840
  },
  "nodes": [
    1001122182,
    1001123195,
    5370280681,
    1001125520,
    1001122597,
    1001122182
  ],
  "tags": {
    "landuse": "cemetery",
    "religion": "christian",
    "source": "geoimage.at"
  }
},
{
  "type": "way",
  "id": 86304796,
  "center": {
    "lat": 48.5844877,
    "lon": 14.5645245
  },
  "nodes": [
    1002220162,
    1002220651,
    1002219940,
    1002219204,
    1002220162
  ],
  "tags": {
    "landuse": "cemetery",
    "source": "geoimage.at"
  }
},
{
  "type": "way",
  "id": 86321388,
  "center": {
    "lat": 48.5605389,
    "lon": 14.6448257
  },
  "nodes": [
    1002481897,
    1838071698,
    13245287954,
    1838071717,
    1838071724,
    1838071728,
    1002480148,
    2174330508,
    1002480997,
    1002479072,
    2150827008,
    13245287941,
    2150827018,
    2150827010,
    1002481897
  ],
  "tags": {
    "landuse": "cemetery",
    "source": "geoimage.at"
  }
},
{
  "type": "way",
  "id": 87162582,
  "center": {
    "lat": 48.7020301,
    "lon": 14.8986276
  },
  "nodes": [
    1013532655,
    1013533821,
    3429868115,
    3429868114,
    3429868113,
    3429868112,
    3398577851,
    3398577850,
    1013532832,
    3398577833,
    3398577828,
    3398577827,
    3398577808,
    3398575692,
    3398575675,
    3398575672,
    3398575674,
    3398575681,
    3398575682,
    3398575683,
    3398575679,
    1013531870,
    1013532655
  ],
  "tags": {
    "landuse": "cemetery",
    "name": "Friedhof Weitra"
  }
},
{
  "type": "way",
  "id": 87255719,
  "center": {
    "lat": 48.2257145,
    "lon": 14.6085254
  },
  "nodes": [
    1014571909,
    1014572346,
    1014572090,
    1014572170,
    1014571744,
    1014571850,
    1014571594,
    1014571673,
    1014571976,
    1014572040,
    1014571800,
    1014571905,
    1014572299,
    1014571909
  ],
  "tags": {
    "landuse": "cemetery",
    "source": "geoimage.at"
  }
},
{
  "type": "way",
  "id": 87348324,
  "center": {
    "lat": 48.2544702,
    "lon": 14.1666443
  },
  "nodes": [
    1015745798,
    1015745800,
    1015745801,
    1015745802,
    1015745798
  ],
  "tags": {
    "landuse": "cemetery",
    "religion": "christian"
  }
},
{
  "type": "way",
  "id": 88533216,
  "center": {
    "lat": 48.0839792,
    "lon": 14.9333854
  },
  "nodes": [
    11407786403,
    11407786401,
    11407786405,
    11407786404,
    11407786287,
    1028259496,
    1028259743,
    1028259587,
    1028259846,
    11407786403
  ],
  "tags": {
    "addr:city": "Euratsfeld",
    "addr:country": "AT",
    "addr:housenumber": "1",
    "addr:postcode": "3324",
    "addr:street": "Friedhofstraße",
    "amenity": "grave_yard",
    "at_bev:addr_date": "2023-04-15",
    "barrier": "wall",
    "name": "Friedhof Euratsfeld",
    "religion": "christian",
    "source": "geoimage.at"
  }
},
{
  "type": "way",
  "id": 89179783,
  "center": {
    "lat": 48.1889199,
    "lon": 14.1848549
  },
  "nodes": [
    1034543641,
    1034543530,
    1034543927,
    1034542883,
    1034543191,
    1034543707,
    1034544105,
    6315940097,
    1034542918,
    1034543244,
    1034543768,
    1034543981,
    1034543593,
    1034543364,
    1034543014,
    1034542603,
    1034543733,
    1034543218,
    1034542712,
    1034543168,
    1034543673,
    1034544063,
    1034543641
  ],
  "tags": {
    "landuse": "cemetery"
  }
},
{
  "type": "way",
  "id": 89203769,
  "center": {
    "lat": 48.5385036,
    "lon": 14.5335759
  },
  "nodes": [
    1035315963,
    6612604571,
    6635100896,
    1035315170,
    1035316146,
    1035314856,
    1035315963
  ],
  "tags": {
    "landuse": "cemetery",
    "source": "geoimage.at"
  }
},
{
  "type": "way",
  "id": 89789965,
  "center": {
    "lat": 48.3065252,
    "lon": 14.2591466
  },
  "nodes": [
    1040752307,
    1111149381,
    1111149377,
    1111149369,
    1111149383,
    1111149391,
    1111149399,
    1111149360,
    1111149372,
    1040752289,
    1040752283,
    1040752305,
    1040752277,
    1040752284,
    1040752280,
    1040752272,
    1040752269,
    1040752286,
    1040752290,
    1040752307
  ],
  "tags": {
    "landuse": "cemetery"
  }
},
{
  "type": "way",
  "id": 90155531,
  "center": {
    "lat": 48.3526137,
    "lon": 14.1601448
  },
  "nodes": [
    1045185851,
    1045185870,
    1045185782,
    1045185553,
    1045185979,
    1045185998,
    1045185883,
    1045185692,
    1045185577,
    1045185583,
    1045185925,
    1045185711,
    1045185966,
    1045185851
  ],
  "tags": {
    "denomination": "catholic",
    "landuse": "cemetery",
    "religion": "christian"
  }
},
{
  "type": "way",
  "id": 90155543,
  "center": {
    "lat": 48.3527927,
    "lon": 14.1607464
  },
  "nodes": [
    1045185795,
    1045185879,
    1045185789,
    1045185574,
    1045185795
  ],
  "tags": {
    "denomination": "catholic",
    "landuse": "cemetery",
    "religion": "christian"
  }
},
{
  "type": "way",
  "id": 90837768,
  "center": {
    "lat": 48.6523199,
    "lon": 14.7877719
  },
  "nodes": [
    1054605990,
    1054605996,
    1054605985,
    1054606058,
    1054605982,
    1054606002,
    8265233928,
    1054606014,
    1054606050,
    1054605999,
    1054606047,
    1054606039,
    1054605990
  ],
  "tags": {
    "amenity": "grave_yard"
  }
},
{
  "type": "way",
  "id": 91219396,
  "center": {
    "lat": 48.2141215,
    "lon": 14.2860542
  },
  "nodes": [
    1058803761,
    1058803626,
    1058803623,
    1058803946,
    1058803761
  ],
  "tags": {
    "landuse": "cemetery"
  }
},
{
  "type": "way",
  "id": 91665685,
  "center": {
    "lat": 48.5909322,
    "lon": 14.7479822
  },
  "nodes": [
    1065181782,
    1065181786,
    1065181785,
    7553298006,
    7553298005,
    7553298004,
    7553298007,
    7553298003,
    1065181782
  ],
  "tags": {
    "amenity": "grave_yard"
  }
},
{
  "type": "way",
  "id": 93457008,
  "center": {
    "lat": 48.0250206,
    "lon": 14.0727143
  },
  "nodes": [
    996154298,
    1083433258,
    1083433252,
    1083433242,
    1083433254,
    1083433262,
    1791213662,
    1791213678,
    1083433276,
    1083433283,
    1083433298,
    1083433310,
    1083433302,
    1083433260,
    1083433234,
    1083433264,
    996154298
  ],
  "tags": {
    "landuse": "cemetery",
    "name": "Friedhof Ried im Traunkreis"
  }
},
{
  "type": "way",
  "id": 94447287,
  "center": {
    "lat": 48.5014074,
    "lon": 14.0860291
  },
  "nodes": [
    1097091885,
    1097091859,
    1097091897,
    1097091824,
    1097091885
  ],
  "tags": {
    "landuse": "cemetery",
    "religion": "christian",
    "wikidata": "Q128797393"
  }
},
{
  "type": "way",
  "id": 96950028,
  "center": {
    "lat": 48.4501450,
    "lon": 14.0847774
  },
  "nodes": [
    1123478832,
    1123480492,
    1123479970,
    1123479114,
    1123480753,
    1123480246,
    1123431588,
    1123431176,
    1123479775,
    1123480652,
    1123431924,
    1123430928,
    8789937707,
    1123478832
  ],
  "tags": {
    "landuse": "cemetery"
  }
},
{
  "type": "way",
  "id": 97542939,
  "center": {
    "lat": 48.0358329,
    "lon": 14.4953291
  },
  "nodes": [
    1129340822,
    1129341038,
    9675935905,
    1129341003,
    1129341106,
    9675935910,
    1129340822
  ],
  "tags": {
    "landuse": "cemetery",
    "name": "Friedhof Behamberg",
    "religion": "christian",
    "wikidata": "Q126900779"
  }
},
{
  "type": "way",
  "id": 97593205,
  "center": {
    "lat": 48.4834959,
    "lon": 14.0013182
  },
  "nodes": [
    1129813306,
    1129813284,
    1129813301,
    1129813262,
    1129813279,
    3411415535,
    1129813340,
    1129813224,
    1129813317,
    1129813336,
    1129813291,
    1129813311,
    1129813277,
    1129813253,
    1129813323,
    1129813341,
    1129813295,
    1129813321,
    1139067194,
    1129813280,
    1129813293,
    1139066946,
    1129813252,
    1129813216,
    1129813299,
    1129813326,
    1129813282,
    1129813297,
    1129813255,
    1129813281,
    1129813306
  ],
  "tags": {
    "denomination": "catholic",
    "landuse": "cemetery",
    "name": "Friedhof Neufelden",
    "religion": "christian",
    "source": "geoimage.at"
  }
},
{
  "type": "way",
  "id": 99167516,
  "center": {
    "lat": 48.4161432,
    "lon": 14.0380683
  },
  "nodes": [
    1147097839,
    1147098316,
    1147098017,
    1147097808,
    1147098851,
    1147098578,
    1147098340,
    1147098044,
    1147098166,
    1147097921,
    1147097698,
    1147099122,
    1147098825,
    1147098550,
    1147098310,
    1147098012,
    1147098139,
    1147097902,
    1147097677,
    1147099104,
    1147098431,
    1147098163,
    1147097919,
    1147097694,
    1147097790,
    1147099223,
    1147098981,
    1147098710,
    1147098030,
    1147097820,
    1147099245,
    1147099006,
    1147099120,
    1147098339,
    1147097703,
    1147098861,
    1147098583,
    1147098721,
    1147098455,
    1147097839
  ],
  "tags": {
    "landuse": "cemetery"
  }
},
{
  "type": "way",
  "id": 106075134,
  "center": {
    "lat": 48.1609443,
    "lon": 14.0770722
  },
  "nodes": [
    1221319600,
    1221319572,
    1221319627,
    1221319591,
    1221319592,
    1221319648,
    1221319613,
    1775990587,
    1775990590,
    1775990592,
    1775990591,
    1775990588,
    1775990586,
    1775990589,
    1221319579,
    1221319633,
    1221319597,
    1221319657,
    1221319620,
    1221319600
  ],
  "tags": {
    "amenity": "grave_yard"
  }
},
{
  "type": "way",
  "id": 106310693,
  "center": {
    "lat": 48.2793326,
    "lon": 14.2502619
  },
  "nodes": [
    1223607311,
    1223607177,
    366886177,
    366886179,
    679670517,
    1223607058,
    1223607336,
    1223607168,
    676382068,
    676382074,
    1223607147,
    676386752,
    676386753,
    676386754,
    676386755,
    268433393,
    1223607121,
    1223607175,
    1223607098,
    1223607015,
    676330287,
    1223607195,
    1223607312,
    1223607034,
    1223607039,
    1223607157,
    1223607228,
    1223607358,
    325786811,
    325786828,
    325786834,
    325786842,
    325786848,
    325786856,
    1223607037,
    1223607352,
    1223607187,
    1223607154,
    1223607226,
    366886183,
    1223607264,
    1223607027,
    1223607105,
    325786719,
    325786725,
    325786732,
    325786740,
    1223607139,
    676382069,
    1223607213,
    268433878,
    676382071,
    1223607055,
    676382073,
    325826851,
    1223607331,
    366886173,
    1223607311
  ],
  "tags": {
    "denomination": "catholic",
    "landuse": "cemetery",
    "name": "Pfarrfriedhof Leonding",
    "religion": "christian",
    "wikidata": "Q41074099"
  }
},
{
  "type": "way",
  "id": 108468661,
  "center": {
    "lat": 48.0833411,
    "lon": 14.6654442
  },
  "nodes": [
    1244516991,
    1244516828,
    1244517106,
    3175898128,
    1244517042,
    8267671028,
    1244516991
  ],
  "tags": {
    "landuse": "cemetery",
    "name": "Friedhof Wolfsbach",
    "religion": "christian"
  }
},
{
  "type": "way",
  "id": 110600573,
  "center": {
    "lat": 48.4761605,
    "lon": 14.1909678
  },
  "nodes": [
    1262610377,
    1262610516,
    1262610554,
    1262610388,
    1262610285,
    1262610432,
    1262610377
  ],
  "tags": {
    "landuse": "cemetery"
  }
},
{
  "type": "way",
  "id": 112765702,
  "center": {
    "lat": 48.2204613,
    "lon": 14.0127805
  },
  "nodes": [
    1281066586,
    1281066584,
    1281066588,
    1281066595,
    1281066586
  ],
  "tags": {
    "landuse": "cemetery"
  }
},
{
  "type": "way",
  "id": 117268036,
  "center": {
    "lat": 48.7501080,
    "lon": 14.8423051
  },
  "nodes": [
    1320831308,
    1320831310,
    1320831312,
    1320831323,
    1320831308
  ],
  "tags": {
    "landuse": "cemetery"
  }
},
{
  "type": "way",
  "id": 118301665,
  "center": {
    "lat": 48.2417578,
    "lon": 14.3330802
  },
  "nodes": [
    1330695592,
    1330695889,
    1330695532,
    1330695643,
    1330696408,
    1330695592
  ],
  "tags": {
    "landuse": "cemetery",
    "name:signed": "no"
  }
},
{
  "type": "way",
  "id": 118395650,
  "center": {
    "lat": 48.3219019,
    "lon": 14.2554001
  },
  "nodes": [
    1331590168,
    1331589903,
    1331590291,
    1331590197,
    1331589987,
    1331590381,
    1331590255,
    1331590135,
    1331589909,
    1331590168
  ],
  "tags": {
    "denomination": "catholic",
    "landuse": "cemetery",
    "name": "Bergfriedhof Pöstlingberg",
    "religion": "christian"
  }
},
{
  "type": "way",
  "id": 120848155,
  "center": {
    "lat": 48.3314848,
    "lon": 14.6205278
  },
  "nodes": [
    1354007603,
    1354007624,
    1354007604,
    1354007612,
    1354007620,
    1354007628,
    1354007608,
    1354007616,
    1354007623,
    1354007603
  ],
  "tags": {
    "landuse": "cemetery"
  }
},
{
  "type": "way",
  "id": 121159146,
  "center": {
    "lat": 48.4647840,
    "lon": 14.9687914
  },
  "nodes": [
    1356987483,
    3728212122,
    3728212123,
    1356987469,
    3728212124,
    3728212525,
    1356987477,
    1356987518,
    1356987483
  ],
  "tags": {
    "landuse": "cemetery"
  }
},
{
  "type": "way",
  "id": 121449253,
  "center": {
    "lat": 48.7628033,
    "lon": 14.9488640
  },
  "nodes": [
    1359642867,
    3648763367,
    3648763363,
    1359642885,
    1359642882,
    1359642891,
    11074933914,
    1359642879,
    1359642867
  ],
  "tags": {
    "barrier": "wall",
    "landuse": "cemetery"
  }
},
{
  "type": "way",
  "id": 121642362,
  "center": {
    "lat": 48.8860536,
    "lon": 14.8802690
  },
  "nodes": [
    1361074947,
    1361074949,
    1361074958,
    1361074929,
    12045709080,
    10616176845,
    1361074947
  ],
  "tags": {
    "barrier": "wall",
    "landuse": "cemetery"
  }
},
{
  "type": "way",
  "id": 123180248,
  "center": {
    "lat": 48.2743054,
    "lon": 14.9486584
  },
  "nodes": [
    1374499550,
    11030319305,
    1374499548,
    1374499515,
    11030319304,
    1374499546,
    1374499530,
    1374499532,
    1374499517,
    1374499556,
    1374499538,
    1381694276,
    1381694278,
    1381694280,
    1381694281,
    1381694282,
    1381694279,
    1381694277,
    1374499550
  ],
  "tags": {
    "landuse": "cemetery",
    "name": "Friedhof Waldhausen",
    "religion": "christian"
  }
},
{
  "type": "way",
  "id": 123183139,
  "center": {
    "lat": 48.2048788,
    "lon": 14.3567063
  },
  "nodes": [
    1374524604,
    1374524620,
    1374524550,
    1374524597,
    1374524604
  ],
  "tags": {
    "landuse": "cemetery",
    "name": "Judenfriedhof"
  }
},
{
  "type": "way",
  "id": 123463926,
  "center": {
    "lat": 48.6047377,
    "lon": 14.6945317
  },
  "nodes": [
    3293936749,
    4050208391,
    3293936744,
    3293941051,
    3293941054,
    12777139974,
    12777139975,
    3293941150,
    3293941367,
    3293936749
  ],
  "tags": {
    "barrier": "wall",
    "landuse": "cemetery",
    "religion": "christian"
  }
},
{
  "type": "way",
  "id": 124351413,
  "center": {
    "lat": 48.2340097,
    "lon": 14.9098098
  },
  "nodes": [
    1384316491,
    1384316489,
    1384316480,
    1384316481,
    13006528182,
    1384316491
  ],
  "tags": {
    "denomination": "catholic",
    "landuse": "cemetery",
    "name": "Friedhof St. Nikola",
    "religion": "christian"
  }
},
{
  "type": "way",
  "id": 124548956,
  "center": {
    "lat": 48.2487314,
    "lon": 14.0476297
  },
  "nodes": [
    1386204064,
    1387622826,
    1386204179,
    1386204110,
    1386204115,
    1386204047,
    1386204160,
    1386204064
  ],
  "tags": {
    "denomination": "lutheran",
    "landuse": "cemetery",
    "name": "Evangelischer Friedhof Scharten",
    "religion": "christian",
    "source": "bing"
  }
},
{
  "type": "way",
  "id": 127827231,
  "center": {
    "lat": 48.2645004,
    "lon": 14.7155373
  },
  "nodes": [
    1413909268,
    1413909239,
    1413909216,
    1413909251,
    1413909260,
    1413909259,
    1413909268
  ],
  "tags": {
    "border": "wall",
    "denomination": "catholic",
    "landuse": "cemetery",
    "religion": "christian"
  }
},
{
  "type": "way",
  "id": 128677464,
  "center": {
    "lat": 48.2262292,
    "lon": 14.7068027
  },
  "nodes": [
    1421401037,
    1421401081,
    1421401115,
    6328858223,
    6328858220,
    1421401159,
    1421401198,
    6328858226,
    1421401130,
    1421401099,
    1421401068,
    10549108831,
    1421401053,
    1421401030,
    1421401035,
    1421401037
  ],
  "tags": {
    "landuse": "cemetery"
  }
},
{
  "type": "way",
  "id": 132470018,
  "center": {
    "lat": 48.7463626,
    "lon": 14.9428918
  },
  "nodes": [
    1457221082,
    1457221083,
    1457221081,
    1457221076,
    1457221070,
    1457221079,
    1457221080,
    4031779805,
    4031779791,
    1457221078,
    1457221077,
    1457221071,
    1457221075,
    1457221082
  ],
  "tags": {
    "landuse": "cemetery",
    "name": "Friedhof Dietmanns",
    "wikidata": "Q126918207"
  }
},
{
  "type": "way",
  "id": 133400146,
  "center": {
    "lat": 48.1888433,
    "lon": 14.1829992
  },
  "nodes": [
    1468461123,
    1468461058,
    1468461085,
    1036564204,
    1468461092,
    1468461105,
    1041063438,
    1468461111,
    1468461108,
    1468461107,
    1468461110,
    1468461122,
    1468461123
  ],
  "tags": {
    "landuse": "cemetery",
    "name:signed": "no"
  }
},
{
  "type": "way",
  "id": 133645055,
  "center": {
    "lat": 48.2831193,
    "lon": 14.6797534
  },
  "nodes": [
    1470959612,
    2408170550,
    2408170582,
    2408170569,
    2408170549,
    2408170560,
    5112345583,
    5112345571,
    1470959604,
    2408170544,
    476786323,
    1470959612
  ],
  "tags": {
    "landuse": "cemetery",
    "source": "geoimage.at"
  }
},
{
  "type": "way",
  "id": 133746619,
  "center": {
    "lat": 48.1927732,
    "lon": 14.9012934
  },
  "nodes": [
    1472092143,
    1472092243,
    1472092197,
    1904763090,
    1904763091,
    1904763092,
    1904763093,
    1472092388,
    1904763094,
    1472092143
  ],
  "tags": {
    "landuse": "cemetery"
  }
},
{
  "type": "way",
  "id": 133759103,
  "center": {
    "lat": 48.9782010,
    "lon": 14.3119419
  },
  "nodes": [
    1472207367,
    1472207342,
    1472207336,
    1472207313,
    1472207330,
    1472207389,
    1472207374,
    1472207367
  ],
  "tags": {
    "landuse": "cemetery"
  }
},
{
  "type": "way",
  "id": 134134355,
  "center": {
    "lat": 48.9003081,
    "lon": 14.4507627
  },
  "nodes": [
    1475137738,
    1475137725,
    1475137713,
    1475137712,
    1475137733,
    1475137738
  ],
  "tags": {
    "barrier": "wall",
    "landuse": "cemetery",
    "religion": "christian"
  }
},
{
  "type": "way",
  "id": 134559444,
  "center": {
    "lat": 48.9549115,
    "lon": 14.3343707
  },
  "nodes": [
    1479245758,
    1479245749,
    1479245740,
    1479245741,
    1479245742,
    1479245746,
    1479245760,
    1479245758
  ],
  "tags": {
    "barrier": "wall",
    "landuse": "cemetery"
  }
},
{
  "type": "way",
  "id": 134922287,
  "center": {
    "lat": 48.5594891,
    "lon": 14.4760033
  },
  "nodes": [
    1482477181,
    1482477180,
    1482477171,
    1482477170,
    11293414919,
    1482477163,
    1482477160,
    1482477161,
    1482477162,
    1482477173,
    1482477179,
    1482477183,
    1482477181
  ],
  "tags": {
    "denomination": "roman_catholic",
    "landuse": "cemetery",
    "name": "Friedhof Rainbach",
    "religion": "christian"
  }
},
{
  "type": "way",
  "id": 135162441,
  "center": {
    "lat": 48.2226431,
    "lon": 14.0979263
  },
  "nodes": [
    1484626266,
    1484626414,
    1484626415,
    1484626486,
    1484626513,
    1484626508,
    1484626494,
    1484626465,
    1484626380,
    1484626277,
    1484626281,
    1484626266
  ],
  "tags": {
    "landuse": "cemetery",
    "source": "geoimage.at"
  }
},
{
  "type": "way",
  "id": 135169136,
  "center": {
    "lat": 48.2257857,
    "lon": 14.1781408
  },
  "nodes": [
    1484686952,
    1484686950,
    1484686951,
    1484686970,
    1484686979,
    3535555998,
    3535555995,
    3535549292,
    3535549290,
    3535549291,
    3535555994,
    3535555997,
    3535556005,
    1484686980,
    3535549289,
    3535549286,
    1484686969,
    3535549283,
    1484686958,
    3535549281,
    1484686952
  ],
  "tags": {
    "landuse": "cemetery",
    "name": "Alter Friedhof",
    "source": "geoimage.at"
  }
},
{
  "type": "way",
  "id": 135453764,
  "center": {
    "lat": 48.7704860,
    "lon": 14.0335622
  },
  "nodes": [
    1487673729,
    1487673728,
    11694890386,
    1487673723,
    1487673722,
    1487673729
  ],
  "tags": {
    "barrier": "wall",
    "landuse": "cemetery",
    "source": "cuzk:km"
  }
},
{
  "type": "way",
  "id": 135600294,
  "center": {
    "lat": 48.3265693,
    "lon": 14.1838263
  },
  "nodes": [
    1489149851,
    1489149863,
    1489153611,
    1489149852,
    1489153610,
    1489152158,
    1489149854,
    1489149848,
    1489149853,
    1489149865,
    1489149851
  ],
  "tags": {
    "denomination": "catholic",
    "landuse": "cemetery",
    "name": "Pfarrfriedhof Wilhering",
    "religion": "christian",
    "source": "Bing",
    "wikidata": "Q37795547"
  }
},
{
  "type": "way",
  "id": 135831145,
  "center": {
    "lat": 48.4141652,
    "lon": 14.2754271
  },
  "nodes": [
    1490962443,
    1490962416,
    1490962464,
    1490962480,
    1490962460,
    1490962427,
    1490962443
  ],
  "tags": {
    "landuse": "cemetery"
  }
},
{
  "type": "way",
  "id": 136080195,
  "center": {
    "lat": 48.4997486,
    "lon": 14.5850453
  },
  "nodes": [
    1493277325,
    1493277347,
    1493277354,
    1493277370,
    1493277382,
    1493277380,
    1493277379,
    1493277359,
    1493277325
  ],
  "tags": {
    "landuse": "cemetery",
    "wikidata": "Q128797265"
  }
},
{
  "type": "way",
  "id": 138651208,
  "center": {
    "lat": 48.2851454,
    "lon": 14.3636468
  },
  "nodes": [
    957269609,
    12142899332,
    12142899333,
    12142899334,
    12142899351,
    12142899354,
    12142899352,
    12142899353,
    12142899347,
    12142899350,
    12142899348,
    12142899349,
    12142899343,
    12142899346,
    12142899344,
    12142899345,
    12142899335,
    12142899339,
    12142899340,
    12142899342,
    12142899341,
    12142899338,
    12142899337,
    12142899336,
    1520344321,
    1520344324,
    1520344326,
    1520344334,
    12142899374,
    1520344328,
    1520344325,
    1520344323,
    1520344320,
    12142899373,
    12142899372,
    12142899371,
    12142899370,
    12142899375,
    1520344319,
    12142899365,
    12142899355,
    12142899360,
    12142899359,
    12142899358,
    12142899356,
    12142899357,
    12142899363,
    12142899364,
    12142899362,
    12142899361,
    12142899366,
    12142899369,
    12142899368,
    1520344311,
    12142899326,
    12142899327,
    12142899328,
    12142899329,
    12142899330,
    12142899331,
    957269609
  ],
  "tags": {
    "denomination": "catholic",
    "landuse": "cemetery",
    "name": "Friedhof Steyregg Nr 2",
    "religion": "christian"
  }
},
{
  "type": "way",
  "id": 138781241,
  "center": {
    "lat": 48.4943598,
    "lon": 14.4927437
  },
  "nodes": [
    1521788884,
    1521789160,
    1521788863,
    1521788952,
    4359196867,
    6985617063,
    1521788917,
    6985617064,
    1521788553,
    1521788751,
    1521788957,
    1521788656,
    1521788859,
    1521788782,
    1521788733,
    1521788748,
    330441070,
    330441071,
    1521788884
  ],
  "tags": {
    "cemetery": "war_cemetery",
    "historic": "memorial",
    "landuse": "cemetery",
    "name": "Soldatenfriedhof Jaunitztal",
    "wikimedia_commons": "Category:Soldatenfriedhof Jaunitzbachtal"
  }
},
{
  "type": "way",
  "id": 139753093,
  "center": {
    "lat": 48.7060692,
    "lon": 14.7980145
  },
  "nodes": [
    1531569033,
    1781820938,
    1531569060,
    1531569206,
    1531569233,
    11655855465,
    1531569033
  ],
  "tags": {
    "landuse": "cemetery"
  }
},
{
  "type": "way",
  "id": 142748475,
  "center": {
    "lat": 48.1735214,
    "lon": 14.0329751
  },
  "nodes": [
    324222498,
    1396688126,
    257807601,
    324222495,
    324222494,
    453539288,
    257807602,
    453539284,
    1396687960,
    1396687958,
    1396687962,
    1396687951,
    324222526,
    324222525,
    412231200,
    1396687919,
    1396687923,
    1396688004,
    9327972768,
    257807600,
    324222496,
    324222498
  ],
  "tags": {
    "landuse": "cemetery",
    "name": "Friedhof der Stadt Wels",
    "religion": "christian"
  }
},
{
  "type": "way",
  "id": 143472762,
  "center": {
    "lat": 48.9290531,
    "lon": 14.2253318
  },
  "nodes": [
    1569910499,
    4822933320,
    1569909614,
    1569909591,
    1569909574,
    1569910490,
    1569910499
  ],
  "tags": {
    "barrier": "wall",
    "landuse": "cemetery"
  }
},
{
  "type": "way",
  "id": 143476722,
  "center": {
    "lat": 48.8554887,
    "lon": 14.2053571
  },
  "nodes": [
    1569964521,
    4792121158,
    1569965213,
    1569965096,
    1569965021,
    1569964522,
    12070557092,
    7637762117,
    7637762118,
    1569964495,
    1569964494,
    1569964521
  ],
  "tags": {
    "barrier": "wall",
    "landuse": "cemetery"
  }
},
{
  "type": "way",
  "id": 143733880,
  "center": {
    "lat": 48.7657148,
    "lon": 14.1729079
  },
  "nodes": [
    1572847152,
    1572847101,
    7626321243,
    7626321242,
    1572847096,
    8740553931,
    1572847139,
    8740553929,
    12012336955,
    1572847152
  ],
  "tags": {
    "amenity": "grave_yard",
    "barrier": "wall",
    "religion": "christian",
    "source": "i lived in this village",
    "wikidata": "Q107050295"
  }
},
{
  "type": "way",
  "id": 143859485,
  "center": {
    "lat": 48.2079683,
    "lon": 14.3806121
  },
  "nodes": [
    1574215830,
    1574215831,
    1574215851,
    1574215861,
    1574215859,
    1574215850,
    1574215847,
    1574215830
  ],
  "tags": {
    "denomination": "roman_catholic",
    "landuse": "cemetery",
    "name": "Friedhof St. Florian",
    "religion": "christian"
  }
},
{
  "type": "way",
  "id": 144116224,
  "center": {
    "lat": 48.8503921,
    "lon": 14.3668933
  },
  "nodes": [
    1576972229,
    3334950236,
    1576972216,
    1576972218,
    1576972224,
    1576972227,
    1576972246,
    1576972230,
    1576972229
  ],
  "tags": {
    "barrier": "wall",
    "landuse": "cemetery"
  }
},
{
  "type": "way",
  "id": 144398028,
  "center": {
    "lat": 48.7767266,
    "lon": 14.4101844
  },
  "nodes": [
    1579471773,
    7264010032,
    1579471597,
    1579471538,
    1579471546,
    11977749652,
    1579471588,
    1579471806,
    1579471773
  ],
  "tags": {
    "barrier": "wall",
    "landuse": "cemetery",
    "wikidata": "Q107049424"
  }
},
{
  "type": "way",
  "id": 144969167,
  "center": {
    "lat": 48.3188942,
    "lon": 14.4737254
  },
  "nodes": [
    1584428140,
    1584428141,
    1584428143,
    1584428151,
    1584428149,
    1584428159,
    1584428153,
    1584428138,
    1584428139,
    1584428137,
    1584428140
  ],
  "tags": {
    "landuse": "cemetery",
    "name": "Friedhof Katsdorf",
    "source": "geoimage.at"
  }
},
{
  "type": "way",
  "id": 145342679,
  "center": {
    "lat": 48.2078776,
    "lon": 14.3786491
  },
  "nodes": [
    1587574008,
    1587574010,
    4540325859,
    4540325853,
    4540325854,
    4540325855,
    4540325856,
    4540325857,
    4540325858,
    1587574024,
    4538608139,
    4538608138,
    4540325852,
    4540325851,
    4540325850,
    4538608091,
    1587574036,
    4538608090,
    1587574057,
    1376466719,
    4538608094,
    1587574055,
    4538608137,
    1587574060,
    4538608136,
    1587574076,
    1587574062,
    1587574081,
    4538608135,
    1587574085,
    1587574087,
    4538608134,
    1587574083,
    1587574079,
    1587574061,
    1587574059,
    4538608133,
    1587574058,
    1587574054,
    1587574052,
    1587574049,
    1587574046,
    1587574043,
    1429803781,
    1587574030,
    1587574028,
    4538608125,
    1587574017,
    1587574019,
    1587574015,
    1376466602,
    401284606,
    1376466593,
    1376466605,
    1376466607,
    1376466604,
    1376466610,
    1376466645,
    628200049,
    4540325846,
    4540325841,
    4540325844,
    4540325865,
    4540325849,
    4540325864,
    1587574008
  ],
  "tags": {
    "landuse": "cemetery",
    "name": "Friedhof St. Florian",
    "religion": "christian"
  }
},
{
  "type": "way",
  "id": 146386477,
  "center": {
    "lat": 48.1232995,
    "lon": 14.3184993
  },
  "nodes": [
    1596585776,
    1596585775,
    1596585780,
    1596585785,
    1596585787,
    1596585789,
    1596585776
  ],
  "tags": {
    "landuse": "cemetery",
    "source": "geoimage.at"
  }
},
{
  "type": "way",
  "id": 146906244,
  "center": {
    "lat": 48.6059978,
    "lon": 14.4078240
  },
  "nodes": [
    1601254700,
    1601254603,
    1601254570,
    1601254543,
    1601254522,
    1601254512,
    1601254677,
    1601254700
  ],
  "tags": {
    "barrier": "wall",
    "landuse": "cemetery"
  }
},
{
  "type": "way",
  "id": 147049115,
  "center": {
    "lat": 48.2645468,
    "lon": 14.1582608
  },
  "nodes": [
    1602432549,
    1602432552,
    1027848891,
    1027848909,
    1027848910,
    1027848908,
    1027848907,
    1027848905,
    1027848912,
    1602432550,
    1602432555,
    1602432551,
    1602432558,
    1602432556,
    1602432559,
    1602432553,
    6398330304,
    1602432549
  ],
  "tags": {
    "amenity": "grave_yard",
    "religion": "christian"
  }
},
{
  "type": "way",
  "id": 147551737,
  "center": {
    "lat": 48.6659417,
    "lon": 14.4816364
  },
  "nodes": [
    1607589289,
    4118272941,
    1607589258,
    1607589242,
    1607589234,
    1607589230,
    1607589224,
    1607589265,
    1607589289
  ],
  "tags": {
    "barrier": "wall",
    "landuse": "cemetery"
  }
},
{
  "type": "way",
  "id": 148749953,
  "center": {
    "lat": 48.2346855,
    "lon": 14.1340372
  },
  "nodes": [
    1618160450,
    1618160394,
    1618160396,
    1618160387,
    1618160369,
    1618160349,
    1618160313,
    1618160308,
    1618160330,
    1618160352,
    1618160336,
    1618160453,
    1618160469,
    1618160502,
    1618160465,
    1618160476,
    1618160478,
    1618160470,
    1618160467,
    1618160459,
    1618160450
  ],
  "tags": {
    "denomination": "catholic",
    "landuse": "cemetery",
    "religion": "christian"
  }
},
{
  "type": "way",
  "id": 149757199,
  "center": {
    "lat": 48.3515453,
    "lon": 14.6674320
  },
  "nodes": [
    1627080867,
    1627080877,
    1627080859,
    1627080862,
    1627080861,
    1627080864,
    1627081756,
    1627080860,
    1627080867
  ],
  "tags": {
    "landuse": "cemetery"
  }
},
{
  "type": "way",
  "id": 150365444,
  "center": {
    "lat": 48.0838320,
    "lon": 14.2186277
  },
  "nodes": [
    1632880312,
    1632880301,
    1632880318,
    1632880334,
    1632880340,
    1632880341,
    1632880355,
    1632880353,
    1632880351,
    1632880322,
    1632880312
  ],
  "tags": {
    "denomination": "lutheran",
    "landuse": "cemetery",
    "religion": "christian",
    "source": "geoimage.at",
    "wikidata": "Q37775722"
  }
},
{
  "type": "way",
  "id": 150814372,
  "center": {
    "lat": 48.1145355,
    "lon": 14.1941099
  },
  "nodes": [
    1636867577,
    1636867581,
    1636867615,
    1636867604,
    1636867592,
    1636867589,
    9375817714,
    443380348,
    1636867574,
    1636867570,
    1636867577
  ],
  "tags": {
    "landuse": "cemetery",
    "source": "geoimage.at"
  }
},
{
  "type": "way",
  "id": 151011137,
  "center": {
    "lat": 48.0655558,
    "lon": 14.1931743
  },
  "nodes": [
    1638641615,
    3001121935,
    1638641603,
    1638641601,
    337876330,
    3001121950,
    1638641618,
    3001121949,
    3001121948,
    3001121947,
    3001121946,
    1638641615
  ],
  "tags": {
    "landuse": "cemetery"
  }
},
{
  "type": "way",
  "id": 156173534,
  "center": {
    "lat": 48.3004854,
    "lon": 14.6438419
  },
  "nodes": [
    1684550812,
    1684550804,
    1684550810,
    1684550813,
    1684550812
  ],
  "tags": {
    "landuse": "cemetery",
    "name": "Friedhof Allerheiligen"
  }
},
{
  "type": "way",
  "id": 158353544,
  "center": {
    "lat": 48.2711701,
    "lon": 14.5290948
  },
  "nodes": [
    1705754016,
    1705754015,
    1705754014,
    1705754017,
    1705754016
  ],
  "tags": {
    "landuse": "cemetery"
  }
},
{
  "type": "way",
  "id": 163088515,
  "center": {
    "lat": 48.3499377,
    "lon": 14.0088411
  },
  "nodes": [
    1748621484,
    1748621486,
    1748623183,
    1748621488,
    1748621490,
    1748621492,
    1748621494,
    1748621495,
    1748621497,
    8664165068,
    1748621499,
    1748621501,
    1748621503,
    1748621505,
    334478078,
    334478081,
    1748621484
  ],
  "tags": {
    "historic": "tomb",
    "landuse": "cemetery",
    "name": "Kriegerfriedhof Hartkirchen",
    "tomb": "war_grave"
  }
},
{
  "type": "way",
  "id": 163993103,
  "center": {
    "lat": 48.3643281,
    "lon": 14.0221385
  },
  "nodes": [
    1756580237,
    1756580238,
    1756580239,
    1756580240,
    1756580241,
    1756580242,
    1756580243,
    1756587998,
    1756587991,
    1756580244,
    1756580245,
    1756580246,
    1756580247,
    1756580248,
    1756580237
  ],
  "tags": {
    "amenity": "grave_yard",
    "name": "Friedhof Aschach an der Donau"
  }
},
{
  "type": "way",
  "id": 164078339,
  "center": {
    "lat": 48.3621126,
    "lon": 14.0002867
  },
  "nodes": [
    1757368935,
    1757368940,
    1757368941,
    1757368943,
    1757368944,
    1757368945,
    1757368946,
    1757368947,
    9520475428,
    1757368935
  ],
  "tags": {
    "denomination": "roman_catholic",
    "landuse": "cemetery",
    "name": "Friedhof Hartkirchen",
    "religion": "christian"
  }
},
{
  "type": "way",
  "id": 165813455,
  "center": {
    "lat": 48.2102846,
    "lon": 14.5661547
  },
  "nodes": [
    1773410943,
    1773410965,
    1773410955,
    1773410951,
    1773410924,
    1773410887,
    1773410943
  ],
  "tags": {
    "landuse": "cemetery",
    "religion": "christian"
  }
},
{
  "type": "way",
  "id": 166562263,
  "center": {
    "lat": 48.1970070,
    "lon": 14.5722458
  },
  "nodes": [
    1780108282,
    1780108270,
    1780108269,
    1780108283,
    1780108272,
    1780108275,
    1780108258,
    1780108282
  ],
  "tags": {
    "landuse": "cemetery"
  }
},
{
  "type": "way",
  "id": 167862784,
  "center": {
    "lat": 48.5115313,
    "lon": 14.3700843
  },
  "nodes": [
    1792082449,
    1792082453,
    1792082452,
    1792082451,
    1792082450,
    1792082448,
    1792082449
  ],
  "tags": {
    "landuse": "cemetery",
    "source": "Bing"
  }
},
{
  "type": "way",
  "id": 172865155,
  "center": {
    "lat": 48.3480343,
    "lon": 14.7588131
  },
  "nodes": [
    1837116459,
    1837116467,
    5732075133,
    1837116523,
    1837116527,
    1837116459
  ],
  "tags": {
    "amenity": "grave_yard"
  }
},
{
  "type": "way",
  "id": 176828627,
  "center": {
    "lat": 48.0139561,
    "lon": 14.4853742
  },
  "nodes": [
    1873153289,
    1873153287,
    1873153286,
    1873153288,
    1873153285,
    1873153289
  ],
  "tags": {
    "landuse": "cemetery",
    "name": "Friedhof Kleinraming",
    "religion": "christian"
  }
},
{
  "type": "way",
  "id": 180202505,
  "center": {
    "lat": 48.1174867,
    "lon": 14.0181626
  },
  "nodes": [
    1906470917,
    1906470897,
    1906470913,
    1906470920,
    1906470926,
    1906470944,
    1906470917
  ],
  "tags": {
    "landuse": "cemetery"
  }
},
{
  "type": "way",
  "id": 181750563,
  "center": {
    "lat": 48.3832029,
    "lon": 14.0877922
  },
  "nodes": [
    1921844864,
    1921844869,
    1921844876,
    13028274608,
    1921844880,
    1921844879,
    1921844875,
    1921844873,
    1921844867,
    1921844866,
    1921844864
  ],
  "tags": {
    "denomination": "catholic",
    "landuse": "cemetery",
    "name": "Friedhof Lacken",
    "religion": "christian"
  }
},
{
  "type": "way",
  "id": 182149757,
  "center": {
    "lat": 48.0939820,
    "lon": 14.9831601
  },
  "nodes": [
    1924965465,
    1924965427,
    1924965424,
    1924965466,
    1924965465
  ],
  "tags": {
    "landuse": "cemetery"
  }
},
{
  "type": "way",
  "id": 183970209,
  "center": {
    "lat": 48.2052427,
    "lon": 14.7462317
  },
  "nodes": [
    1944049098,
    1944049096,
    1944049097,
    1944049099,
    1944049098
  ],
  "tags": {
    "amenity": "grave_yard",
    "denomination": "catholic",
    "religion": "christian"
  }
},
{
  "type": "way",
  "id": 184797935,
  "center": {
    "lat": 48.6267232,
    "lon": 14.8300152
  },
  "nodes": [
    1953245793,
    1953245802,
    1953245797,
    1953245799,
    1953245795,
    1953245791,
    1953245793
  ],
  "tags": {
    "landuse": "cemetery"
  }
},
{
  "type": "way",
  "id": 185117493,
  "center": {
    "lat": 48.2587602,
    "lon": 14.2014221
  },
  "nodes": [
    1956879027,
    1956879030,
    1956879034,
    1956879036,
    1956879041,
    1956879044,
    1956879046,
    1956879048,
    1956879049,
    1956879050,
    1956879051,
    1956879052,
    1956879027
  ],
  "tags": {
    "landuse": "cemetery",
    "source": "Bing"
  }
},
{
  "type": "way",
  "id": 185438141,
  "center": {
    "lat": 48.4436982,
    "lon": 14.6775909
  },
  "nodes": [
    1960357005,
    1960357002,
    1960357003,
    1960357004,
    1960357001,
    1960357006,
    1960357050,
    1960357007,
    1960357049,
    1960357015,
    1960357008,
    1960357009,
    1960357011,
    1960357010,
    1960357018,
    1960357012,
    1960357017,
    1960357013,
    1960357014,
    1960357016,
    1960357020,
    1960357021,
    1960357019,
    1960357022,
    1960357023,
    1960357024,
    1960357027,
    1960357025,
    1960357005
  ],
  "tags": {
    "barrier": "wall",
    "landuse": "cemetery"
  }
},
{
  "type": "way",
  "id": 185744528,
  "center": {
    "lat": 48.0878080,
    "lon": 14.8074799
  },
  "nodes": [
    1964104902,
    1964104888,
    2672994999,
    2672995013,
    2672995036,
    2672995089,
    2672995086,
    1964104921,
    1964104940,
    1964104902
  ],
  "tags": {
    "denomination": "catholic",
    "landuse": "cemetery",
    "religion": "christian"
  }
},
{
  "type": "way",
  "id": 189643500,
  "center": {
    "lat": 48.2835200,
    "lon": 14.6795338
  },
  "nodes": [
    2002337207,
    5112441789,
    2002337493,
    2408170568,
    2408170556,
    2002337392,
    2002337475,
    2002337708,
    2002337163,
    2408170553,
    2002337207
  ],
  "tags": {
    "landuse": "cemetery",
    "religion": "christian"
  }
},
{
  "type": "way",
  "id": 192071687,
  "center": {
    "lat": 48.2695591,
    "lon": 14.8070827
  },
  "nodes": [
    2026274833,
    2028597539,
    2026274835,
    2028597394,
    2026274761,
    2026274844,
    2026274836,
    2026274800,
    2026274833
  ],
  "tags": {
    "landuse": "cemetery"
  }
},
{
  "type": "way",
  "id": 195016087,
  "center": {
    "lat": 48.9738154,
    "lon": 14.3589808
  },
  "nodes": [
    2055188380,
    2055188379,
    2055188378,
    2055188373,
    2055188372,
    2055188375,
    2055188377,
    9382239068,
    2055188380
  ],
  "tags": {
    "landuse": "cemetery"
  }
},
{
  "type": "way",
  "id": 195409264,
  "center": {
    "lat": 48.3606825,
    "lon": 14.8950645
  },
  "nodes": [
    2058548061,
    2058547785,
    2058547938,
    2058548228,
    2058548028,
    2058547944,
    2058547867,
    2058547788,
    2058548184,
    2058548061
  ],
  "tags": {
    "landuse": "cemetery",
    "wikidata": "Q128797057"
  }
},
{
  "type": "way",
  "id": 196904011,
  "center": {
    "lat": 48.9641843,
    "lon": 14.9347717
  },
  "nodes": [
    2071920381,
    6394736622,
    2071920384,
    2071920386,
    2071920385,
    2071920381
  ],
  "tags": {
    "landuse": "cemetery",
    "religion": "christian"
  }
},
{
  "type": "way",
  "id": 199316855,
  "center": {
    "lat": 48.3268602,
    "lon": 14.0998761
  },
  "nodes": [
    2093266919,
    2093266911,
    2093266903,
    2093266902,
    2093266900,
    2093266899,
    2093266898,
    2093266897,
    2093266905,
    2093266904,
    2093266908,
    2093266912,
    2093266918,
    2093266917,
    2093266913,
    2093266914,
    2093266907,
    2093266906,
    2093266910,
    2093266909,
    2093266916,
    2093266915,
    2093266920,
    2093266938,
    2093266937,
    2093266931,
    2093266924,
    2093266919
  ],
  "tags": {
    "landuse": "cemetery"
  }
},
{
  "type": "way",
  "id": 199377420,
  "center": {
    "lat": 48.5737991,
    "lon": 14.8833655
  },
  "nodes": [
    2093800238,
    9253281901,
    3461717947,
    9252888556,
    2093875437,
    9253309017,
    2093875436,
    2093875435,
    2093800268,
    2093800271,
    2093800274,
    2093800277,
    2093800280,
    2093800283,
    3464989789,
    2093800285,
    2093800288,
    2093800238
  ],
  "tags": {
    "landuse": "cemetery",
    "source": "geoimage.at hires"
  }
},
{
  "type": "way",
  "id": 203858259,
  "center": {
    "lat": 48.2447915,
    "lon": 14.6749398
  },
  "nodes": [
    2138692513,
    2138692512,
    2138692510,
    2138692509,
    4240064821,
    2138692511,
    4240064820,
    4240064819,
    4240064818,
    2138692513
  ],
  "tags": {
    "denomination": "catholic",
    "landuse": "cemetery",
    "religion": "christian"
  }
},
{
  "type": "way",
  "id": 204140166,
  "center": {
    "lat": 48.3959690,
    "lon": 14.7309274
  },
  "nodes": [
    2141553155,
    6209998370,
    2141552637,
    6209998294,
    6210021058,
    2141552648,
    2141552627,
    2141552854,
    2141553048,
    2141553068,
    6209998410,
    6209998419,
    6209998409,
    2141553155
  ],
  "tags": {
    "amenity": "grave_yard",
    "wikidata": "Q128797052"
  }
},
{
  "type": "way",
  "id": 204142768,
  "center": {
    "lat": 48.2243380,
    "lon": 14.7768888
  },