{
  "version": 0.6,
  "generator": "Overpass API 0.7.62.8 e802775f",
  "osm3s": {
    "timestamp_osm_base": "2025-11-02T22:52:14Z",
    "copyright": "The data included in this document is from www.openstreetmap.org. The data is made available under ODbL."
  },
  "elements": [

{
  "type": "way",
  "id": 5110633,
  "center": {
    "lat": 47.6394000,
    "lon": 7.7525481
  },
  "nodes": [
    35104497,
    35104499,
    35104494,
    35104496,
    35104497
  ],
  "tags": {
    "landuse": "cemetery"
  }
},
{
  "type": "way",
  "id": 5117973,
  "center": {
    "lat": 47.6540907,
    "lon": 7.5927644
  },
  "nodes": [
    35266859,
    35266860,
    35266856,
    35266858,
    35266859
  ],
  "tags": {
    "landuse": "cemetery"
  }
},
{
  "type": "way",
  "id": 5191977,
  "center": {
    "lat": 47.6805733,
    "lon": 7.6027294
  },
  "nodes": [
    36234844,
    467735812,
    36234845,
    36234842,
    36234844
  ],
  "tags": {
    "landuse": "cemetery"
  }
},
{
  "type": "way",
  "id": 8922985,
  "center": {
    "lat": 47.5657935,
    "lon": 7.6422081
  },
  "nodes": [
    65376399,
    6658499289,
    6658499286,
    3227842606,
    6658993831,
    6658499252,
    6658499285,
    6658499282,
    6658499283,
    6658499284,
    65376406,
    6658499281,
    6658499280,
    290725265,
    65376409,
    6658499112,
    65376413,
    65376415,
    1265897571,
    1265897566,
    1265897569,
    65376418,
    1265897568,
    1265897577,
    1265897572,
    1265897579,
    6658499111,
    65376420,
    6658499110,
    65376428,
    6658499109,
    65376435,
    6658499108,
    6658650995,
    65376442,
    6658650918,
    65376445,
    6658650898,
    65376452,
    6658650896,
    65376456,
    1066400152,
    6658650897,
    65376459,
    6658650893,
    1066400140,
    1066400236,
    65376461,
    1265897488,
    6658650856,
    6658650855,
    65376464,
    1066400139,
    1066400084,
    6658650919,
    1265897485,
    65376466,
    1066400177,
    1066400009,
    1066400081,
    6658650737,
    1066400439,
    6658650736,
    1066400169,
    1066400202,
    65376468,
    65376471,
    8087639188,
    1265898152,
    1265898146,
    6658499164,
    5092422848,
    6658499168,
    65376479,
    6658499169,
    1265898149,
    1265898137,
    65376486,
    6658499179,
    65376500,
    6658499185,
    65376503,
    6658499290,
    6658993891,
    6658499288,
    65376399
  ],
  "tags": {
    "addr:city": "Riehen",
    "addr:housenumber": "70",
    "addr:postcode": "4125",
    "addr:street": "Hörnliallee",
    "contact:phone": "+41 61 6052100",
    "contact:website": "https://www.riehen.ch/leben-und-wohnen/friedhoefe/friedhof-am-hoernli",
    "landuse": "cemetery",
    "name": "Friedhof am Hörnli",
    "opening_hours": "Mar Su[-1]-Oct Su[-1] -1 day: 07:00-19:30; Oct Su[-1]-Mar Su[-1] -1 day: 08:00-17:30",
    "url": "https://www.stadtgaertnerei.bs.ch/friedhoefe/friedhofanlagen/friedhof-am-hoernli.html",
    "wikidata": "Q1457464"
  }
},
{
  "type": "way",
  "id": 9328945,
  "center": {
    "lat": 47.6765697,
    "lon": 7.5676589
  },
  "nodes": [
    70415198,
    70415206,
    70415214,
    2069360025,
    70415219,
    70415198
  ],
  "tags": {
    "landuse": "cemetery",
    "name": "Friedhof Wintersweiler",
    "operator": "Gemeinde Efringen-Kirchen",
    "religion": "christian"
  }
},
{
  "type": "way",
  "id": 20552778,
  "center": {
    "lat": 47.9327057,
    "lon": 7.8113117
  },
  "nodes": [
    220492173,
    220628984,
    220492178,
    220492185,
    220492193,
    220492203,
    1031729651,
    1031730563,
    220492211,
    7479912147,
    220492173
  ],
  "tags": {
    "landuse": "cemetery",
    "name:signed": "no"
  }
},
{
  "type": "way",
  "id": 22393122,
  "center": {
    "lat": 47.2039527,
    "lon": 7.7526557
  },
  "nodes": [
    240781619,
    2271355345,
    2271355348,
    240781623,
    240781624,
    2271355344,
    240781625,
    240781619
  ],
  "tags": {
    "landuse": "cemetery",
    "name": "Friedhof Thunstetten"
  }
},
{
  "type": "way",
  "id": 22529993,
  "center": {
    "lat": 47.6312983,
    "lon": 7.6569607
  },
  "nodes": [
    241748863,
    241748868,
    1039961708,
    1039961781,
    1039961705,
    241748874,
    241748880,
    1039961765,
    1039961723,
    1039961726,
    241748863
  ],
  "tags": {
    "landuse": "cemetery",
    "name": "Friedhof Tumringen"
  }
},
{
  "type": "way",
  "id": 22530017,
  "center": {
    "lat": 47.6355149,
    "lon": 7.6704248
  },
  "nodes": [
    241749616,
    1082358891,
    1081972837,
    1081972859,
    241749619,
    241749622,
    1082359156,
    241749625,
    1081972812,
    1081972799,
    241749616
  ],
  "tags": {
    "landuse": "cemetery",
    "name": "Friedhof Haagen"
  }
},
{
  "type": "way",
  "id": 22921033,
  "center": {
    "lat": 47.2124126,
    "lon": 7.7936132
  },
  "nodes": [
    246808097,
    4987171163,
    4987171178,
    246808098,
    246808099,
    246808100,
    246808101,
    246808102,
    246808103,
    2306718582,
    2306718583,
    4987167612,
    4987167614,
    4987177688,
    4987177686,
    7613355979,
    2306718585,
    246808097
  ],
  "tags": {
    "landuse": "cemetery",
    "name": "Friedhof Langenthal"
  }
},
{
  "type": "way",
  "id": 23075842,
  "center": {
    "lat": 47.5410070,
    "lon": 7.5791046
  },
  "nodes": [
    7565072292,
    249792118,
    4315088537,
    249078341,
    249078342,
    249078343,
    249792050,
    249078344,
    4314724518,
    249078345,
    249078346,
    249078347,
    7565072292
  ],
  "tags": {
    "landuse": "cemetery",
    "name": "Friedhof St. Margarethen (Nord)"
  }
},
{
  "type": "way",
  "id": 23075852,
  "center": {
    "lat": 47.5389507,
    "lon": 7.5789084
  },
  "nodes": [
    249078404,
    288733429,
    288733432,
    2653845639,
    249078408,
    7565328941,
    249078407,
    249078406,
    7565422802,
    249078405,
    7565422803,
    249078404
  ],
  "tags": {
    "landuse": "cemetery",
    "name": "Friedhof St. Margarethen (Süd)"
  }
},
{
  "type": "way",
  "id": 23202478,
  "center": {
    "lat": 47.7097372,
    "lon": 7.5375591
  },
  "nodes": [
    250956375,
    2938439587,
    250956379,
    250956380,
    2938439552,
    2938439545,
    2938439544,
    2938439547,
    250956381,
    250956375
  ],
  "tags": {
    "landuse": "cemetery",
    "name": "Friedhof Rheinweiler"
  }
},
{
  "type": "way",
  "id": 23331393,
  "center": {
    "lat": 47.5927241,
    "lon": 7.8096399
  },
  "nodes": [
    252637902,
    7923967050,
    252637903,
    252637904,
    11090356563,
    832818501,
    5869765974,
    252637905,
    7923967051,
    5869765957,
    5869765956,
    252637902
  ],
  "tags": {
    "landuse": "cemetery",
    "name": "Waldfriedhof Karsau"
  }
},
{
  "type": "way",
  "id": 23474544,
  "center": {
    "lat": 47.6182326,
    "lon": 7.6733531
  },
  "nodes": [
    254209752,
    254209754,
    1028705310,
    1028705315,
    1028705305,
    1028705344,
    1070227104,
    254209755,
    1028705271,
    254209756,
    1028705232,
    1028705303,
    1028705240,
    1028705353,
    254209757,
    281094122,
    1028705379,
    1028705281,
    1028705309,
    10112941096,
    1028705342,
    1028705265,
    254209758,
    1028705255,
    1035948731,
    1064185252,
    1028705224,
    1036055425,
    1028705401,
    1028705427,
    254209759,
    11239805340,
    254209760,
    1028705383,
    254209752
  ],
  "tags": {
    "landuse": "cemetery",
    "name": "Hauptfriedhof"
  }
},
{
  "type": "way",
  "id": 23764220,
  "center": {
    "lat": 47.6697870,
    "lon": 7.5458980
  },
  "nodes": [
    257487078,
    1650733185,
    257487077,
    341329210,
    2077473133,
    257487081,
    114479026,
    114479022,
    257487082,
    2077473143,
    2077473144,
    257487078
  ],
  "tags": {
    "landuse": "cemetery"
  }
},
{
  "type": "way",
  "id": 23764305,
  "center": {
    "lat": 47.6931114,
    "lon": 7.5475391
  },
  "nodes": [
    257488271,
    257488276,
    2082542387,
    257488277,
    257488278,
    2082542385,
    257488271
  ],
  "tags": {
    "amenity": "grave_yard",
    "barrier": "wall",
    "religion": "christian"
  }
},
{
  "type": "way",
  "id": 23886700,
  "center": {
    "lat": 47.1943085,
    "lon": 7.7102275
  },
  "nodes": [
    258904599,
    2281044748,
    258904600,
    2280384761,
    2280384819,
    2280384826,
    258904602,
    258904604,
    258904592,
    4624186650,
    258904597,
    258904599
  ],
  "tags": {
    "denomination": "protestant",
    "landuse": "cemetery",
    "name": "Friedhof Herzogenbuchsee",
    "religion": "christian"
  }
},
{
  "type": "way",
  "id": 23985408,
  "center": {
    "lat": 47.5206274,
    "lon": 7.5809188
  },
  "nodes": [
    260048305,
    260050859,
    2051395321,
    2051395309,
    2051395311,
    260048307,
    260048306,
    260048305
  ],
  "tags": {
    "landuse": "cemetery",
    "name": "Friedhof Schönenberg"
  }
},
{
  "type": "way",
  "id": 24325731,
  "center": {
    "lat": 47.6338032,
    "lon": 7.5962091
  },
  "nodes": [
    263798060,
    1329017898,
    263798065,
    1329017902,
    1329017909,
    263798069,
    263798072,
    263798060
  ],
  "tags": {
    "landuse": "cemetery"
  }
},
{
  "type": "way",
  "id": 24667103,
  "center": {
    "lat": 47.2132429,
    "lon": 7.9925016
  },
  "nodes": [
    268112687,
    268112688,
    268112689,
    268112690,
    268112691,
    268112692,
    268112687
  ],
  "tags": {
    "landuse": "cemetery"
  }
},
{
  "type": "way",
  "id": 24965022,
  "center": {
    "lat": 47.6399144,
    "lon": 7.8137676
  },
  "nodes": [
    271284908,
    7237073626,
    7237073625,
    7237073634,
    7237073624,
    271284909,
    2355208497,
    271284910,
    271284911,
    2355208466,
    271284908
  ],
  "tags": {
    "landuse": "cemetery",
    "name": "Friedhof Wiechs"
  }
},
{
  "type": "way",
  "id": 25015987,
  "center": {
    "lat": 47.5721965,
    "lon": 7.9931315
  },
  "nodes": [
    271948155,
    271948156,
    3930939234,
    271948157,
    10123305170,
    3930939233,
    271948158,
    10197053673,
    271948159,
    10123305169,
    3930939232,
    3930939231,
    271948160,
    3930939230,
    3930939226,
    3930939229,
    10197057033,
    3930939227,
    271948162,
    3930939225,
    271948155
  ],
  "tags": {
    "landuse": "cemetery"
  }
},
{
  "type": "way",
  "id": 25026873,
  "center": {
    "lat": 47.1819810,
    "lon": 7.6608975
  },
  "nodes": [
    272213289,
    12902115148,
    12902115147,
    272213292,
    272477078,
    272477072,
    274882884,
    406396714,
    272213293,
    12902115149,
    12902115150,
    272213294,
    1731261726,
    272213289
  ],
  "tags": {
    "landuse": "cemetery",
    "religion": "christian"
  }
},
{
  "type": "way",
  "id": 25044461,
  "center": {
    "lat": 47.6309567,
    "lon": 7.6876060
  },
  "nodes": [
    272456396,
    1039991022,
    272456398,
    272456407,
    1039991016,
    1039991133,
    272456420,
    1039991078,
    1039991020,
    1039991131,
    1039991143,
    1039991241,
    1039990988,
    272456396
  ],
  "tags": {
    "landuse": "cemetery",
    "name": "Friedhof Brombach"
  }
},
{
  "type": "way",
  "id": 25157421,
  "center": {
    "lat": 47.9245062,
    "lon": 7.7364358
  },
  "nodes": [
    274246942,
    274246943,
    10231827792,
    10231827790,
    10231827791,
    10231827789,
    274246944,
    2157553208,
    296431531,
    274246945,
    274246942
  ],
  "tags": {
    "denomination": "catholic",
    "description": "Friedhof",
    "fixme": "NOTE: grobe schätzung",
    "landuse": "cemetery",
    "religion": "christian"
  }
},
{
  "type": "way",
  "id": 25834689,
  "center": {
    "lat": 47.0833423,
    "lon": 7.5876581
  },
  "nodes": [
    281791144,
    654532246,
    281791145,
    281791146,
    281791148,
    655009122,
    655009120,
    655009118,
    655009116,
    2833732096,
    281791149,
    281791150,
    2833732237,
    281791151,
    281791152,
    281791153,
    281791144
  ],
  "tags": {
    "landuse": "cemetery",
    "name": "Friedhof Kirchberg"
  }
},
{
  "type": "way",
  "id": 26009192,
  "center": {
    "lat": 47.6035655,
    "lon": 7.6649913
  },
  "nodes": [
    283812541,
    1039921194,
    1039921198,
    1039921297,
    1039921176,
    283812544,
    283812550,
    1039921318,
    1039921220,
    1039921165,
    1039921234,
    1039921291,
    1039921209,
    283812555,
    283812541
  ],
  "tags": {
    "denomination": "catholic",
    "landuse": "cemetery",
    "name": "Friedhof Stetten",
    "religion": "christian"
  }
},
{
  "type": "way",
  "id": 26175688,
  "center": {
    "lat": 47.5469284,
    "lon": 7.9131031
  },
  "nodes": [
    286643009,
    286643025,
    286643011,
    286643026,
    1964893499,
    1964893503,
    1964893534,
    1964893530,
    286643009
  ],
  "tags": {
    "landuse": "cemetery"
  }
},
{
  "type": "way",
  "id": 26290128,
  "center": {
    "lat": 48.0009681,
    "lon": 7.8576188
  },
  "nodes": [
    287982786,
    1396434196,
    2954590126,
    287982128,
    287984185,
    601508856,
    287983012,
    601508833,
    287982130,
    601508809,
    5753998449,
    7259152664,
    287984186,
    287983014,
    287982788,
    601508862,
    393182872,
    2296009749,
    287982132,
    7259211352,
    7259211353,
    601508870,
    287982786
  ],
  "tags": {
    "barrier": "wall",
    "date": "Oct 28, 1955",
    "denotation": "natural_monument",
    "landuse": "cemetery",
    "name": "Alter Friedhof",
    "opening_hours": "Apr-Oct: Mo-Su,PH 07:00-20:00; Nov-Mar: Mo-Su,PH 08:00-18:30",
    "url": "http://rips-dienste.lubw.baden-wuerttemberg.de/rips/ripsservices/apps/naturschutz/schutzgebiete/steckbrief.aspx?id=3119002000001",
    "wikidata": "Q437887",
    "wikipedia": "de:Alter Friedhof (Freiburg im Breisgau)"
  }
},
{
  "type": "way",
  "id": 26340794,
  "center": {
    "lat": 47.4892698,
    "lon": 7.5857213
  },
  "nodes": [
    288586117,
    3762718839,
    3762720311,
    288586119,
    288586141,
    288586117
  ],
  "tags": {
    "landuse": "cemetery",
    "name": "Friedhof Fiechten"
  }
},
{
  "type": "way",
  "id": 26638435,
  "center": {
    "lat": 47.9237014,
    "lon": 7.7864907
  },
  "nodes": [
    292183388,
    292183390,
    1439712974,
    1439712976,
    1438810042,
    1438810043,
    292183387,
    7794467461,
    1439712975,
    7794467460,
    1439712972,
    7794467459,
    1439712971,
    7794467458,
    1439712970,
    292183385,
    292183388
  ],
  "tags": {
    "landuse": "cemetery",
    "name": "Friedhof Bollschweil",
    "religion": "christian"
  }
},
{
  "type": "way",
  "id": 27373168,
  "center": {
    "lat": 47.8108817,
    "lon": 7.6210365
  },
  "nodes": [
    300499073,
    300499074,
    300499075,
    300499076,
    300499077,
    300499078,
    300499079,
    300499080,
    300499073
  ],
  "tags": {
    "amenity": "grave_yard",
    "landuse": "cemetery",
    "name:signed": "no"
  }
},
{
  "type": "way",
  "id": 27522984,
  "center": {
    "lat": 47.9620515,
    "lon": 7.7645609
  },
  "nodes": [
    302141200,
    395613585,
    3733710748,
    302141201,
    3733710733,
    302141202,
    1363841656,
    302141203,
    1363841652,
    302141522,
    302317446,
    1363841644,
    302141524,
    2873887046,
    1363841645,
    1363841651,
    2873887049,
    1363841653,
    302317410,
    302141204,
    302141205,
    302141200
  ],
  "tags": {
    "landuse": "cemetery",
    "name": "Friedhof Wolfenweiler",
    "wikidata": "Q122361534"
  }
},
{
  "type": "way",
  "id": 27646926,
  "center": {
    "lat": 47.8281906,
    "lon": 7.5131518
  },
  "nodes": [
    303637747,
    303637748,
    1653172599,
    1653172601,
    303637749,
    303637750,
    303637747
  ],
  "tags": {
    "denomination": "catholic",
    "landuse": "cemetery",
    "name": "Cimetière",
    "religion": "christian",
    "wikidata": "Q110341753"
  }
},
{
  "type": "way",
  "id": 27734742,
  "center": {
    "lat": 47.9109849,
    "lon": 7.7490725
  },
  "nodes": [
    304564460,
    311163463,
    304564462,
    1284979674,
    1284979881,
    977852479,
    304564463,
    304564460
  ],
  "tags": {
    "landuse": "cemetery",
    "religion": "christian"
  }
},
{
  "type": "way",
  "id": 28010702,
  "center": {
    "lat": 47.5107306,
    "lon": 7.5390505
  },
  "nodes": [
    249746841,
    307563138,
    7699658863,
    7699658864,
    307563135,
    307563132,
    307563129,
    249746843,
    7517214283,
    249746842,
    7517222291,
    7517222289,
    7517222290,
    249746841
  ],
  "tags": {
    "landuse": "cemetery",
    "name": "Friedhof Rüti"
  }
},
{
  "type": "way",
  "id": 28035220,
  "center": {
    "lat": 47.4362848,
    "lon": 7.8130548
  },
  "nodes": [
    307836044,
    307837629,
    3413249644,
    307837631,
    307837633,
    3413249633,
    3413248537,
    307837635,
    307837636,
    307837638,
    307837640,
    307837641,
    307837643,
    307837645,
    3413249673,
    307836044
  ],
  "tags": {
    "denomination": "protestant",
    "landuse": "cemetery",
    "religion": "christian"
  }
},
{
  "type": "way",
  "id": 28036706,
  "center": {
    "lat": 47.8812073,
    "lon": 7.7276529
  },
  "nodes": [
    307852525,
    1432279924,
    1432279922,
    1432279920,
    1432279916,
    307852527,
    2330982233,
    2330666135,
    1432279901,
    1432279900,
    1432279899,
    2330982241,
    1433535481,
    1433535482,
    1433535485,
    6960489157,
    307852528,
    1433535486,
    2330982256,
    1433535491,
    307852525
  ],
  "tags": {
    "landuse": "cemetery",
    "religion": "christian"
  }
},
{
  "type": "way",
  "id": 28114406,
  "center": {
    "lat": 47.9701110,
    "lon": 7.7237074
  },
  "nodes": [
    308817946,
    1201981158,
    308817947,
    308817948,
    308817950,
    5218875882,
    308817951,
    308817952,
    2336908072,
    308817953,
    5215202781,
    706493912,
    706492855,
    308817955,
    10221025186,
    1201980814,
    1201980458,
    5022683385,
    1201980773,
    1201980543,
    308817946
  ],
  "tags": {
    "landuse": "cemetery",
    "name": "Friedhof Mengen",
    "religion": "christian"
  }
},
{
  "type": "way",
  "id": 28159071,
  "center": {
    "lat": 47.5560840,
    "lon": 7.6590478
  },
  "nodes": [
    309291986,
    309291971,
    1257261922,
    1257261804,
    309291972,
    1257261797,
    1257261920,
    1257261914,
    1257261908,
    1257261905,
    1257261894,
    309291973,
    1257261880,
    1257261885,
    1257261889,
    1257261892,
    1257261878,
    309508342,
    309291974,
    309291985,
    309291986
  ],
  "tags": {
    "landuse": "cemetery",
    "name": "Friedhof Grenzach"
  }
},
{
  "type": "way",
  "id": 28190615,
  "center": {
    "lat": 47.5499030,
    "lon": 7.6812486
  },
  "nodes": [
    309645337,
    2621560571,
    309645339,
    309645342,
    2343155401,
    2343155402,
    2343155403,
    2343155404,
    2343176410,
    2343176409,
    2343176408,
    2621560393,
    309645337
  ],
  "tags": {
    "landuse": "cemetery",
    "name": "Friedhof Wyhlen"
  }
},
{
  "type": "way",
  "id": 28482498,
  "center": {
    "lat": 47.5715465,
    "lon": 7.7656062
  },
  "nodes": [
    312901662,
    312901665,
    312901667,
    312901670,
    312901662
  ],
  "tags": {
    "landuse": "cemetery",
    "name": "Friedhof Nollingen"
  }
},
{
  "type": "way",
  "id": 28491824,
  "center": {
    "lat": 47.6932244,
    "lon": 7.6223984
  },
  "nodes": [
    313014993,
    313014996,
    313014995,
    70414237,
    313014993
  ],
  "tags": {
    "landuse": "cemetery"
  }
},
{
  "type": "way",
  "id": 28557278,
  "center": {
    "lat": 47.2350398,
    "lon": 7.5961481
  },
  "nodes": [
    313716722,
    313716723,
    313716725,
    313716726,
    313716722
  ],
  "tags": {
    "landuse": "cemetery",
    "source": "Orthofoto WMS Solothurn"
  }
},
{
  "type": "way",
  "id": 28562681,
  "center": {
    "lat": 47.2014135,
    "lon": 7.4304562
  },
  "nodes": [
    313770515,
    660162538,
    313770516,
    660162534,
    629996747,
    660162575,
    660162574,
    660162577,
    660162581,
    660162557,
    313770674,
    660162476,
    313770515
  ],
  "tags": {
    "landuse": "cemetery",
    "source": "Orthofoto WMS SO!GIS"
  }
},
{
  "type": "way",
  "id": 28769428,
  "center": {
    "lat": 47.9556494,
    "lon": 7.8312092
  },
  "nodes": [
    316310022,
    316310023,
    12645231207,
    316310024,
    316310027,
    1422154392,
    316310022
  ],
  "tags": {
    "amenity": "grave_yard",
    "denomination": "catholic",
    "religion": "christian"
  }
},
{
  "type": "way",
  "id": 28832230,
  "center": {
    "lat": 47.7754436,
    "lon": 7.3576593
  },
  "nodes": [
    316980178,
    2012101796,
    316980179,
    316980180,
    316980181,
    443399833,
    443399832,
    316980183,
    443399829,
    443399828,
    443399826,
    443399821,
    443399820,
    443413132,
    316980178
  ],
  "tags": {
    "landuse": "cemetery",
    "wikidata": "Q110341877"
  }
},
{
  "type": "way",
  "id": 28837057,
  "center": {
    "lat": 47.5391629,
    "lon": 7.5062323
  },
  "nodes": [
    317029839,
    317029841,
    316999619,
    317029843,
    317029846,
    317029839
  ],
  "tags": {
    "landuse": "cemetery",
    "name": "Friedhof Schönenbuch"
  }
},
{
  "type": "way",
  "id": 28902276,
  "center": {
    "lat": 47.7378712,
    "lon": 7.2697935
  },
  "nodes": [
    317687794,
    928585179,
    928585234,
    928585158,
    6168615027,
    928585216,
    317687799,
    317687800,
    355740620,
    317687801,
    8257528293,
    929832033,
    929832014,
    4520644727,
    929832019,
    317687802,
    8267523816,
    8267577317,
    317687795,
    355740612,
    928378574,
    928368945,
    928352562,
    928367467,
    928349486,
    928384347,
    928352164,
    928362474,
    928360393,
    928347212,
    928370357,
    928372699,
    928360459,
    928360205,
    928370719,
    928390195,
    928354834,
    928364381,
    928380344,
    928358670,
    928361084,
    928363155,
    928389329,
    928349844,
    928366468,
    8267577335,
    928388806,
    928347371,
    928371714,
    928357190,
    928380007,
    928371855,
    928391062,
    928379971,
    928358751,
    928346594,
    928378940,
    928366820,
    928363245,
    928355920,
    928369876,
    928347376,
    928352696,
    928349216,
    928347655,
    928354437,
    317687794
  ],
  "tags": {
    "landuse": "cemetery",
    "wikidata": "Q110341943"
  }
},
{
  "type": "way",
  "id": 28913319,
  "center": {
    "lat": 47.9668145,
    "lon": 7.8251551
  },
  "nodes": [
    618158366,
    1052780055,
    1052779731,
    1052779769,
    1052780234,
    3113539229,
    618158401,
    428021620,
    4743671100,
    1057029576,
    317811268,
    317811269,
    618158366
  ],
  "tags": {
    "landuse": "cemetery",
    "opening_hours": "07:00-dusk",
    "opening_hours:url": "https://www.merzhausen.de/fileadmin/Gemeinde_Merzhausen/Dateien/OEffentliche_Bekanntmachungen/Friedhofssatzung_und_Gebuehrenverzeichnis_mit_neuen_Hinweisen_gesiegelt.pdf",
    "religion": "christian"
  }
},
{
  "type": "way",
  "id": 29024137,
  "center": {
    "lat": 47.5984694,
    "lon": 7.6278454
  },
  "nodes": [
    319191650,
    319191651,
    319191652,
    319191653,
    319191654,
    9197147333,
    319191655,
    9424513216,
    319191656,
    319191657,
    319191658,
    1165110388,
    9197147335,
    9197147334,
    9197148151,
    9197148152,
    319191650
  ],
  "tags": {
    "landuse": "cemetery",
    "name": "Friedhof Weil am Rhein"
  }
},
{
  "type": "way",
  "id": 29381898,
  "center": {
    "lat": 47.8690828,
    "lon": 7.7197135
  },
  "nodes": [
    323182520,
    323182524,
    323182527,
    1432229320,
    323182530,
    323182520
  ],
  "tags": {
    "landuse": "cemetery",
    "religion": "christian"
  }
},
{
  "type": "way",
  "id": 30160593,
  "center": {
    "lat": 47.6449459,
    "lon": 7.6939809
  },
  "nodes": [
    332358598,
    332358599,
    332358600,
    332358601,
    332358602,
    332358603,
    2137533299,
    332358604,
    332358605,
    2137533291,
    2137533289,
    2137533292,
    2137533293,
    2137533297,
    332358598
  ],
  "tags": {
    "amenity": "grave_yard",
    "area": "yes"
  }
},
{
  "type": "way",
  "id": 30193101,
  "center": {
    "lat": 47.6725907,
    "lon": 7.6522944
  },
  "nodes": [
    332674598,
    332674599,
    332674602,
    332674604,
    332674598
  ],
  "tags": {
    "landuse": "cemetery"
  }
},
{
  "type": "way",
  "id": 30193103,
  "center": {
    "lat": 47.6724904,
    "lon": 7.6515107
  },
  "nodes": [
    332674609,
    332674610,
    332674615,
    332674608,
    332674609
  ],
  "tags": {
    "landuse": "cemetery"
  }
},
{
  "type": "way",
  "id": 30245239,
  "center": {
    "lat": 47.9815292,
    "lon": 7.8993972
  },
  "nodes": [
    333193959,
    13092565501,
    13092534000,
    365592156,
    3892313865,
    365592147,
    3892313867,
    365592148,
    333193961,
    3892313869,
    3892313877,
    333193963,
    365592153,
    13092565504,
    13092565503,
    697302484,
    442253704,
    333193959
  ],
  "tags": {
    "landuse": "cemetery",
    "name": "Friedhof Alt-Littenweiler",
    "website": "https://www.freiburg.de/pb/,Lde/238660.html"
  }
},
{
  "type": "way",
  "id": 30637017,
  "center": {
    "lat": 47.5109132,
    "lon": 7.0044392
  },
  "nodes": [
    338838320,
    338838322,
    338838324,
    338838328,
    338838323,
    338838327,
    338838325,
    11361461400,
    338838320
  ],
  "tags": {
    "denomination": "catholic",
    "landuse": "cemetery",
    "religion": "christian",
    "source": "cadastre-dgi-fr source : Direction Générale des Impôts - Cadastre. Mise à jour : 2009",
    "wikidata": "Q110362523"
  }
},
{
  "type": "way",
  "id": 30676121,
  "center": {
    "lat": 47.6573912,
    "lon": 7.6220244
  },
  "nodes": [
    339240334,
    11272578014,
    339240335,
    11272578018,
    339240336,
    339240337,
    11272578015,
    339240334
  ],
  "tags": {
    "amenity": "grave_yard",
    "source": "Bing"
  }
},
{
  "type": "way",
  "id": 30805157,
  "center": {
    "lat": 47.6866616,
    "lon": 7.5250361
  },
  "nodes": [
    341307494,
    341307514,
    4053588146,
    4053588144,
    341307553,
    2082939209,
    2082939211,
    341307573,
    341307494
  ],
  "tags": {
    "landuse": "cemetery",
    "name": "Friedhof Kleinkems"
  }
},
{
  "type": "way",
  "id": 31671979,
  "center": {
    "lat": 47.9458937,
    "lon": 7.7340726
  },
  "nodes": [
    354568297,
    354568300,
    7504255150,
    2422115156,
    7504255149,
    2422115153,
    354568304,
    2422115147,
    2422115114,
    2422115099,
    2422115086,
    2422115077,
    2422115065,
    354568308,
    3780596732,
    354568297
  ],
  "tags": {
    "landuse": "cemetery",
    "religion": "christian"
  }
},
{
  "type": "way",
  "id": 31725568,
  "center": {
    "lat": 47.8708332,
    "lon": 7.6926460
  },
  "nodes": [
    6029365826,
    6029365825,
    354959852,
    354954905,
    354954917,
    354954906,
    6029365826
  ],
  "tags": {
    "designation": "Friedhof",
    "landuse": "cemetery",
    "religion": "christian",
    "wheelchair": "yes"
  }
},
{
  "type": "way",
  "id": 32442661,
  "center": {
    "lat": 47.5309197,
    "lon": 7.8110565
  },
  "nodes": [
    364762909,
    364762915,
    2594422119,
    364762923,
    364762928,
    364762937,
    364762946,
    364762951,
    364762958,
    364762964,
    364762909
  ],
  "tags": {
    "amenity": "grave_yard",
    "denomination": "old_catholic",
    "denomination:de": "christkatholisch",
    "religion": "christian"
  }
},
{
  "type": "way",
  "id": 32442690,
  "center": {
    "lat": 47.5307022,
    "lon": 7.8118274
  },
  "nodes": [
    364763705,
    364763734,
    364763738,
    364763771,
    364763776,
    364763779,
    364763784,
    364763705
  ],
  "tags": {
    "amenity": "grave_yard",
    "denomination": "old_catholic",
    "denomination:de": "christkatholisch",
    "religion": "christian"
  }
},
{
  "type": "way",
  "id": 32479637,
  "center": {
    "lat": 47.4446985,
    "lon": 7.6000406
  },
  "nodes": [
    365178667,
    365178670,
    365178673,
    365178676,
    365178667
  ],
  "tags": {
    "created_by": "Potlatch 0.10f",
    "landuse": "cemetery"
  }
},
{
  "type": "way",
  "id": 32702920,
  "center": {
    "lat": 47.9323052,
    "lon": 7.6832600
  },
  "nodes": [
    2418176783,
    367984480,
    2418176800,
    5203049844,
    2418176781,
    2418176783
  ],
  "tags": {
    "landuse": "cemetery"
  }
},
{
  "type": "way",
  "id": 32910453,
  "center": {
    "lat": 47.5989206,
    "lon": 7.6418766
  },
  "nodes": [
    370631938,
    1088916109,
    370631939,
    370631940,
    370631941,
    370631938
  ],
  "tags": {
    "amenity": "grave_yard",
    "denomination": "protestant",
    "name": "Tüllinger Friedhof",
    "religion": "christian"
  }
},
{
  "type": "way",
  "id": 33057272,
  "center": {
    "lat": 47.0185349,
    "lon": 7.1467961
  },
  "nodes": [
    372832488,
    372832492,
    372832497,
    372832500,
    372832488
  ],
  "tags": {
    "landuse": "cemetery"
  }
},
{
  "type": "way",
  "id": 33189387,
  "center": {
    "lat": 47.6633349,
    "lon": 7.2600163
  },
  "nodes": [
    376054963,
    376054970,
    376054981,
    2155646376,
    1818923510,
    376054987,
    376054963
  ],
  "tags": {
    "landuse": "cemetery",
    "source": "Local knowledge",
    "wikidata": "Q110364542"
  }
},
{
  "type": "way",
  "id": 33347133,
  "center": {
    "lat": 47.0444688,
    "lon": 7.2706691
  },
  "nodes": [
    1077667685,
    5846329750,
    247927746,
    1077667747,
    379461680,
    1831125085,
    379461642,
    12151612319,
    12151612318,
    6230829967,
    379461673,
    12615262712,
    1077667685
  ],
  "tags": {
    "landuse": "cemetery",
    "name": "Friedhof Bielstrasse"
  }
},
{
  "type": "way",
  "id": 33682904,
  "center": {
    "lat": 47.4033977,
    "lon": 7.7821814
  },
  "nodes": [
    385109058,
    385109059,
    385109060,
    385109061,
    385109058
  ],
  "tags": {
    "amenity": "grave_yard"
  }
},
{
  "type": "way",
  "id": 33699505,
  "center": {
    "lat": 47.2069173,
    "lon": 7.4576092
  },
  "nodes": [
    385282196,
    385282197,
    385282198,
    11320381935,
    385282199,
    385282196
  ],
  "tags": {
    "landuse": "cemetery"
  }
},
{
  "type": "way",
  "id": 33923240,
  "center": {
    "lat": 47.7285046,
    "lon": 7.3317275
  },
  "nodes": [
    388880939,
    7140669458,
    1869579583,
    388880941,
    388880943,
    388880944,
    388880945,
    388880946,
    388880947,
    12848015467,
    12848015468,
    388880948,
    388880949,
    388880950,
    388880951,
    1869579582,
    388880939
  ],
  "tags": {
    "landuse": "cemetery",
    "name": "Cimetière Militaire des Vallons"
  }
},
{
  "type": "way",
  "id": 34592260,
  "center": {
    "lat": 47.5941096,
    "lon": 7.5539493
  },
  "nodes": [
    401572718,
    3478324190,
    401572719,
    401572720,
    401572721,
    401572723,
    401572724,
    401572726,
    401572727,
    401572730,
    401572718
  ],
  "tags": {
    "barrier": "wall",
    "landuse": "cemetery",
    "name": "Cimetière Centre",
    "wikidata": "Q110342030"
  }
},
{
  "type": "way",
  "id": 34852145,
  "center": {
    "lat": 47.7187438,
    "lon": 7.2974907
  },
  "nodes": [
    408450658,
    408450659,
    408450660,
    408450661,
    408450662,
    5334902139,
    408450663,
    408450664,
    408450665,
    408450658
  ],
  "tags": {
    "landuse": "cemetery",
    "wikidata": "Q110341800"
  }
},
{
  "type": "way",
  "id": 34857541,
  "center": {
    "lat": 47.7775404,
    "lon": 7.3371550
  },
  "nodes": [
    408501898,
    4829281423,
    6646354189,
    6646354190,
    2915732031,
    408501902,
    2915732033,
    408501903,
    6640202404,
    4829281219,
    589238816,
    6640202402,
    6640202401,
    6640202403,
    408501898
  ],
  "tags": {
    "landuse": "cemetery",
    "name": "Cimetière Nord",
    "source": "cadastre-dgi-fr source : Direction Générale des Impôts - Cadastre ; mise à jour : 2009",
    "wikidata": "Q110364547"
  }
},
{
  "type": "way",
  "id": 35017430,
  "center": {
    "lat": 47.5761762,
    "lon": 7.5158692
  },
  "nodes": [
    410738647,
    410738649,
    410738650,
    410738651,
    410738652,
    410738654,
    2890873977,
    2890873973,
    2890873989,
    2890873992,
    10803621098,
    410738655,
    410738647
  ],
  "tags": {
    "landuse": "cemetery",
    "source": "cadastre-dgi-fr source : Direction Générale des Impôts - Cadastre ; mise à jour : 2009",
    "wikidata": "Q110341856"
  }
},
{
  "type": "way",
  "id": 35038906,
  "center": {
    "lat": 47.8075326,
    "lon": 7.6771503
  },
  "nodes": [
    410952787,
    6193770497,
    6193770498,
    6193770499,
    6193770500,
    6193770501,
    6193770502,
    6193770503,
    6193770504,
    6193770505,
    6193770506,
    6193770507,
    6193770508,
    410952782,
    6221124365,
    412176964,
    410952783,
    410952784,
    410952785,
    410952787
  ],
  "tags": {
    "fenced": "yes",
    "landuse": "cemetery",
    "name": "Friedhof Oberweiler",
    "source": "interpolated"
  }
},
{
  "type": "way",
  "id": 35107309,
  "center": {
    "lat": 47.9045597,
    "lon": 7.6593227
  },
  "nodes": [
    411857791,
    929228447,
    411857792,
    411857793,
    929228430,
    4573613201,
    4573613415,
    411857791
  ],
  "tags": {
    "landuse": "cemetery"
  }
},
{
  "type": "way",
  "id": 35200820,
  "center": {
    "lat": 47.5980739,
    "lon": 7.5077846
  },
  "nodes": [
    412728983,
    6777757400,
    412728984,
    8865983375,
    8865983377,
    8865983378,
    6777757398,
    6777757397,
    8865983367,
    412728985,
    6777757396,
    6777757395,
    412728986,
    8865983369,
    8865983373,
    412728983
  ],
  "tags": {
    "landuse": "cemetery",
    "wikidata": "Q110341775"
  }
},
{
  "type": "way",
  "id": 35265097,
  "center": {
    "lat": 47.7887683,
    "lon": 7.6633535
  },
  "nodes": [
    413357353,
    413357355,
    762637687,
    762637674,
    413357356,
    413357357,
    762637832,
    1490802866,
    762637784,
    1493427024,
    413357353
  ],
  "tags": {
    "landuse": "cemetery"
  }
},
{
  "type": "way",
  "id": 35290878,
  "center": {
    "lat": 47.7742851,
    "lon": 7.3291536
  },
  "nodes": [
    413670522,
    413670523,
    2536759346,
    413670524,
    1613485642,
    1613485653,
    413670525,
    413670526,
    413670527,
    413670529,
    413670522
  ],
  "tags": {
    "landuse": "cemetery",
    "name": "Cimetière de Bourtzwiller",
    "opening_hours": "Mo-Su 08:00-17:00; Apr-Oct Mo-Su 07:00-18:00; PH 08:00-17:00",
    "source": "cadastre-dgi-fr source : Direction Générale des Impôts - Cadastre;mise à jour : 2009",
    "wikidata": "Q110341952"
  }
},
{
  "type": "way",
  "id": 35339692,
  "center": {
    "lat": 47.6323407,
    "lon": 7.4725274
  },
  "nodes": [
    414237227,
    5325086754,
    414237228,
    2124840996,
    5325086739,
    5323746489,
    2124840990,
    2124840994,
    5325086740,
    5325086741,
    2124840997,
    414237229,
    414237230,
    414237231,
    414237232,
    414237233,
    414237234,
    414237227
  ],
  "tags": {
    "landuse": "cemetery",
    "wikidata": "Q110341754"
  }
},
{
  "type": "way",
  "id": 35357997,
  "center": {
    "lat": 47.7911747,
    "lon": 7.6653885
  },
  "nodes": [
    762637837,
    1493427162,
    1493432399,
    762637607,
    414609219,
    414609220,
    762637886,
    762637618,
    762637888,
    414609221,
    762637837
  ],
  "tags": {
    "landuse": "cemetery",
    "name": "Ehrenfriedhof"
  }
},
{
  "type": "way",
  "id": 35425682,
  "center": {
    "lat": 47.6470703,
    "lon": 7.8146008
  },
  "nodes": [
    415557036,
    1174945074,
    8638529666,
    1174945077,
    415557037,
    8638529665,
    415557038,
    415557041,
    415557043,
    5573812288,
    5573812287,
    415557044,
    8638537332,
    415557036
  ],
  "tags": {
    "landuse": "cemetery"
  }
},
{
  "type": "way",
  "id": 35679097,
  "center": {
    "lat": 47.6827729,
    "lon": 7.5027801
  },
  "nodes": [
    417765799,
    417765800,
    417765801,
    417765802,
    417765799
  ],
  "tags": {
    "landuse": "cemetery",
    "wikidata": "Q110341886"
  }
},
{
  "type": "way",
  "id": 35815228,
  "center": {
    "lat": 47.6490555,
    "lon": 7.7368978
  },
  "nodes": [
    418741106,
    2137093736,
    3768710430,
    1057217453,
    4722255249,
    4722255248,
    418741110,
    5951348030,
    10803092981,
    418741112,
    418741114,
    418741117,
    418741106
  ],
  "tags": {
    "landuse": "cemetery"
  }
},
{
  "type": "way",
  "id": 35912299,
  "center": {
    "lat": 47.7665771,
    "lon": 7.3047468
  },
  "nodes": [
    419804125,
    419804126,
    419804127,
    419804128,
    419804129,
    419804130,
    419804131,
    419804132,
    419804133,
    419804134,
    419804135,
    419804136,
    1640163989,
    1640163982,
    1640163995,
    1640163993,
    1640164003,
    419804125
  ],
  "tags": {
    "landuse": "cemetery",
    "source": "cadastre-dgi-fr source : Direction Générale des Impôts - Cadastre ; mise à jour : 2009",
    "wikidata": "Q110341986"
  }
},
{
  "type": "way",
  "id": 35913731,
  "center": {
    "lat": 47.7630355,
    "lon": 7.3049256
  },
  "nodes": [
    419817265,
    1639318327,
    13192600065,
    13192600066,
    13192836135,
    13192836137,
    13192836139,
    13192836138,
    13192836136,
    13192600068,
    13192600067,
    419817261,
    419817262,
    1639318332,
    419817263,
    1639318330,
    13192836130,
    1639318328,
    419817265
  ],
  "tags": {
    "landuse": "cemetery",
    "source": "cadastre-dgi-fr source : Direction Générale des Impôts - Cadastre ; mise à jour : 2009",
    "wikidata": "Q110341985"
  }
},
{
  "type": "way",
  "id": 36453326,
  "center": {
    "lat": 47.9566758,
    "lon": 7.6714966
  },
  "nodes": [
    425045579,
    425045580,
    423385359,
    5236418294,
    5236418295,
    423385415,
    8267359738,
    8267359724,
    423385417,
    8267359734,
    8267359735,
    8267359736,
    8267359737,
    423328965,
    423385419,
    5236418302,
    425045579
  ],
  "tags": {
    "landuse": "cemetery",
    "name": "Friedhof Hausen",
    "religion": "christian"
  }
},
{
  "type": "way",
  "id": 37247581,
  "center": {
    "lat": 47.7626774,
    "lon": 7.2831463
  },
  "nodes": [
    433918404,
    433918573,
    433918580,
    433918388,
    433918584,
    433918390,
    433918392,
    433918393,
    433918395,
    433918397,
    433918399,
    433918404
  ],
  "tags": {
    "landuse": "cemetery",
    "source": "cadastre-dgi-fr source : Direction Générale des Impôts - Cadastre. Mise à jour : 2009"
  }
},
{
  "type": "way",
  "id": 37247606,
  "center": {
    "lat": 47.7624414,
    "lon": 7.2835598
  },
  "nodes": [
    433918573,
    433918577,
    433940045,
    433918584,
    433918388,
    433918580,
    433918573
  ],
  "tags": {
    "landuse": "cemetery",
    "name": "Place des Malgré-Nous",
    "source": "cadastre-dgi-fr source : Direction Générale des Impôts - Cadastre. Mise à jour : 2009",
    "wikidata": "Q110341921"
  }
},
{
  "type": "way",
  "id": 37516676,
  "center": {
    "lat": 47.8177906,
    "lon": 7.3281438
  },
  "nodes": [
    2681689310,
    439175569,
    1731417888,
    1731417893,
    439175561,
    439175562,
    439175563,
    589472834,
    2546939111,
    2546939110,
    439175617,
    2546939100,
    8278528884,
    439175567,
    439175568,
    2681689310
  ],
  "tags": {
    "landuse": "cemetery",
    "name": "Cimetière Municipal de Wittenheim"
  }
},
{
  "type": "way",
  "id": 37548007,
  "center": {
    "lat": 47.9819135,
    "lon": 7.8875314
  },
  "nodes": [
    1066499112,
    1066499347,
    1066499350,
    697948482,
    5197171887,
    697948485,
    1066499248,
    1066499232,
    13257409050,
    13257409051,
    441281904,
    439792672,
    1066499325,
    1066499360,
    441281289,
    667347555,
    697947704,
    434674840,
    13257238872,
    13257238873,
    13257238874,
    13257238875,
    12756868406,
    439792662,
    13257238869,
    13257238870,
    13257238871,
    441278989,
    698040413,
    441390373,
    441390364,
    441278994,
    697910906,
    441278990,
    13257230604,
    13257230605,
    13257230606,
    439792663,
    441893709,
    13257230622,
    13257230621,
    13257230620,
    13257230619,
    697910435,
    3782582557,
    13258931899,
    13258940601,
    13257212473,
    13258931896,
    13258940615,
    13258940617,
    13257212472,
    13257212474,
    13257409352,
    3782578367,
    3782577855,
    1383647560,
    439792656,
    13257409061,
    13257409058,
    13257409060,
    13257409059,
    439792658,
    439792659,
    13257409052,
    13257409053,
    441281515,
    1066499112
  ],
  "tags": {
    "landuse": "cemetery",
    "name": "Friedhof Bergäcker",
    "website": "https://www.freiburg.de/pb/,Lde/238660.html"
  }
},
{
  "type": "way",
  "id": 37561472,
  "center": {
    "lat": 47.6216256,
    "lon": 7.6288820
  },
  "nodes": [
    440108371,
    9506691590,
    1093346256,
    9506691593,
    1093346383,
    1093346230,
    1093346408,
    440108372,
    440108373,
    440108374,
    440108371
  ],
  "tags": {
    "landuse": "cemetery"
  }
},
{
  "type": "way",
  "id": 37594352,
  "center": {
    "lat": 47.7493306,
    "lon": 7.2259580
  },
  "nodes": [
    440702504,
    1933415770,
    2546939077,
    2546939076,
    2546939075,
    440702507,
    440702508,
    440702509,
    7404755064,
    7404755063,
    7404755062,
    440702510,
    440702511,
    5352940595,
    5352940596,
    5352940598,
    5352940597,
    440702504
  ],
  "tags": {
    "landuse": "cemetery",
    "source": "cadastre-dgi-fr source : Direction Générale des Impôts - Cadastre. Mise à jour : 2009",
    "wikidata": "Q110341997"
  }
},
{
  "type": "way",
  "id": 38144092,
  "center": {
    "lat": 47.6652514,
    "lon": 7.7341371
  },
  "nodes": [
    448928030,
    448928031,
    448928032,
    448928033,
    448928030
  ],
  "tags": {
    "landuse": "cemetery"
  }
},
{
  "type": "way",
  "id": 38259224,
  "center": {
    "lat": 47.7947760,
    "lon": 7.3363570
  },
  "nodes": [
    451145008,
    1616856739,
    1616856740,
    1616856742,
    1616856741,
    451145010,
    451145027,
    451145030,
    451145032,
    451145034,
    1616856738,
    451145037,
    1616856736,
    451145008
  ],
  "tags": {
    "landuse": "cemetery",
    "name": "Cimetière Nord",
    "source": "cadastre-dgi-fr source : Direction Générale des Impôts - Cadastre. Mise à jour : 2009",
    "wikidata": "Q110341890"
  }
},
{
  "type": "way",
  "id": 38315807,
  "center": {
    "lat": 47.8152114,
    "lon": 7.5678057
  },
  "nodes": [
    452384166,
    452384167,
    452384169,
    9694335496,
    452384171,
    452384172,
    452384166
  ],
  "tags": {
    "landuse": "cemetery",
    "name": "Friedhof Neuenburg"
  }
},
{
  "type": "way",
  "id": 38492949,
  "center": {
    "lat": 47.7470634,
    "lon": 7.3721658
  },
  "nodes": [
    455232775,
    8755975072,
    1967969691,
    1967969697,
    1967969672,
    9197914741,
    9197914740,
    1967969700,
    8756249030,
    8756249029,
    9197914738,
    8755975070,
    455232778,
    455232779,
    8756249019,
    8755975083,
    8755975084,
    8755975086,
    8756249018,
    8755975085,
    455232776,
    8755981695,
    2782180391,
    8755981696,
    455232777,
    8755981655,
    8755981633,
    2110367977,
    2110367976,
    5538243194,
    2110367983,
    1967985576,
    1967985575,
    1967985573,
    455232782,
    8755975087,
    9215835573,
    455232783,
    8756249023,
    8756249022,
    8756249020,
    455232784,
    455232790,
    9197571401,
    9197571403,
    9197571404,
    9197571407,
    8755975091,
    9197571408,
    9197571406,
    9197571405,
    9197571402,
    455232775
  ],
  "tags": {
    "dog": "no",
    "landuse": "cemetery",
    "name": "Cimetière de Riedisheim",
    "opening_hours": "Apr 1-Oct 31 08:00-22:00; Nov 1-Mar 31 08:00-19:00",
    "source": "cadastre-dgi-fr source : Direction Générale des Impôts - Cadastre;mise à jour : 2007"
  }
},
{
  "type": "way",
  "id": 38555240,
  "center": {
    "lat": 47.9373482,
    "lon": 7.6332102
  },
  "nodes": [
    11596186686,
    5187306685,
    456462860,
    456462859,
    456462856,
    11596186690,
    11596186689,
    11596186688,
    11596186686
  ],
  "tags": {
    "landuse": "cemetery",
    "source": "bing aerial imagery"
  }
},
{
  "type": "way",
  "id": 39002568,
  "center": {
    "lat": 47.0097871,
    "lon": 7.1562609
  },
  "nodes": [
    464625353,
    464625358,
    464625366,
    464625370,
    464625353
  ],
  "tags": {
    "amenity": "grave_yard"
  }
},
{
  "type": "way",
  "id": 39403838,
  "center": {
    "lat": 47.5385499,
    "lon": 7.7200090
  },
  "nodes": [
    472105361,
    472105363,
    472105366,
    472105375,
    2529051451,
    472105376,
    472105378,
    2529051656,
    472105361
  ],
  "tags": {
    "barrier": "fence",
    "check_date": "2024-04-14",
    "landuse": "cemetery",
    "name": "Friedhof Kaiseraugst"
  }
},
{
  "type": "way",
  "id": 39424911,
  "center": {
    "lat": 47.7144085,
    "lon": 7.8175888
  },
  "nodes": [
    472283656,
    2352726366,
    472283657,
    472283658,
    4890257665,
    472283659,
    472283656
  ],
  "tags": {
    "landuse": "cemetery",
    "name:signed": "no"
  }
},
{
  "type": "way",
  "id": 39444297,
  "center": {
    "lat": 47.7784033,
    "lon": 7.2900904
  },
  "nodes": [
    472438695,
    472438696,
    472438697,
    472438698,
    472438700,
    472438704,
    2546939089,
    2546939088,
    2546939087,
    2546939086,
    472438708,
    2546939094,
    2546939090,
    2546939085,
    472438710,
    472438695
  ],
  "tags": {
    "landuse": "cemetery",
    "source": "cadastre-dgi-fr source : Direction Générale des Impôts - Cadastre ; mise à jour : 2009",
    "wikidata": "Q110342001"
  }
},
{
  "type": "way",
  "id": 39818368,
  "center": {
    "lat": 47.8605106,
    "lon": 7.6389097
  },
  "nodes": [
    6180738529,
    477287989,
    1260152250,
    2777710367,
    1260152498,
    1260152350,
    1260222740,
    1260152211,
    1260152392,
    1260152529,
    1260152012,
    477280117,
    477280115,
    2777711549,
    6180738528,
    6180738529
  ],
  "tags": {
    "landuse": "cemetery"
  }
},
{
  "type": "way",
  "id": 40764623,
  "center": {
    "lat": 47.7854925,
    "lon": 7.3253288
  },
  "nodes": [
    495464854,
    495464845,
    495464847,
    495464851,
    495464849,
    8278465333,
    495464856,
    495464843,
    495464854
  ],
  "tags": {
    "landuse": "cemetery",
    "name": "Cimetière Sud",
    "source": "Bing",
    "wikidata": "Q110341889"
  }
},
{
  "type": "way",
  "id": 40767846,
  "center": {
    "lat": 47.8708121,
    "lon": 7.6667616
  },
  "nodes": [
    495489789,
    495489790,
    495489791,
    1486401298,
    495629606,
    495629604,
    495489792,
    2310944547,
    495489793,
    495489794,
    495489795,
    495489796,
    495489797,
    495489789
  ],
  "tags": {
    "landuse": "cemetery",
    "name": "St. Bartholomäus"
  }
},
{
  "type": "way",
  "id": 41268643,
  "center": {
    "lat": 47.7280851,
    "lon": 7.8754475
  },
  "nodes": [
    504530482,
    504530491,
    503801447,
    504530514,
    4227140387,
    4227140991,
    4227140999,
    504530482
  ],
  "tags": {
    "landuse": "cemetery"
  }
},
{
  "type": "way",
  "id": 41573576,
  "center": {
    "lat": 47.7163646,
    "lon": 7.6631875
  },
  "nodes": [
    510146272,
    510146273,
    510146274,
    510146275,
    510146276,
    510146277,
    7281217425,
    7281217424,
    510146278,
    510146279,
    510146272
  ],
  "tags": {
    "landuse": "cemetery"
  }
},
{
  "type": "way",
  "id": 41583238,
  "center": {
    "lat": 47.8245242,
    "lon": 7.3559093
  },
  "nodes": [
    510463313,
    2631127509,
    2631127506,
    510463310,
    510463319,
    510463324,
    510463321,
    510463301,
    510463299,
    510463313
  ],
  "tags": {
    "landuse": "cemetery",
    "wikidata": "Q110342022"
  }
},
{
  "type": "way",
  "id": 41821113,
  "center": {
    "lat": 47.0154720,
    "lon": 7.0670299
  },
  "nodes": [
    516431331,
    516431332,
    516431333,
    516431334,
    516431331
  ],
  "tags": {
    "landuse": "cemetery"
  }
},
{
  "type": "way",
  "id": 42251955,
  "center": {
    "lat": 47.0546004,
    "lon": 7.6122005
  },
  "nodes": [
    526821693,
    526820816,
    526821349,
    526820824,
    526820825,
    3350587344,
    526821371,
    3350587342,
    526821382,
    526821394,
    3350587308,
    526821262,
    3350587317,
    3350587323,
    3350587326,
    526821266,
    526821267,
    3350587332,
    3350587335,
    3350587336,
    3350587343,
    526821272,
    10882957807,
    472113805,
    10977458955,
    374197583,
    5781399140,
    526821693
  ],
  "tags": {
    "landuse": "cemetery",
    "name": "Friedhof Burgdorf"
  }
},
{
  "type": "way",
  "id": 42346480,
  "center": {
    "lat": 47.7673823,
    "lon": 7.5934032
  },
  "nodes": [
    528607468,
    528607469,
    528607470,
    528607471,
    528607468
  ],
  "tags": {
    "landuse": "cemetery",
    "name": "Friedhof Mauchen",
    "religion": "christian"
  }
},
{
  "type": "way",
  "id": 42727813,
  "center": {
    "lat": 47.0246916,
    "lon": 7.6750531
  },
  "nodes": [
    534343813,
    534343804,
    534343805,
    534343819,
    534343817,
    534343818,
    534343813
  ],
  "tags": {
    "landuse": "cemetery",
    "religion": "christian"
  }
},
{
  "type": "way",
  "id": 44279391,
  "center": {
    "lat": 47.9840818,
    "lon": 7.6463916
  },
  "nodes": [
    562632464,
    562632468,
    562632470,
    904981434,
    5229162185,
    5229162186,
    904981435,
    562632482,
    5229162269,
    562632485,
    6017190145,
    562632464
  ],
  "tags": {
    "landuse": "cemetery",
    "name": "Grüninger Friedhof"
  }
},
{
  "type": "way",
  "id": 45190445,
  "center": {
    "lat": 47.8122826,
    "lon": 7.2418746
  },
  "nodes": [
    2841499249,
    573462787,
    573462789,
    573462778,
    573462780,
    573462782,
    521136072,
    573462748,
    573462739,
    573462738,
    573462742,
    573462744,
    573462746,
    573462772,
    573462770,
    2841499249
  ],
  "tags": {
    "landuse": "cemetery",
    "source": "cadastre-dgi-fr source : Direction Générale des Impôts - Cadastre ; mise à jour : 2009",
    "wikidata": "Q110342127"
  }
},
{
  "type": "way",
  "id": 45442842,
  "center": {
    "lat": 47.5541534,
    "lon": 7.8071227
  },
  "nodes": [
    578079269,
    578079280,
    578079294,
    578079309,
    3283436269,
    578079321,
    578079356,
    578082659,
    578079360,
    578083484,
    578079372,
    578079376,
    578079381,
    578079269
  ],
  "tags": {
    "landuse": "cemetery",
    "name": "Waldfriedhof Rheinfelden",
    "wikidata": "Q66363478"
  }
},
{
  "type": "way",
  "id": 45903797,
  "center": {
    "lat": 47.7874680,
    "lon": 7.3718087
  },
  "nodes": [
    585201092,
    585201094,
    585201098,
    1882640683,
    1882640682,
    585201099,
    585201092
  ],
  "tags": {
    "landuse": "cemetery",
    "wikidata": "Q110342041"
  }
},
{
  "type": "way",
  "id": 46170232,
  "center": {
    "lat": 47.5581349,
    "lon": 7.8396294
  },
  "nodes": [
    588643614,
    1504359482,
    1425406886,
    588643616,
    588643618,
    588643619,
    588643620,
    1421104308,
    1425406880,
    1425406882,
    588603066,
    1425406885,
    588643621,
    1425406890,
    1425406894,
    588643624,
    1425406899,
    1425406895,
    588643629,
    588643614
  ],
  "tags": {
    "amenity": "grave_yard"
  }
},
{
  "type": "way",
  "id": 46174603,
  "center": {
    "lat": 47.8295938,
    "lon": 7.2449341
  },
  "nodes": [
    588680914,
    618129092,
    588680918,
    588680921,
    588680920,
    526370867,
    588680923,
    588680916,
    588680915,
    588680914
  ],
  "tags": {
    "landuse": "cemetery",
    "source": "cadastre-dgi-fr source : Direction Générale des Impôts - Cadastre. Mise à jour : 2009",
    "wikidata": "Q110342063"
  }
},
{
  "type": "way",
  "id": 46593073,
  "center": {
    "lat": 47.5561373,
    "lon": 7.5186844
  },
  "nodes": [
    595477933,
    595477926,
    7479931793,
    595477923,
    595477925,
    595477907,
    2865074572,
    259761097,
    595477909,
    595477911,
    595477912,
    595477933
  ],
  "tags": {
    "landuse": "cemetery",
    "religion": "jewish",
    "source": "cadastre-dgi-fr source : Direction Générale des Impôts - Cadastre. Mise à jour : 2009",
    "wikidata": "Q14906895"
  }
},
{
  "type": "way",
  "id": 46756813,
  "center": {
    "lat": 47.3613967,
    "lon": 7.5081120
  },
  "nodes": [
    597592821,
    597592823,
    597592825,
    1263346808,
    597592827,
    597592829,
    597592821
  ],
  "tags": {
    "landuse": "cemetery",
    "source": "Yahoo"
  }
},
{
  "type": "way",
  "id": 46986984,
  "center": {
    "lat": 47.0242752,
    "lon": 7.0436803
  },
  "nodes": [
    599551444,
    599551442,
    10310674327,
    599551441,
    2627167566,
    599551444
  ],
  "tags": {
    "amenity": "grave_yard",
    "name": "Friedhof Gals"
  }
},
{
  "type": "way",
  "id": 48347145,
  "center": {
    "lat": 47.1911307,
    "lon": 7.3916110
  },
  "nodes": [
    614138977,
    614138976,
    614138975,
    614138978,
    614138977
  ],
  "tags": {
    "amenity": "grave_yard",
    "religion": "christian",
    "source": "Orthofoto WMS SO!GIS"
  }
},
{
  "type": "way",
  "id": 48627609,
  "center": {
    "lat": 47.9397208,
    "lon": 7.5002775
  },
  "nodes": [
    617546016,
    617546017,
    617546019,
    617546020,
    617546016
  ],
  "tags": {
    "landuse": "cemetery",
    "name": "Cimetière",
    "wikidata": "Q110342024"
  }
},
{
  "type": "way",
  "id": 48682357,
  "center": {
    "lat": 47.1914243,
    "lon": 7.3840648
  },
  "nodes": [
    618110822,
    618111756,
    618111757,
    618111758,
    618111794,
    618112931,
    618112933,
    618112935,
    618112923,
    618112894,
    618112865,
    618110844,
    618110846,
    618110822
  ],
  "tags": {
    "landuse": "cemetery",
    "name": "Friedhof Grenchen"
  }
},
{
  "type": "way",
  "id": 48826432,
  "center": {
    "lat": 47.8822809,
    "lon": 7.2351190
  },
  "nodes": [
    619445096,
    619445099,
    619445104,
    619445106,
    8540676910,
    619445107,
    8540676907,
    8540676904,
    8540676905,
    8540676906,
    619445109,
    619445111,
    619445113,
    619445115,
    619445119,
    619445121,
    619445123,
    619445125,
    8540676909,
    619445096
  ],
  "tags": {
    "landuse": "cemetery",
    "source": "cadastre-dgi-fr source : Direction Générale des Impôts - Cadastre. Mise à jour : 2010",
    "wikidata": "Q110342057"
  }
},
{
  "type": "way",
  "id": 49439252,
  "center": {
    "lat": 47.9589840,
    "lon": 7.3046564
  },
  "nodes": [
    628071555,
    791729188,
    791728847,
    628071576,
    628071581,
    628071584,
    628071604,
    2081231931,
    2081231932,
    2081231933,
    2081231937,
    628071607,
    628071567,
    628071569,
    628071572,
    791728341,
    628071555
  ],
  "tags": {
    "landuse": "cemetery",
    "name": "Cimetière",
    "source": "cadastre-dgi-fr source : Direction Générale des Impôts - Cadastre. Mise à jour : 2010",
    "wikidata": "Q110342020"
  }
},
{
  "type": "way",
  "id": 51219594,
  "center": {
    "lat": 47.8889877,
    "lon": 7.6524859
  },
  "nodes": [
    653618538,
    653618588,
    1739769985,
    653618662,
    1739640204,
    1739640156,
    653618934,
    653618950,
    653618965,
    2314463271,
    653618983,
    2314463282,
    2314463287,
    10937242291,
    2314463290,
    2314463292,
    653619006,
    2314463297,
    2314463303,
    2314463306,
    2314463307,
    653618538
  ],
  "tags": {
    "landuse": "cemetery",
    "name": "Eschbacher Friedhof",
    "name:gsw": "Eschbener Godsagger"
  }
},
{
  "type": "way",
  "id": 52100126,
  "center": {
    "lat": 47.2240710,
    "lon": 7.4725306
  },
  "nodes": [
    663973350,
    663973246,
    663973283,
    8662255157,
    663973322,
    663973350
  ],
  "tags": {
    "amenity": "grave_yard",
    "religion": "christian"
  }
},
{
  "type": "way",
  "id": 52446226,
  "center": {
    "lat": 47.2116946,
    "lon": 7.5002301
  },
  "nodes": [
    666867515,
    666867474,
    666867506,
    666867533,
    666867515
  ],
  "tags": {
    "amenity": "grave_yard",
    "denomination": "catholic",
    "religion": "christian",
    "source": "Orthofoto WMS SO!GIS"
  }
},
{
  "type": "way",
  "id": 52721347,
  "center": {
    "lat": 47.5580176,
    "lon": 7.5036919
  },
  "nodes": [
    669127123,
    1848104375,
    669127125,
    669127128,
    669127129,
    1848104376,
    669127123
  ],
  "tags": {
    "landuse": "cemetery",
    "wikidata": "Q110341791"
  }
},
{
  "type": "way",
  "id": 54066306,
  "center": {
    "lat": 47.8599856,
    "lon": 7.2665052
  },
  "nodes": [
    682166321,
    704676435,
    682166280,
    682166305,
    682166307,
    682166308,
    682166313,
    682166316,
    682166318,
    682166321
  ],
  "tags": {
    "landuse": "cemetery",
    "source": "cadastre-dgi-fr source : Direction Générale des Impôts - Cadastre. Mise à jour : 2010",
    "wikidata": "Q110341776"
  }
},
{
  "type": "way",
  "id": 55352906,
  "center": {
    "lat": 47.2125898,
    "lon": 7.5822060
  },
  "nodes": [
    695245804,
    695263202,
    5139806421,
    695270272,
    695255314,
    695259150,
    695251606,
    695256158,
    5139804513,
    695242216,
    695245702,
    695240072,
    695245804
  ],
  "tags": {
    "landuse": "cemetery",
    "religion": "christian"
  }
},
{
  "type": "way",
  "id": 55494505,
  "center": {
    "lat": 47.1744324,
    "lon": 7.4525636
  },
  "nodes": [
    697324224,
    697324207,
    5991395954,
    5991395955,
    697323765,
    697323363,
    697324224
  ],
  "tags": {
    "landuse": "cemetery",
    "religion": "christian",
    "source": "Orthofoto WMS Kanton Solothurn"
  }
},
{
  "type": "way",
  "id": 55494528,
  "center": {
    "lat": 47.1437172,
    "lon": 7.4553313
  },
  "nodes": [
    697323926,
    697324117,
    697323681,
    697323875,
    697323926
  ],
  "tags": {
    "landuse": "cemetery",
    "source": "Orthofoto WMS Kanton Solothurn"
  }
},
{
  "type": "way",
  "id": 55570940,
  "center": {
    "lat": 47.1332992,
    "lon": 7.4752047
  },
  "nodes": [
    698480766,
    698480613,
    698480771,
    698480567,
    698480497,
    698480654,
    698480811,
    697392898,
    697394495,
    698480766
  ],
  "tags": {
    "amenity": "grave_yard",
    "religion": "christian",
    "source": "Orthofoto WMS Kanton Solothurn"
  }
},
{
  "type": "way",
  "id": 55869363,
  "center": {
    "lat": 47.9889904,
    "lon": 7.6676475
  },
  "nodes": [
    701586835,
    5227207710,
    701586845,
    5227207711,
    701586854,
    701586882,
    701586835
  ],
  "tags": {
    "barrier": "wall",
    "landuse": "cemetery",
    "name": "Friedhof Niederrimsingen",
    "religion": "christian"
  }
},
{
  "type": "way",
  "id": 56013413,
  "center": {
    "lat": 47.1870900,
    "lon": 7.4991120
  },
  "nodes": [
    703089810,
    703090064,
    703089749,
    703090075,
    703090136,
    703090367,
    5892412650,
    5892412649,
    703089810
  ],
  "tags": {
    "landuse": "cemetery"
  }
},
{
  "type": "way",
  "id": 56660157,
  "center": {
    "lat": 47.3839551,
    "lon": 7.8206618
  },
  "nodes": [
    708610964,
    708610967,
    708610969,
    371639562,
    708610971,
    2377440103,
    2377440106,
    2377440104,
    708610964
  ],
  "tags": {
    "landuse": "cemetery"
  }
},
{
  "type": "way",
  "id": 59086169,
  "center": {
    "lat": 47.3936185,
    "lon": 7.6070247
  },
  "nodes": [
    732100960,
    732234837,
    732162320,
    732122845,
    732232199,
    732158826,
    732096886,
    732108907,
    9489051700,
    9489051701,
    732100960
  ],
  "tags": {
    "landuse": "cemetery",
    "name": "Oberkirch",
    "religion": "christian"
  }
},
{
  "type": "way",
  "id": 59278837,
  "center": {
    "lat": 47.5932310,
    "lon": 7.7903702
  },
  "nodes": [
    735032898,
    735035030,
    735032903,
    12902297094,
    735032916,
    735032924,
    735032929,
    735032967,
    735035031,
    735032971,
    735032975,
    735032979,
    751969089,
    735032982,
    735032983,
    735032898
  ],
  "tags": {
    "landuse": "cemetery",
    "name": "Friedhof Minseln"
  }
},
{
  "type": "way",
  "id": 59283106,
  "center": {
    "lat": 47.1419108,
    "lon": 7.9973622
  },
  "nodes": [
    735093080,
    735093081,
    735093082,
    735093083,
    735093080
  ],
  "tags": {
    "historic": "yes",
    "landuse": "cemetery"
  }
},
{
  "type": "way",
  "id": 59313678,
  "center": {
    "lat": 47.8239983,
    "lon": 7.3833448
  },
  "nodes": [
    735735547,
    735735279,
    735735906,
    735735646,
    735735547
  ],
  "tags": {
    "denomination": "catholic",
    "landuse": "cemetery",
    "religion": "christian",
    "source": "cadastre-dgi-fr source : Direction Générale des Impôts - Cadastre. Mise à jour : 2010",
    "wikidata": "Q110341755"
  }
},
{
  "type": "way",
  "id": 59536249,
  "center": {
    "lat": 47.9847323,
    "lon": 7.2843748
  },
  "nodes": [
    738379150,
    8826559542,
    738378751,
    738378956,
    8826559541,
    738379117,
    738379173,
    8826559580,
    738378689,
    738378895,
    738379037,
    738379150
  ],
  "tags": {
    "landuse": "cemetery",
    "source": "cadastre-dgi-fr source : Direction Générale des Impôts - Cadastre. Mise à jour : 2010",
    "wikidata": "Q110341984"
  }
},
{
  "type": "way",
  "id": 60168778,
  "center": {
    "lat": 47.2808740,
    "lon": 7.9564186
  },
  "nodes": [
    747361359,
    1770863045,
    1770863047,
    1770863048,
    747361401,
    747361372,
    747361351,
    1770863054,
    1770863055,
    747361330,
    1770863053,
    1770863051,
    747361394,
    747361359
  ],
  "tags": {
    "landuse": "cemetery",
    "name": "Friedhof Bergli",
    "note": "position estimated"
  }
},
{
  "type": "way",
  "id": 60995691,
  "center": {
    "lat": 47.7426006,
    "lon": 7.7073888
  },
  "nodes": [
    763564277,
    763564427,
    763563869,
    763563939,
    4356605557,
    4356605561,
    4356605565,
    763564277
  ],
  "tags": {
    "landuse": "cemetery",
    "source": "bing"
  }
},
{
  "type": "way",
  "id": 61689823,
  "center": {
    "lat": 47.9555886,
    "lon": 7.2886342
  },
  "nodes": [
    768877389,
    768877215,
    768877314,
    768877415,
    768877364,
    768877462,
    768877561,
    768877667,
    768877548,
    768877653,
    768877762,
    617867209,
    617867106,
    768877389
  ],
  "tags": {
    "landuse": "cemetery",
    "source": "cadastre-dgi-fr source : Direction Générale des Impôts - Cadastre. Mise à jour : 2010"
  }
},
{
  "type": "way",
  "id": 61773519,
  "center": {
    "lat": 47.9595993,
    "lon": 7.2605883
  },
  "nodes": [
    769744996,
    2478086394,
    769744998,
    769745006,
    769744999,
    769745005,
    769745001,
    769744892,
    769744896,
    769744996
  ],
  "tags": {
    "landuse": "cemetery",
    "source": "cadastre-dgi-fr source : Direction Générale des Impôts - Cadastre. Mise à jour : 2010",
    "wikidata": "Q110342118"
  }
},
{
  "type": "way",
  "id": 61773690,
  "center": {
    "lat": 47.9336921,
    "lon": 7.5635170
  },
  "nodes": [
    769756604,
    769756606,
    769756622,
    769756624,
    769756625,
    769756627,
    769756629,
    769756615,
    769756616,
    769756618,
    769756620,
    769756593,
    769756595,
    769756604
  ],
  "tags": {
    "landuse": "cemetery",
    "source": "cadastre-dgi-fr source : Direction Générale des Impôts - Cadastre. Mise à jour : 2010",
    "wikidata": "Q110341959"
  }
},
{
  "type": "way",
  "id": 61891704,
  "center": {
    "lat": 47.8407290,
    "lon": 7.2984538
  },
  "nodes": [
    771326509,
    771326455,
    771326577,
    1998363735,
    771326657,
    771326698,
    771326420,
    771326509
  ],
  "tags": {
    "landuse": "cemetery",
    "source": "cadastre-dgi-fr source : Direction Générale des Impôts - Cadastre. Mise à jour : 2010",
    "wikidata": "Q110341988"
  }
},
{
  "type": "way",
  "id": 62317220,
  "center": {
    "lat": 47.7399640,
    "lon": 7.6122994
  },
  "nodes": [
    778529915,
    1774618673,
    778529836,
    778529815,
    778529718,
    1774618596,
    1774618586,
    778529915
  ],
  "tags": {
    "landuse": "cemetery",
    "name": "Friedhof Liel"
  }
},
{
  "type": "way",
  "id": 66206378,
  "center": {
    "lat": 47.3160383,
    "lon": 7.6520838
  },
  "nodes": [
    802982697,
    802982720,
    802982729,
    802982713,
    3241046365,
    802982724,
    802982701,
    802982709,
    802982717,
    802982697
  ],
  "tags": {
    "denomination": "catholic",
    "landuse": "cemetery",
    "religion": "christian"
  }
},
{
  "type": "way",
  "id": 67413458,
  "center": {
    "lat": 47.3673200,
    "lon": 7.3416241
  },
  "nodes": [
    814131517,
    814131519,
    814131521,
    814131526,
    814131529,
    6273979353,
    5616960198,
    6273979354,
    814131532,
    6273979346,
    5616960197,
    6273979347,
    6273979348,
    5616960196,
    6273979349,
    814131535,
    814131537,
    6273979350,
    5616960195,
    814131541,
    6273979351,
    6273979352,
    6272430744,
    814131517
  ],
  "tags": {
    "landuse": "cemetery",
    "name": "Cimetière de Delémont"
  }
},
{
  "type": "way",
  "id": 67595345,
  "center": {
    "lat": 47.1914547,
    "lon": 7.7887840
  },
  "nodes": [
    816358368,
    5135489588,
    5135489585,
    816358381,
    816358384,
    5135489592,
    816358377,
    5135489594,
    816358368
  ],
  "tags": {
    "denomination": "protestant",
    "landuse": "cemetery",
    "religion": "christian"
  }
},
{
  "type": "way",
  "id": 70214843,
  "center": {
    "lat": 47.9802924,
    "lon": 7.4894220
  },
  "nodes": [
    838400912,
    838400884,
    838400895,
    838400897,
    838400912
  ],
  "tags": {
    "landuse": "cemetery",
    "name": "Cimetière de Dessenheim",
    "religion": "christian",
    "source": "cadastre-dgi-fr source : Direction Générale des Impôts - Cadastre. Mise à jour : 2010",
    "wikidata": "Q110341799"
  }
},
{
  "type": "way",
  "id": 71042697,
  "center": {
    "lat": 47.9116976,
    "lon": 7.7012447
  },
  "nodes": [
    846299829,
    846299801,
    846299828,
    2276995046,
    2284491227,
    846299822,
    846299798,
    846299815,
    846299831,
    846299827,
    846299813,
    846299816,
    846299809,
    846299832,
    846299802,
    846299804,
    846299823,
    846299814,
    846299800,
    846299818,
    1276287381,
    11556704875,
    846299829
  ],
  "tags": {
    "landuse": "cemetery"
  }
},
{
  "type": "way",
  "id": 71439271,
  "center": {
    "lat": 47.9358849,
    "lon": 7.2353739
  },
  "nodes": [
    849979907,
    785472914,
    785464932,
    785452583,
    849979897,
    8827538719,
    849979886,
    8827538721,
    849979907
  ],
  "tags": {
    "landuse": "cemetery",
    "source": "cadastre-dgi-fr source : Direction Générale des Impôts - Cadastre. Mise à jour : 2010",
    "wikidata": "Q110341980"
  }
},
{
  "type": "way",
  "id": 75642088,
  "center": {
    "lat": 47.0567457,
    "lon": 7.5771446
  },
  "nodes": [
    893019992,
    5503559661,
    893019995,
    893019988,
    893019989,
    893019990,
    893019991,
    893019993,
    893019994,
    893019992
  ],
  "tags": {
    "denomination": "protestant",
    "landuse": "cemetery",
    "name": "Friedhof Rüti",
    "religion": "christian"
  }
},
{
  "type": "way",
  "id": 78145776,
  "center": {
    "lat": 47.1104715,
    "lon": 7.1168891
  },
  "nodes": [
    918006306,
    918006271,
    918006308,
    918006298,
    918006306
  ],
  "tags": {
    "landuse": "cemetery",
    "name": "Cimetière Diesse"
  }
},
{
  "type": "way",
  "id": 78417757,
  "center": {
    "lat": 47.2595334,
    "lon": 6.9996798
  },
  "nodes": [
    920257318,
    920257952,
    920255484,
    920252959,
    920257318
  ],
  "tags": {
    "amenity": "grave_yard",
    "name": "Cimetière",
    "religion": "christian"
  }
},
{
  "type": "way",
  "id": 78417825,
  "center": {
    "lat": 47.2794203,
    "lon": 7.1396446
  },
  "nodes": [
    920253914,
    920255288,
    920252656,
    920258334,
    920255245,
    920260005,
    920257196,
    920254654,
    920253914
  ],
  "tags": {
    "amenity": "grave_yard",
    "denomination": "catholic",
    "religion": "christian"
  }
},
{
  "type": "way",
  "id": 79513621,
  "center": {
    "lat": 47.4031717,
    "lon": 7.1257434
  },
  "nodes": [
    928152010,
    928151879,
    928151852,
    928151940,
    928152070,
    928152136,
    928152028,
    928151876,
    928152096,
    928151964,
    928151814,
    928152042,
    928152015,
    928151928,
    928151901,
    928152113,
    928151992,
    928151830,
    928152059,
    928151923,
    928152130,
    928152022,
    928151860,
    928152083,
    928151949,
    928152148,
    928152074,
    928152099,
    928152010
  ],
  "tags": {
    "landuse": "cemetery",
    "religion": "christian"
  }
},
{
  "type": "way",
  "id": 80259678,
  "center": {
    "lat": 47.8366682,
    "lon": 7.1791336
  },
  "nodes": [
    936770014,
    936770041,
    8237841244,
    936769833,
    936769940,
    936769725,
    936769750,
    936770014
  ],
  "tags": {
    "landuse": "cemetery",
    "name": "Cimetière communal",
    "source": "cadastre-dgi-fr source : Direction Générale des Impôts - Cadastre. Mise à jour : 2010",
    "wikidata": "Q110342108"
  }
},
{
  "type": "way",
  "id": 80915855,
  "center": {
    "lat": 47.0164827,
    "lon": 7.4779747
  },
  "nodes": [
    943330718,
    943330720,
    943330722,
    943330724,
    943330718
  ],
  "tags": {
    "landuse": "cemetery",
    "religion": "christian"
  }
},
{
  "type": "way",
  "id": 80928286,
  "center": {
    "lat": 47.2626315,
    "lon": 7.8055660
  },
  "nodes": [
    943593523,
    943593398,
    4797097300,
    943593442,
    4797097305,
    943593552,
    4797097303,
    943593595,
    4796861743,
    943593523
  ],
  "tags": {
    "landuse": "cemetery",
    "religion": "christian"
  }
},
{
  "type": "way",
  "id": 81893105,
  "center": {
    "lat": 47.5236794,
    "lon": 7.4751389
  },
  "nodes": [
    954624068,
    11160865516,
    954624070,
    11117020773,
    11117020772,
    954609058,
    954609061,
    954609062,
    954608999,
    954609001,
    954609010,
    954609012,
    954609013,
    954609014,
    11117020771,
    11117020770,
    954624074,
    954624075,
    954609089,
    954609092,
    954624076,
    11117020774,
    954624068
  ],
  "tags": {
    "landuse": "cemetery",
    "religion": "christian",
    "wikidata": "Q110341845"
  }
},
{
  "type": "way",
  "id": 82880838,
  "center": {
    "lat": 47.9847013,
    "lon": 7.4006181
  },
  "nodes": [
    964655891,
    964655888,
    964655895,
    783301968,
    783293379,
    964655893,
    964655891
  ],
  "tags": {
    "landuse": "cemetery",
    "source": "cadastre-dgi-fr source : Direction Générale des Impôts - Cadastre. Mise à jour : 2010",
    "wikidata": "Q110341962"
  }
},
{
  "type": "way",
  "id": 83701580,
  "center": {
    "lat": 47.3322179,
    "lon": 7.1986548
  },
  "nodes": [
    974711046,
    974708755,
    974708418,
    974712019,
    974709111,
    974713974,
    974712713,
    974710590,
    974708559,
    12720568457,
    974712282,
    8272154011,
    8272154012,
    974711046
  ],
  "tags": {
    "amenity": "grave_yard",
    "barrier": "wall"
  }
},
{
  "type": "way",
  "id": 85301427,
  "center": {
    "lat": 47.2401697,
    "lon": 7.8279174
  },
  "nodes": [
    989032351,
    989032242,
    989032390,
    989032187,
    989032297,
    5717353941,
    5717353944,
    5717353939,
    4044089416,
    989032427,
    989032533,
    989032223,
    989032351
  ],
  "tags": {
    "landuse": "cemetery",
    "name": "Friedhof Roggwil",
    "religion": "christian"
  }
},
{
  "type": "way",
  "id": 87299105,
  "center": {
    "lat": 47.6555707,
    "lon": 7.7978549
  },
  "nodes": [
    1015049951,
    1015050079,
    1015049976,
    1015050114,
    1015050105,
    1015049955,
    7554836313,
    1015049951
  ],
  "tags": {
    "landuse": "cemetery"
  }
},
{
  "type": "way",
  "id": 87347755,
  "center": {
    "lat": 47.9731807,
    "lon": 7.3937697
  },
  "nodes": [
    1015735190,
    558800275,
    558800300,
    1015735089,
    782966095,
    782974046,
    1015734993,
    558800273,
    1015735190
  ],
  "tags": {
    "landuse": "cemetery",
    "name": "Cimetière",
    "religion": "christian",
    "source": "cadastre-dgi-fr source : Direction Générale des Impôts - Cadastre. Mise à jour : 2010",
    "wikidata": "Q110341967"
  }
},
{
  "type": "way",
  "id": 87514338,
  "center": {
    "lat": 47.9403999,
    "lon": 7.3793716
  },
  "nodes": [
    1018091205,
    1018091321,
    1018091263,
    1018091030,
    1018091354,
    1018091205
  ],
  "tags": {
    "landuse": "cemetery",
    "name": "Cimetière",
    "religion": "christian",
    "source": "cadastre-dgi-fr source : Direction Générale des Impôts - Cadastre. Mise à jour : 2010",
    "wikidata": "Q110341966"
  }
},
{
  "type": "way",
  "id": 88232897,
  "center": {
    "lat": 47.0216369,
    "lon": 7.2743329
  },
  "nodes": [
    1025155138,
    1025154560,
    13207961251,
    13207961252,
    13207961250,
    1025154197,
    1025155204,
    1025155138
  ],
  "tags": {
    "landuse": "cemetery"
  }
},
{
  "type": "way",
  "id": 88232911,
  "center": {
    "lat": 47.0216720,
    "lon": 7.2745475
  },
  "nodes": [
    1025154221,
    13207961249,
    1025154729,
    1025154387,
    1025154277,
    1025154221
  ],
  "tags": {
    "landuse": "cemetery"
  }
},
{
  "type": "way",
  "id": 88895524,
  "center": {
    "lat": 47.9353213,
    "lon": 7.8593001
  },
  "nodes": [
    1031899299,
    4527465625,
    4527465629,
    1031900948,
    1031901510,
    1031899429,
    1031900025,
    566410092,
    1031899299
  ],
  "tags": {
    "landuse": "cemetery"
  }
},
{
  "type": "way",
  "id": 91010684,
  "center": {
    "lat": 47.6382837,
    "lon": 7.7790004
  },
  "nodes": [
    361169516,
    361169514,
    361169513,
    1056899228,
    1056899014,
    13001847405,
    1056898974,
    361169525,
    361169522,
    361169519,
    361169518,
    361169516
  ],
  "tags": {
    "landuse": "cemetery"
  }
},
{
  "type": "way",
  "id": 91257412,
  "center": {
    "lat": 47.6906963,
    "lon": 7.7960465
  },
  "nodes": [
    1059342005,
    1059342271,
    1059342245,
    1059342266,
    4878900120,
    4878900119,
    4878900117,
    4878900118,
    1059342005
  ],
  "tags": {
    "landuse": "cemetery",
    "name": "Friedhof Wieslet"
  }
},
{
  "type": "way",
  "id": 91882484,
  "center": {
    "lat": 47.6143527,
    "lon": 7.6227355
  },
  "nodes": [
    1067692666,
    1067692603,
    1652747308,
    1067692675,
    1067692651,
    1652747416,
    1652747302,
    1652747324,
    1067692689,
    1067692647,
    1067692687,
    1067692661,
    1067692641,
    1652747206,
    1067692688,
    1067692666
  ],
  "tags": {
    "landuse": "cemetery"
  }
},
{
  "type": "way",
  "id": 92810694,
  "center": {
    "lat": 47.6517164,
    "lon": 7.0012493
  },
  "nodes": [
    1076378519,
    1076378619,
    1076378664,
    5714230525,
    1076378445,
    1076378519
  ],
  "tags": {
    "landuse": "cemetery",
    "source": "cadastre-dgi-fr source : Direction Générale des Impôts - Cadastre. Mise à jour : 2010",
    "wikidata": "Q110362526"
  }
},
{
  "type": "way",
  "id": 93324774,
  "center": {
    "lat": 47.2327461,
    "lon": 7.8399491
  },
  "nodes": [
    1082018689,
    2711162205,
    1070828029,
    1748055634,
    1070828031,
    1082029311,
    1748055590,
    1082029317,
    1082018689
  ],
  "tags": {
    "amenity": "grave_yard"
  }
},
{
  "type": "way",
  "id": 95152644,
  "center": {
    "lat": 47.0006619,
    "lon": 7.4203625
  },
  "nodes": [
    5579097981,
    1103825017,
    1103825332,
    6955759061,
    1103825191,
    6955759073,
    1103825378,
    1103825095,
    6955759078,
    6955759080,
    6955759079,
    5579097981
  ],
  "tags": {
    "landuse": "cemetery",
    "source": "Bing"
  }
},
{
  "type": "way",
  "id": 95793061,
  "center": {
    "lat": 47.6619014,
    "lon": 7.5313881
  },
  "nodes": [
    1110269639,
    1110269796,
    2075078018,
    1110269636,
    1110269661,
    1110269751,
    3464174443,
    2075078043,
    3464174444,
    3777083306,
    1110269830,
    1110269639
  ],
  "tags": {
    "landuse": "cemetery",
    "name": "Friedhof"
  }
},
{
  "type": "way",
  "id": 96191847,
  "center": {
    "lat": 47.5868385,
    "lon": 7.6885733
  },
  "nodes": [
    1114904428,
    1114904029,
    1114904435,
    1114904151,
    1114903888,
    1114903988,
    1114904394,
    1114904117,
    1114904625,
    1114904329,
    1114904075,
    1114904543,
    1114904207,
    1114904428
  ],
  "tags": {
    "landuse": "cemetery",
    "name": "Parkfriedhof Inzlingen"
  }
},
{
  "type": "way",
  "id": 96191862,
  "center": {
    "lat": 47.5885928,
    "lon": 7.6921103
  },
  "nodes": [
    1114904139,
    1114904119,
    1114904343,
    1114904081,
    1114904183,
    1114904569,
    1114904303,
    1114904058,
    1114903963,
    1114904500,
    1114904139
  ],
  "tags": {
    "landuse": "cemetery",
    "name": "Friedhof Inzlingen"
  }
},
{
  "type": "way",
  "id": 97174395,
  "center": {
    "lat": 47.9561592,
    "lon": 7.2156342
  },
  "nodes": [
    1125577494,
    467081501,
    2484339201,
    1125577500,
    6184548682,
    1125577473,
    1125577503,
    6184549085,
    1125577481,
    1125577486,
    1125577484,
    1125577494
  ],
  "tags": {
    "landuse": "cemetery",
    "name": "Cimetière Militaire Roumain de Soultzmatt (1914-1918)",
    "source": "cadastre-dgi-fr source : Direction Générale des Impôts - Cadastre. Mise à jour : 2011",
    "wikidata": "Q52989504",
    "wikipedia": "fr:Cimetière roumain de Soultzmatt"
  }
},
{
  "type": "way",
  "id": 97991243,
  "center": {
    "lat": 47.9145882,
    "lon": 7.2909511
  },
  "nodes": [
    1134030159,
    558793576,
    521135578,
    1134030119,
    1134030478,
    1134030159
  ],
  "tags": {
    "landuse": "cemetery",
    "name": "Cimetière",
    "religion": "christian",
    "source": "cadastre-dgi-fr source : Direction Générale des Impôts - Cadastre. Mise à jour : 2011",
    "wikidata": "Q110341929"
  }
},
{
  "type": "way",
  "id": 98373929,
  "center": {
    "lat": 47.9556041,
    "lon": 7.2428026
  },
  "nodes": [
    1138109922,
    1138110024,
    980911073,
    980924582,
    980938351,
    1138110300,
    1138109922
  ],
  "tags": {
    "landuse": "cemetery",
    "source": "cadastre-dgi-fr source : Direction Générale des Impôts - Cadastre. Mise à jour : 2011",
    "wikidata": "Q110364549"
  }
},
{
  "type": "way",
  "id": 100612507,
  "center": {
    "lat": 47.6635901,
    "lon": 7.8394947
  },
  "nodes": [
    1163181121,
    4334670961,
    1163181059,
    1163181072,
    1163181044,
    5618331198,
    1163181098,
    1163181111,
    1163181069,
    1163181032,
    1163181118,
    1163181134,
    1163181105,
    1163181050,
    1163181121
  ],
  "tags": {
    "landuse": "cemetery",
    "name": "Friedhof Fahrnau",
    "religion": "christian"
  }
},
{
  "type": "way",
  "id": 100646643,
  "center": {
    "lat": 47.7894775,
    "lon": 7.8994503
  },
  "nodes": [
    1163495569,
    4159080189,
    1163495533,
    4219783026,
    2329925127,
    2329925111,
    4219782950,
    2329925087,
    2329925088,
    4219782965,
    4219782970,
    2329925105,
    1163495553,
    2329925120,
    1163495542,
    2329925147,
    1163495569
  ],
  "tags": {
    "landuse": "cemetery",
    "name": "Oberfeld"
  }
},
{
  "type": "way",
  "id": 101085752,
  "center": {
    "lat": 47.2596215,
    "lon": 7.1303961
  },
  "nodes": [
    1167153185,
    11125173831,
    11125173830,
    1167152346,
    1167154252,
    1167151209,
    1167154979,
    1167153185
  ],
  "tags": {
    "landuse": "cemetery"
  }
},
{
  "type": "way",
  "id": 101826011,
  "center": {
    "lat": 47.3022917,
    "lon": 7.1544253
  },
  "nodes": [
    1175563308,
    1175563593,
    1175563487,
    12074117144,
    1175563394,
    1175563288,
    1175563453,
    1175563368,
    1175563308
  ],
  "tags": {
    "landuse": "cemetery"
  }
},
{
  "type": "way",
  "id": 102792901,
  "center": {
    "lat": 47.6415549,
    "lon": 7.6466376
  },
  "nodes": [
    1187144740,
    1187144745,
    1187144734,
    1187144743,
    1187144752,
    1187144740
  ],
  "tags": {
    "landuse": "cemetery"
  }
},
{
  "type": "way",
  "id": 104837634,
  "center": {
    "lat": 47.3363049,
    "lon": 7.2453856
  },
  "nodes": [
    1209154947,
    1209154859,
    1209154698,
    974709597,
    974711230,
    974711765,
    974708192,
    974710225,
    974712068,
    974712769,
    1209154746,
    6652475766,
    1209154862,
    1209154909,
    1209154741,
    1209154844,
    1209154695,
    1209154947
  ],
  "tags": {
    "denomination": "roman_catholic",
    "landuse": "cemetery",
    "religion": "christian",
    "source": "Orthophotos 1998 RCJU 50cm"
  }
},
{
  "type": "way",
  "id": 104933662,
  "center": {
    "lat": 47.3316594,
    "lon": 7.2469960
  },
  "nodes": [
    1209914104,
    1209914500,
    1209914353,
    1209914197,
    1209914077,
    1209914400,
    1209914104
  ],
  "tags": {
    "landuse": "cemetery",
    "religion": "christian",
    "source": "Orthophotos 1998 RCJU 50cm"
  }
},
{
  "type": "way",
  "id": 105186444,
  "center": {
    "lat": 47.3050557,
    "lon": 7.2709337
  },
  "nodes": [
    1212117023,
    1212116635,
    1212116836,
    1212117524,
    1212116592,
    1212117298,
    1212117477,
    1212117023
  ],
  "tags": {
    "landuse": "cemetery",
    "source": "Orthophotos 1998 RCJU 50cm"
  }
},
{
  "type": "way",
  "id": 105853010,
  "center": {
    "lat": 47.3337681,
    "lon": 7.2829992
  },
  "nodes": [
    1218859942,
    1218860203,
    1218860810,
    1218860952,
    1218859942
  ],
  "tags": {
    "landuse": "cemetery"
  }
},
{
  "type": "way",
  "id": 106865390,
  "center": {
    "lat": 47.3406256,
    "lon": 7.3162489
  },
  "nodes": [
    1228911619,
    1228911537,
    1228911316,
    1228911609,
    1228911412,
    1228911555,
    1228911322,
    1228911492,
    1228911273,
    1228911449,
    1228911598,
    1228911464,
    1228911619
  ],
  "tags": {
    "landuse": "cemetery",
    "source": "Orthophotos 1998 RCJU 50cm"
  }
},
{
  "type": "way",
  "id": 107245955,
  "center": {
    "lat": 47.7877127,
    "lon": 7.5040606
  },
  "nodes": [
    1232974770,
    6949236776,
    6949236777,
    1232974720,
    1232974739,
    1232974778,
    1232974695,
    1232974716,
    1232974770
  ],
  "tags": {
    "landuse": "cemetery",
    "name": "Cimetière d'Ottmarsheim",
    "source": "cadastre-dgi-fr source : Direction Générale des Impôts - Cadastre. Mise à jour : 2011",
    "wikidata": "Q110341982"
  }
},
{
  "type": "way",
  "id": 107444143,
  "center": {
    "lat": 47.4669351,
    "lon": 7.8072235
  },
  "nodes": [
    1234821005,
    3910193330,
    1234820447,
    11419993110,
    11419993113,
    11419993112,
    11419993111,
    11419993114,
    1234820800,
    1234819771,
    6365231272,
    3910193320,
    1234821005
  ],
  "tags": {
    "landuse": "cemetery",
    "name": "Friedhof Sissach"
  }
},
{
  "type": "way",
  "id": 108245431,
  "center": {
    "lat": 47.2352611,
    "lon": 7.6584769
  },
  "nodes": [
    1242277925,
    1242277914,
    4222356795,
    4222356797,
    1830096732,
    4222356798,
    4222356796,
    1267286447,
    4222356800,
    4222356801,
    4222356802,
    1242277929,
    2050456697,
    1242277926,
    1820698561,
    1820698565,
    4222356808,
    4222356806,
    1830096734,
    4222356807,
    4222356809,
    4222356810,
    1242277925
  ],
  "tags": {
    "landuse": "cemetery",
    "source": "survey"
  }
},
{
  "type": "way",
  "id": 108356824,
  "center": {
    "lat": 47.8842650,
    "lon": 7.6812909
  },
  "nodes": [
    1243550299,
    1243550296,
    1487133954,
    1243550303,
    1243550305,
    1243550306,
    1243550299
  ],
  "tags": {
    "landuse": "cemetery"
  }
},
{
  "type": "way",
  "id": 108721957,
  "center": {
    "lat": 47.3408915,
    "lon": 7.3735841
  },
  "nodes": [
    1246593206,
    1246593113,
    1246593233,
    1246593039,
    1246593100,
    1246593222,
    1246593030,
    1246593150,
    1246593273,
    1246593081,
    1246593206
  ],
  "tags": {
    "landuse": "cemetery",
    "source": "Orthophotos 1998 RCJU 50cm"
  }
},
{
  "type": "way",
  "id": 108775734,
  "center": {
    "lat": 47.5594051,
    "lon": 7.9698358
  },
  "nodes": [
    1247150609,
    1247150620,
    1247150621,
    1247150607,
    1247150619,
    1247150594,
    1247150618,
    1247150596,
    1247150617,
    1247150606,
    2324517024,
    1247150609
  ],
  "tags": {
    "landuse": "cemetery"
  }
},
{
  "type": "way",
  "id": 109862458,
  "center": {
    "lat": 47.8020153,
    "lon": 7.9470384
  },
  "nodes": [
    1256639154,
    3035270868,
    1256639388,
    3035270139,
    3035270483,
    1256639228,
    1256875200,
    1256875322,
    1256639154
  ],
  "tags": {
    "barrier": "hedge",
    "landuse": "cemetery"
  }
},
{
  "type": "way",
  "id": 109978167,
  "center": {
    "lat": 47.1779940,
    "lon": 7.3684194
  },
  "nodes": [
    1257626957,
    3454367013,
    1257626956,
    3454363431,
    3454363430,
    1257626954,
    3454363429,
    1257626955,
    3454363432,
    3454360317,
    3270345670,
    3454363428,
    3454363460,
    3454363442,
    1257626957
  ],
  "tags": {
    "landuse": "cemetery"
  }
},
{
  "type": "way",
  "id": 110328615,
  "center": {
    "lat": 47.8156411,
    "lon": 7.7874422
  },
  "nodes": [
    1260240461,
    1260240830,
    1260242666,
    1260241660,
    4226427447,
    4226427448,
    1260242083,
    1260240984,
    1260241110,
    1260241534,
    1260240461
  ],
  "tags": {
    "amenity": "grave_yard"
  }
},
{
  "type": "way",
  "id": 110364236,
  "center": {
    "lat": 47.3425390,
    "lon": 7.4993370
  },
  "nodes": [
    1260538553,
    1260538855,
    1260538487,
    1260539041,
    597571649,
    597571650,
    597571651,
    597571644,
    597571645,
    597571646,
    597571647,
    597571648,
    4417537696,
    1260538631,
    1260538553
  ],
  "tags": {
    "landuse": "cemetery",
    "source": "Orthophotos 1998 RCJU 50cm"
  }
},
{
  "type": "way",
  "id": 110455899,
  "center": {
    "lat": 47.2250015,
    "lon": 7.2060631
  },
  "nodes": [
    1261356036,
    1261355929,
    1261355980,
    1261356051,
    1261356073,
    1261355965,
    1261356018,
    1261356036
  ],
  "tags": {
    "landuse": "cemetery"
  }
},
{
  "type": "way",
  "id": 111088749,
  "center": {
    "lat": 47.3453623,
    "lon": 7.4799204
  },
  "nodes": [
    1266410840,
    1266409767,
    1266411315,
    1266410207,
    1266410277,
    1266411475,
    1266411062,
    1266409811,
    1266411355,
    1266411221,
    1266410369,
    1266411531,
    1266411189,
    1266409836,
    1266411377,
    1266410602,
    1266411674,
    1266411253,
    1266410169,
    1266409858,
    1266411251,
    1266411402,
    1266410723,
    1266409745,
    1266410840
  ],
  "tags": {
    "landuse": "cemetery"
  }
},
{
  "type": "way",
  "id": 111093944,
  "center": {
    "lat": 47.3296495,
    "lon": 7.4737479
  },
  "nodes": [
    1266540495,
    1266538743,
    1266541657,
    1266540295,
    1266542560,
    1266540927,
    1266539343,
    1266541903,
    1266540454,
    1266542873,
    1266541185,
    1266539687,
    1266542190,
    1266540639,
    1266538444,
    1266541483,
    1266489666,
    1266540495
  ],
  "tags": {
    "landuse": "cemetery",
    "source": "Orthophotos 1998 RCJU 50cm"
  }
},
{
  "type": "way",
  "id": 113062104,
  "center": {
    "lat": 47.5233966,
    "lon": 7.6483680
  },
  "nodes": [
    1283348740,
    1288235156,
    6109254543,
    1283348742,
    6109267312,
    6109267311,
    1283348745,
    1283348752,
    6109190586,
    6109190585,
    6109189984,
    6109189983,
    6109190587,
    6109189982,
    6109190588,
    6109189981,
    6109189980,
    6109267309,
    1283348739,
    1283348620,
    6109189958,
    1283348724,
    6109189964,
    6109189957,
    6109189959,
    6109189960,
    1283348715,
    1283348618,
    6109254556,
    6109254557,
    6109267209,
    6109254546,
    6109254547,
    1288235163,
    1288235194,
    1283348740
  ],
  "tags": {
    "landuse": "cemetery",
    "name": "Friedhof Muttenz"
  }
},
{
  "type": "way",
  "id": 113172730,
  "center": {
    "lat": 47.4969013,
    "lon": 7.5534478
  },
  "nodes": [
    1284219527,
    1284219640,
    1284219693,
    1284219568,
    1284219552,
    1284219566,
    1284219662,
    1285013451,
    1285013464,
    1285013463,
    1285013510,
    1285013461,
    1285013492,
    11271740409,
    11271740408,
    11271740407,
    1284219525,
    1284219542,
    1284219608,
    1284219579,
    11271781484,
    1284219624,
    11271781483,
    1284219687,
    11271781485,
    1284219660,
    11271740406,
    1284086017,
    1284086043,
    1284086036,
    1284086046,
    1284086045,
    1284086025,
    1284086030,
    1284086048,
    1284086020,
    1284086044,
    1284086021,
    1284086028,
    1284086049,
    11271740405,
    1285013429,
    1284219629,
    1291973137,
    1284219527
  ],
  "tags": {
    "amenity": "grave_yard"
  }
},
{
  "type": "way",
  "id": 115677855,
  "center": {
    "lat": 47.9026319,
    "lon": 7.8978287
  },
  "nodes": [
    1306230693,
    1306230187,
    4431176978,
    1306230238,
    2578740621,
    2578740622,
    1306230230,
    2578740615,
    4447433320,
    1306230832,
    1306230722,
    1306230612,
    1306230693
  ],
  "tags": {
    "landuse": "cemetery"
  }
},
{
  "type": "way",
  "id": 116408008,
  "center": {
    "lat": 47.8101966,
    "lon": 7.1064050
  },
  "nodes": [
    1312360877,
    1312360894,
    1312360899,
    1312360888,
    1312360893,
    1312360882,
    1312360887,
    1312360876,
    1312360881,
    1312360898,
    1312360875,
    1312360892,
    1312360880,
    1312360884,
    1312360889,
    1312360883,
    1312360872,
    1312360878,
    1312360895,
    1312360900,
    1312360877
  ],
  "tags": {
    "landuse": "cemetery",
    "source": "cadastre-dgi-fr source : Direction Générale des Impôts - Cadastre. Mise à jour : 2011",
    "wikidata": "Q102361108"
  }
},
{
  "type": "way",
  "id": 116442266,
  "center": {
    "lat": 47.9650750,
    "lon": 7.9530202
  },
  "nodes": [
    1312735077,
    3933070767,
    3933070753,
    1312735528,
    1312735364,
    2505354246,
    1312735534,
    3933067154,
    3933067155,
    3933070565,
    3933070578,
    3933070574,
    3933070579,
    3933070581,
    3933070599,
    3933070600,
    3933070604,
    3933070601,
    3933070607,
    3933070614,
    3933070615,
    1312735232,
    1312735119,
    1312735399,
    1312735315,
    1312735184,
    7931959658,
    1312735286,
    1312735157,
    3933070707,
    3933070705,
    3933070734,
    3933070735,
    3933070749,
    3933070751,
    13092752354,
    1312735507,
    13188220525,
    13092752345,
    1312735249,
    3933070781,
    3933070779,
    2505354257,
    1312735077
  ],
  "tags": {
    "denomination": "catholic",
    "landuse": "cemetery",
    "religion": "christian"
  }
},
{
  "type": "way",
  "id": 116543720,
  "center": {
    "lat": 47.1058183,
    "lon": 7.4297692
  },
  "nodes": [
    1313594953,
    1313594360,
    1313596158,
    1313595541,
    4083080930,
    1313594953
  ],
  "tags": {
    "amenity": "grave_yard",
    "religion": "christian"
  }
},
{
  "type": "way",
  "id": 117259232,
  "center": {
    "lat": 47.7313193,
    "lon": 7.1370661
  },
  "nodes": [
    1320760574,
    1320760606,
    1320760583,
    1320760624,
    1320760600,
    8685733483,
    8685733485,
    8685733486,
    8685733484,
    1320760574
  ],
  "tags": {
    "amenity": "grave_yard",
    "religion": "christian",
    "wikidata": "Q110341790"
  }
},
{
  "type": "way",
  "id": 117352204,
  "center": {
    "lat": 47.0118110,
    "lon": 7.3705130
  },
  "nodes": [
    7099647702,
    1321692884,
    1965408118,
    1321692909,
    1321692984,
    7099647697,
    7099647699,
    7099647698,
    7099647700,
    7099647701,
    7099647702
  ],
  "tags": {
    "landuse": "cemetery"
  }
},
{
  "type": "way",
  "id": 117370983,
  "center": {
    "lat": 47.2826881,
    "lon": 7.5298563
  },
  "nodes": [
    1322025059,
    1322025055,
    4681627352,
    1322025066,
    1322025071,
    1322025059
  ],
  "tags": {
    "landuse": "cemetery"
  }
},
{
  "type": "way",
  "id": 117526819,
  "center": {
    "lat": 47.3628452,
    "lon": 7.3775980
  },
  "nodes": [
    1323866890,
    1323866885,
    1323866900,
    1323867170,
    1323867158,
    1323866890
  ],
  "tags": {
    "landuse": "cemetery",
    "source": "Orthophotos 1998 RCJU 50cm"
  }
},
{
  "type": "way",
  "id": 118899751,
  "center": {
    "lat": 47.9047975,
    "lon": 7.2506716
  },
  "nodes": [
    1336489600,
    1336489624,
    1336489637,
    1336489645,
    1336489618,
    1336489623,
    812207121,
    10924144959,
    1336489589,
    1336489591,
    4825810943,
    1337620182,
    1336489600
  ],
  "tags": {
    "amenity": "grave_yard",
    "religion": "christian",
    "source": "cadastre-dgi-fr source : Direction Générale des Impôts - Cadastre. Mise à jour : 2011",
    "wikidata": "Q110341879"
  }
},
{
  "type": "way",
  "id": 119141493,
  "center": {
    "lat": 47.9826657,
    "lon": 7.9629445
  },
  "nodes": [
    392873068,
    4466660658,
    10067225671,
    1339475486,
    4466660670,
    392873073,
    392873072,
    1339475401,
    1339475374,
    1339475997,
    392873077,
    392873070,
    10067225689,
    392873067,
    392873076,
    392873068
  ],
  "tags": {
    "landuse": "cemetery"
  }
},
{
  "type": "way",
  "id": 121348521,
  "center": {
    "lat": 47.1230997,
    "lon": 7.4403299
  },
  "nodes": [
    1359038648,
    1359038547,
    1359038850,
    1359038750,
    1359038648
  ],
  "tags": {
    "amenity": "grave_yard",
    "religion": "christian",
    "source": "survey"
  }
},
{
  "type": "way",
  "id": 122002290,
  "center": {
    "lat": 47.3914152,
    "lon": 7.3697814
  },
  "nodes": [
    1364277514,
    1364277507,
    1364277527,
    1364277528,
    1364277542,
    1364277535,
    1364277518,
    1364277514
  ],
  "tags": {
    "landuse": "cemetery"
  }
},
{
  "type": "way",
  "id": 122109021,
  "center": {
    "lat": 47.6825010,
    "lon": 7.7759547
  },
  "nodes": [
    1365281985,
    4418160683,
    1365281989,
    4418162089,
    4418160688,
    4418162097,
    4418162099,
    4418162106,
    1365281984,
    4418162110,
    4418162112,
    4462190838,
    1365281987,
    4418162115,
    1365281985
  ],
  "tags": {
    "landuse": "cemetery",
    "name": "Friedhof Weitenau"
  }
},
{
  "type": "way",
  "id": 122673161,
  "center": {
    "lat": 47.3173179,
    "lon": 7.9816987
  },
  "nodes": [
    1370098546,
    1370098547,
    1370098548,
    1370098549,
    1370098550,
    2700308267,
    1370098551,
    1370098546
  ],
  "tags": {
    "landuse": "cemetery"
  }
},
{
  "type": "way",
  "id": 123343203,
  "center": {
    "lat": 47.5545791,
    "lon": 7.6286628
  },
  "nodes": [
    1375834697,
    1375834143,
    1375834514,
    1375834347,
    1375834211,
    1375834101,
    1375833922,
    1375834765,
    289850977,
    289850976,
    289850975,
    289850974,
    1375834177,
    1375834050,
    1375834128,
    1375833864,
    1375834710,
    1375834542,
    1375834697
  ],
  "tags": {
    "landuse": "cemetery",
    "name": "Friedhof Birsfelden"
  }
},
{
  "type": "way",
  "id": 123810303,
  "center": {
    "lat": 47.5542092,
    "lon": 7.3376428
  },
  "nodes": [
    1379406277,
    1744481648,
    1379406258,
    1744481550,
    1379406268,
    1379406296,
    1379406303,
    1744481727,
    1379406319,
    1366117513,
    1379406317,
    1379406316,
    1366117510,
    1379406285,
    1379406277
  ],
  "tags": {
    "landuse": "cemetery",
    "wikidata": "Q110342070"
  }
},
{
  "type": "way",
  "id": 125766154,
  "center": {
    "lat": 47.9285989,
    "lon": 7.2347367
  },
  "nodes": [
    1396095081,
    1396095077,
    1396095072,
    785258230,
    785262849,
    785254319,
    1396095081
  ],
  "tags": {
    "denomination": "catholic",
    "landuse": "cemetery",
    "religion": "christian",
    "source": "cadastre-dgi-fr source : Direction Générale des Impôts - Cadastre. Mise à jour : 2011",
    "wikidata": "Q110341761"
  }
},
{
  "type": "way",
  "id": 126052524,
  "center": {
    "lat": 47.5705631,
    "lon": 7.9166557
  },
  "nodes": [
    1398432059,
    1398432057,
    9772983854,
    9772983853,
    3901272776,
    3901272770,
    1398432056,
    9772963615,
    1398432055,
    11368062480,
    11368062481,
    11368062482,
    11368062483,
    1398432058,
    1398432060,
    1398432061,
    1398432062,
    1398432059
  ],
  "tags": {
    "denomination": "catholic",
    "landuse": "cemetery",
    "name": "Friedhof Wallbach",
    "religion": "christian"
  }
},
{
  "type": "way",
  "id": 126100735,
  "center": {
    "lat": 47.6193389,
    "lon": 7.9764785
  },
  "nodes": [
    1398810314,
    1398810331,
    3895393319,
    3895393284,
    3895393261,
    3895393153,
    3895393156,
    1398810315,
    3895393152,
    1398810311,
    3895393141,
    1892731683,
    1398810327,
    3895392839,
    3895392841,
    1398810313,
    3895393104,
    1398810321,
    3895393142,
    2286166676,
    1398810340,
    3895393577,
    1398810344,
    3895393583,
    1398810332,
    3895393576,
    3895393588,
    1398810325,
    1398810312,
    1398810314
  ],
  "tags": {
    "landuse": "cemetery"
  }
},
{
  "type": "way",
  "id": 126444524,
  "center": {
    "lat": 47.9162677,
    "lon": 7.6264614
  },
  "nodes": [
    1401306551,
    1740355700,
    1740355639,
    1401306543,
    1401306541,
    1401613026,
    5983819231,
    5983819233,
    1401306549,
    5983819226,
    1401306551
  ],
  "tags": {
    "landuse": "cemetery"
  }
},
{
  "type": "way",
  "id": 127070994,
  "center": {
    "lat": 47.1652585,
    "lon": 7.3618409
  },
  "nodes": [
    1407146686,
    1407146704,
    1407146692,
    1407146707,
    9917166023,
    1407146686
  ],
  "tags": {
    "landuse": "cemetery"
  }
},
{
  "type": "way",
  "id": 127349249,
  "center": {
    "lat": 47.9766305,
    "lon": 7.6037501
  },
  "nodes": [
    1409887096,
    1409887097,
    1621325613,
    1621325630,
    1621325636,
    9033418696,
    1409887098,
    1621325641,
    1409887096
  ],
  "tags": {
    "landuse": "cemetery",
    "religion": "christian",
    "wikidata": "Q110341829"
  }
},
{
  "type": "way",
  "id": 127417492,
  "center": {
    "lat": 47.4834232,
    "lon": 7.7398400
  },
  "nodes": [
    1410382134,
    11939056007,
    11939056006,
    4747618627,
    1410382131,
    4747618622,
    4747618628,
    1410382133,
    4776541313,
    4776541312,
    4776541270,
    1410382134
  ],
  "tags": {
    "landuse": "cemetery",
    "name": "Friedhof Liestal"
  }
},
{
  "type": "way",
  "id": 128526785,
  "center": {
    "lat": 47.9896936,
    "lon": 7.5542700
  },