{
  "version": 0.6,
  "generator": "Overpass API 0.7.62.8 e802775f",
  "osm3s": {
    "timestamp_osm_base": "2025-11-02T22:56:22Z",
    "copyright": "The data included in this document is from www.openstreetmap.org. The data is made available under ODbL."
  },
  "elements": [

{
  "type": "way",
  "id": 40493498,
  "center": {
    "lat": 55.0606664,
    "lon": 15.1322708
  },
  "nodes": [
    490844212,
    3416119117,
    490844215,
    5910285040,
    5910285035,
    490844221,
    3416119123,
    3416119124,
    490844228,
    3416119131,
    10648146720,
    3416119128,
    3416119130,
    10648146721,
    490844212
  ],
  "tags": {
    "amenity": "grave_yard",
    "barrier": "wall",
    "name": "Nexø Gamle Kirkegård",
    "religion": "christian"
  }
},
{
  "type": "way",
  "id": 137137485,
  "center": {
    "lat": 55.1340733,
    "lon": 15.1413863
  },
  "nodes": [
    1504264868,
    5122628769,
    1504264867,
    1504264860,
    1504264856,
    4291648295,
    1504264858,
    3656979828,
    893357154,
    1786943811,
    1786943799,
    1786943802,
    1786943805,
    1504264849,
    893357135,
    893356690,
    1504264850,
    1504264855,
    893357621,
    3656979829,
    1504264868
  ],
  "tags": {
    "landuse": "cemetery"
  }
},
{
  "type": "way",
  "id": 141223282,
  "center": {
    "lat": 55.0550275,
    "lon": 15.1182487
  },
  "nodes": [
    1545933727,
    1545933823,
    1545933743,
    10648146724,
    1545933730,
    10648152035,
    10648146723,
    1545934028,
    10648146755,
    1545933921,
    1545933795,
    10648146725,
    10648146727,
    1545933998,
    1545933727
  ],
  "tags": {
    "landuse": "cemetery",
    "name": "Nexø Kirkegård"
  }
},
{
  "type": "way",
  "id": 163679889,
  "center": {
    "lat": 55.1172963,
    "lon": 15.1047830
  },
  "nodes": [
    1753575333,
    3656979806,
    1753575325,
    1753575513,
    1753575371,
    5247734781,
    1753575373,
    1753575329,
    3656979803,
    1753575333
  ],
  "tags": {
    "amenity": "grave_yard",
    "name": "Ibsker Kirkegård"
  }
},
{
  "type": "way",
  "id": 164876120,
  "center": {
    "lat": 55.1377880,
    "lon": 15.0163605
  },
  "nodes": [
    1764717604,
    5264568309,
    2174118089,
    1764717548,
    2174118095,
    5264568308,
    1184306830,
    1764717555,
    1764717550,
    1764717560,
    6679745431,
    1764717604
  ],
  "tags": {
    "amenity": "grave_yard"
  }
},
{
  "type": "way",
  "id": 172614280,
  "center": {
    "lat": 55.0618805,
    "lon": 15.0729555
  },
  "nodes": [
    1835024706,
    1874124163,
    6522018228,
    10652424961,
    6522018232,
    6522018229,
    6522018231,
    10652424959,
    6522018230,
    1835024706
  ],
  "tags": {
    "amenity": "grave_yard",
    "barrier": "wall",
    "name": "Bodilsker Kirkegård"
  }
},
{
  "type": "way",
  "id": 172620962,
  "center": {
    "lat": 55.0226617,
    "lon": 15.0404234
  },
  "nodes": [
    1835084073,
    1835083977,
    1835083970,
    1835083954,
    1835083947,
    1835083945,
    10648240226,
    1835083936,
    10648240256,
    10648240259,
    10648240244,
    10648240240,
    1835083958,
    1835083999,
    1835084009,
    1835084019,
    1835084081,
    1835084073
  ],
  "tags": {
    "amenity": "grave_yard",
    "barrier": "wall",
    "name": "Poulsker Kirkegård"
  }
},
{
  "type": "way",
  "id": 369424452,
  "center": {
    "lat": 55.3196908,
    "lon": 15.1878895
  },
  "nodes": [
    2349143831,
    2349143829,
    2349143801,
    2349143826,
    8464870284,
    2349143831
  ],
  "tags": {
    "amenity": "grave_yard",
    "name": "Christiansø Kirkegård"
  }
},
{
  "type": "way",
  "id": 669329887,
  "center": {
    "lat": 55.3212849,
    "lon": 15.1870376
  },
  "nodes": [
    6267819220,
    6267819219,
    6267819218,
    6267819217,
    6267819220
  ],
  "tags": {
    "barrier": "wall",
    "landuse": "cemetery"
  }
},
{
  "type": "way",
  "id": 1042534763,
  "center": {
    "lat": 55.0908936,
    "lon": 15.0764823
  },
  "nodes": [
    9596585761,
    9596585760,
    9596585759,
    9596585758,
    9596585757,
    9596585756,
    9596585755,
    9596585754,
    9596585753,
    9596585752,
    9596585761
  ],
  "tags": {
    "cemetery": "wood",
    "landuse": "cemetery",
    "name": "Paradisbakkerne Skovbegravelsesplads",
    "religion": "none"
  }
}

  ]
}
