{
  "version": 0.6,
  "generator": "Overpass API 0.7.62.8 e802775f",
  "osm3s": {
    "timestamp_osm_base": "2025-11-02T22:55:22Z",
    "copyright": "The data included in this document is from www.openstreetmap.org. The data is made available under ODbL."
  },
  "elements": [

{
  "type": "way",
  "id": 4795581,
  "center": {
    "lat": 51.8034702,
    "lon": 10.3405033
  },
  "nodes": [
    69362539,
    5115892739,
    5115892738,
    69362641,
    552240226,
    5101214651,
    30768107,
    5129248687,
    60223202,
    5129248686,
    5128990822,
    5280362975,
    5280362976,
    5280362972,
    30768104,
    5280362968,
    5280362969,
    5280362970,
    5280362965,
    5280362964,
    1921737806,
    60223197,
    60223196,
    60223195,
    30768101,
    1930792794,
    1930792799,
    30768098,
    1838865791,
    60224897,
    1921737811,
    5113655632,
    30768087,
    5113655633,
    5107972143,
    5107972144,
    30768095,
    1921737813,
    69362779,
    69362530,
    5115892737,
    69362539
  ],
  "tags": {
    "heritage": "yes",
    "landuse": "cemetery",
    "name": "Neuer Friedhof",
    "wikidata": "Q60666243"
  }
},
{
  "type": "way",
  "id": 4933682,
  "center": {
    "lat": 51.8298452,
    "lon": 10.4271854
  },
  "nodes": [
    2360741722,
    7129011085,
    32461044,
    32461023,
    32461037,
    2360741722
  ],
  "tags": {
    "denomination": "lutheran",
    "landuse": "cemetery",
    "religion": "christian"
  }
},
{
  "type": "way",
  "id": 5009360,
  "center": {
    "lat": 51.8189127,
    "lon": 10.3399725
  },
  "nodes": [
    33325439,
    5167898907,
    5167898906,
    33325440,
    1661376614,
    1661376594,
    33325427,
    33325428,
    33325429,
    33325430,
    33325431,
    33325432,
    33325433,
    33325434,
    86848701,
    33325435,
    33325436,
    33420387,
    33325437,
    3001394651,
    4770368595,
    4770368596,
    86854778,
    33325439
  ],
  "tags": {
    "amenity": "grave_yard",
    "landuse": "cemetery"
  }
},
{
  "type": "way",
  "id": 14865364,
  "center": {
    "lat": 51.8582108,
    "lon": 10.0803541
  },
  "nodes": [
    146847774,
    8552169023,
    146847781,
    146847790,
    146847797,
    146847774
  ],
  "tags": {
    "landuse": "cemetery"
  }
},
{
  "type": "way",
  "id": 21867536,
  "center": {
    "lat": 51.8274402,
    "lon": 10.7541728
  },
  "nodes": [
    248072392,
    729769872,
    246844382,
    4936367138,
    6022730699,
    4936367139,
    4936367140,
    729769864,
    246844380,
    246844429,
    243190215,
    248072389,
    11551959854,
    11551959806,
    10043459970,
    845319156,
    324353205,
    3677746137,
    3677746136,
    3677746138,
    248072336,
    3677746155,
    248072392
  ],
  "tags": {
    "landuse": "cemetery",
    "name": "Zentralfriedhof Wernigerode",
    "religion": "christian",
    "wikidata": "Q40719204",
    "wikipedia": "de:Zentralfriedhof Wernigerode"
  }
},
{
  "type": "way",
  "id": 22812456,
  "center": {
    "lat": 51.4989848,
    "lon": 10.0139473
  },
  "nodes": [
    245409528,
    245409530,
    5777415141,
    245409531,
    5731907166,
    245409532,
    5731907156,
    245409528
  ],
  "tags": {
    "landuse": "cemetery",
    "name": "Friedhof Klein Lengden",
    "operator": "Gemeinde Gleichen"
  }
},
{
  "type": "way",
  "id": 23007862,
  "center": {
    "lat": 51.9734725,
    "lon": 10.7194172
  },
  "nodes": [
    248050229,
    2892454609,
    12222992825,
    12222992826,
    2892454608,
    12222992824,
    12222992823,
    2892454607,
    993566056,
    993566075,
    3494532405,
    3494532406,
    979867299,
    979867300,
    979867301,
    10053101649,
    248050229
  ],
  "tags": {
    "landuse": "cemetery",
    "name": "Friedhof Osterwieck"
  }
},
{
  "type": "way",
  "id": 23152103,
  "center": {
    "lat": 51.2562692,
    "lon": 10.3912458
  },
  "nodes": [
    1956571410,
    1956571404,
    250116854,
    250116881,
    250116838,
    250116866,
    6433687772,
    1956571410
  ],
  "tags": {
    "denomination": "protestant",
    "landuse": "cemetery",
    "name": "Friedhof Lengefeld",
    "religion": "christian"
  }
},
{
  "type": "way",
  "id": 24381689,
  "center": {
    "lat": 51.1638629,
    "lon": 10.0723116
  },
  "nodes": [
    264553739,
    264553740,
    264553741,
    9830630812,
    264553742,
    264553743,
    264553744,
    264553745,
    264553739
  ],
  "tags": {
    "FIXME": "extrapolation please confirm size",
    "landuse": "cemetery",
    "name": "Friedhof Oberdünzebach",
    "religion": "christian",
    "source": "extrapolation"
  }
},
{
  "type": "way",
  "id": 24518198,
  "center": {
    "lat": 51.5086762,
    "lon": 10.0377538
  },
  "nodes": [
    5777134531,
    5893552567,
    5777134530,
    266624092,
    266624071,
    266624175,
    5777134531
  ],
  "tags": {
    "landuse": "cemetery",
    "name": "Friedhof Groß Lengden",
    "opening_hours": "Apr 1-Oct 31 Mo-Su,PH 07:00-22:00; Nov 1-Mar 31 Mo-Su,PH 08:00-17:00",
    "operator": "Gemeinde Gleichen"
  }
},
{
  "type": "way",
  "id": 24559610,
  "center": {
    "lat": 51.6485725,
    "lon": 10.3371682
  },
  "nodes": [
    267034728,
    2893154201,
    1363319067,
    2893154203,
    1363319068,
    8528462943,
    2493763602,
    267034729,
    1969457918,
    1969457911,
    267034730,
    1969457912,
    1969457915,
    267034731,
    1363319032,
    267034732,
    267034733,
    267034728
  ],
  "tags": {
    "landuse": "cemetery",
    "name": "Friedhof Herzberg"
  }
},
{
  "type": "way",
  "id": 24593094,
  "center": {
    "lat": 51.9155315,
    "lon": 10.4156673
  },
  "nodes": [
    267344204,
    267344205,
    443697866,
    267344206,
    946062578,
    267344207,
    919741428,
    2952601088,
    2952601089,
    267344208,
    946062586,
    946062594,
    946062596,
    267344209,
    267344210,
    946062606,
    705233298,
    946062615,
    705233228,
    705233201,
    946062626,
    946062628,
    705233173,
    705233273,
    946062648,
    946062656,
    2887081895,
    11466740590,
    267344204
  ],
  "tags": {
    "landuse": "cemetery"
  }
},
{
  "type": "way",
  "id": 24660540,
  "center": {
    "lat": 51.5329901,
    "lon": 10.7879519
  },
  "nodes": [
    268037507,
    268037136,
    268037464,
    3939268624,
    3939268626,
    268037507
  ],
  "tags": {
    "denomination": "protestant",
    "landuse": "cemetery",
    "name": "Friedhof Krimderode",
    "religion": "christian"
  }
},
{
  "type": "way",
  "id": 24699623,
  "center": {
    "lat": 51.7301492,
    "lon": 10.2592909
  },
  "nodes": [
    268471781,
    268471782,
    268471783,
    268471784,
    268471785,
    268471786,
    5787379834,
    5787379833,
    5787379832,
    5787379831,
    268471787,
    268471788,
    268471789,
    5787379830,
    268471790,
    2493888407,
    268471791,
    268471792,
    6307726091,
    2596874591,
    268471793,
    281442320,
    5787379826,
    5787379827,
    5787379828,
    281442325,
    5787379829,
    281442321,
    268471794,
    268989770,
    12121072994,
    12121072993,
    268471795,
    268471796,
    268471797,
    268471798,
    268471799,
    270493224,
    5787379822,
    5787379823,
    5787379825,
    5787379824,
    268471800,
    11735129139,
    11735129138,
    268471801,
    11735129137,
    268471781
  ],
  "tags": {
    "landuse": "cemetery",
    "name": "Friedhof Osterode am Harz"
  }
},
{
  "type": "way",
  "id": 24938327,
  "center": {
    "lat": 51.7732806,
    "lon": 10.9070221
  },
  "nodes": [
    55422772,
    8632259723,
    1260048123,
    8632259741,
    8632259740,
    2201383822,
    1260048141,
    1260048140,
    9399791603,
    271005657,
    271005660,
    271005662,
    1260048130,
    271005664,
    420421465,
    1260048094,
    2201383826,
    2205152901,
    8632259709,
    1251612434,
    55422772
  ],
  "tags": {
    "landuse": "cemetery"
  }
},
{
  "type": "way",
  "id": 25017343,
  "center": {
    "lat": 51.2427558,
    "lon": 10.6534571
  },
  "nodes": [
    271961253,
    7867265777,
    271961255,
    271961257,
    271961259,
    271961253
  ],
  "tags": {
    "landuse": "cemetery"
  }
},
{
  "type": "way",
  "id": 25459798,
  "center": {
    "lat": 51.3715653,
    "lon": 10.1213070
  },
  "nodes": [
    277438985,
    277438986,
    277438987,
    277438988,
    277438989,
    6834441110,
    6834441107,
    277438990,
    282530626,
    282530627,
    277438985
  ],
  "tags": {
    "check_date": "2024-12-12",
    "landuse": "cemetery",
    "name": "Hauptfriedhof"
  }
},
{
  "type": "way",
  "id": 25728693,
  "center": {
    "lat": 51.5989487,
    "lon": 10.5606027
  },
  "nodes": [
    280551878,
    8504072487,
    8504072485,
    280551884,
    280551889,
    280551880,
    280551883,
    280551885,
    8504072480,
    3429406900,
    280551879,
    280551878
  ],
  "tags": {
    "landuse": "cemetery"
  }
},
{
  "type": "way",
  "id": 25740038,
  "center": {
    "lat": 51.5611423,
    "lon": 10.5544997
  },
  "nodes": [
    280706888,
    280706890,
    2128919590,
    280706892,
    280706894,
    280706900,
    280706902,
    280706905,
    280706888
  ],
  "tags": {
    "denomination": "protestant",
    "landuse": "cemetery",
    "name": "Tettenborner Friedhof",
    "religion": "christian"
  }
},
{
  "type": "way",
  "id": 25880822,
  "center": {
    "lat": 51.7435435,
    "lon": 10.2215540
  },
  "nodes": [
    282317879,
    282317880,
    282317881,
    10612044260,
    6910685536,
    6910685537,
    6910685540,
    10612044262,
    6910685539,
    6910685538,
    282317883,
    282317879
  ],
  "tags": {
    "landuse": "cemetery",
    "religion": "christian"
  }
},
{
  "type": "way",
  "id": 25903738,
  "center": {
    "lat": 51.6897305,
    "lon": 10.2923578
  },
  "nodes": [
    282565413,
    282565416,
    282565417,
    282565414,
    282565413
  ],
  "tags": {
    "landuse": "cemetery"
  }
},
{
  "type": "way",
  "id": 26118845,
  "center": {
    "lat": 51.7037025,
    "lon": 10.2068223
  },
  "nodes": [
    285933946,
    285933947,
    285933948,
    285933949,
    285933946
  ],
  "tags": {
    "landuse": "cemetery"
  }
},
{
  "type": "way",
  "id": 26121233,
  "center": {
    "lat": 51.7082341,
    "lon": 10.0155072
  },
  "nodes": [
    285958321,
    4601342356,
    285958322,
    1929266619,
    9961041320,
    4601342355,
    1929266610,
    12925469792,
    1929266631,
    1929266612,
    2061296470,
    4611769591,
    4611769592,
    285958324,
    4624903845,
    4624903844,
    4601342343,
    285958325,
    8025328653,
    8025328659,
    4601342342,
    10246131986,
    10246131983,
    10246131984,
    10246131985,
    285958321
  ],
  "tags": {
    "landuse": "cemetery",
    "name": "Friedhof Northeim"
  }
},
{
  "type": "way",
  "id": 26328216,
  "center": {
    "lat": 51.5927149,
    "lon": 10.4774047
  },
  "nodes": [
    2491150600,
    4692545252,
    4692545239,
    288449691,
    2491150600
  ],
  "tags": {
    "denomination": "lutheran",
    "landuse": "cemetery",
    "religion": "christian"
  }
},
{
  "type": "way",
  "id": 26340973,
  "center": {
    "lat": 51.8073980,
    "lon": 10.9134138
  },
  "nodes": [
    288587708,
    288587709,
    393190951,
    4002961744,
    9418158180,
    288587710,
    3594845618,
    393190949,
    288587712,
    3594845619,
    288587708
  ],
  "tags": {
    "landuse": "cemetery"
  }
},
{
  "type": "way",
  "id": 26350236,
  "center": {
    "lat": 51.7878210,
    "lon": 10.9765906
  },
  "nodes": [
    288701284,
    10292255957,
    288701287,
    10292255958,
    288701293,
    288701296,
    288701299,
    288701302,
    288701303,
    288701304,
    288701305,
    288701307,
    795686132,
    795686138,
    10292217738,
    1251612352,
    10292255914,
    10292255913,
    795686032,
    10292217748,
    10292217749,
    795686144,
    10292217750,
    10292217751,
    795693725,
    795686148,
    10292255971,
    10292255915,
    288701310,
    795686151,
    288701280,
    811163382,
    2467919015,
    811163386,
    288701284
  ],
  "tags": {
    "addr:city": "Blankenburg (Harz)",
    "addr:housenumber": "26",
    "addr:postcode": "38889",
    "addr:street": "Helsunger Straße",
    "landuse": "cemetery",
    "name": "Waldfriedhof",
    "wikidata": "Q93705396"
  }
},
{
  "type": "way",
  "id": 26841100,
  "center": {
    "lat": 51.6215339,
    "lon": 10.6237360
  },
  "nodes": [
    294790055,
    7653998605,
    2237416520,
    294790057,
    635701879,
    294790059,
    2473245787,
    294790061,
    2237416519,
    7653998606,
    294790055
  ],
  "tags": {
    "landuse": "cemetery"
  }
},
{
  "type": "way",
  "id": 26950822,
  "center": {
    "lat": 51.4917755,
    "lon": 10.2628543
  },
  "nodes": [
    295320334,
    295320321,
    295203528,
    12943652526,
    295320324,
    295320325,
    295320326,
    12943652525,
    12943652524,
    295320328,
    10263255793,
    455904944,
    295320329,
    2272909234,
    2272909230,
    295320333,
    295320334
  ],
  "tags": {
    "amenity": "grave_yard",
    "denomination": "catholic",
    "landuse": "cemetery",
    "name": "Friedhof Gerblingerode",
    "religion": "christian"
  }
},
{
  "type": "way",
  "id": 26963230,
  "center": {
    "lat": 51.5145050,
    "lon": 10.9437035
  },
  "nodes": [
    295466139,
    295466142,
    295466145,
    295466149,
    295466152,
    295466156,
    4107462664,
    295466187,
    295466185,
    2193952535,
    295467067,
    295466139
  ],
  "tags": {
    "landuse": "cemetery"
  }
},
{
  "type": "way",
  "id": 27808143,
  "center": {
    "lat": 51.9192309,
    "lon": 10.4327704
  },
  "nodes": [
    305331998,
    305331999,
    305332001,
    305332002,
    305332003,
    305332004,
    305332006,
    305332007,
    305332008,
    305332009,
    305332011,
    305332012,
    305332013,
    305332015,
    305332016,
    305332017,
    305332018,
    305332020,
    305331998
  ],
  "tags": {
    "landuse": "cemetery"
  }
},
{
  "type": "way",
  "id": 27808163,
  "center": {
    "lat": 51.9187235,
    "lon": 10.4391293
  },
  "nodes": [
    305332101,
    2832479059,
    305332103,
    305332104,
    305332105,
    305332106,
    2072614049,
    305332107,
    305332116,
    305332115,
    305332123,
    305332114,
    305332109,
    305332110,
    305332111,
    305332112,
    305332113,
    305332101
  ],
  "tags": {
    "landuse": "cemetery"
  }
},
{
  "type": "way",
  "id": 27852820,
  "center": {
    "lat": 51.7045243,
    "lon": 10.1563156
  },
  "nodes": [
    305796322,
    305796329,
    305796330,
    305796323,
    7048679808,
    305796322
  ],
  "tags": {
    "landuse": "cemetery"
  }
},
{
  "type": "way",
  "id": 28022912,
  "center": {
    "lat": 51.4741792,
    "lon": 10.0537814
  },
  "nodes": [
    307709360,
    9064543904,
    9064543905,
    307709363,
    9064543908,
    307709365,
    307709366,
    307709368,
    11086341424,
    307709371,
    307709373,
    307709360
  ],
  "tags": {
    "addr:city": "Gleichen",
    "addr:country": "DE",
    "addr:housenumber": "10",
    "addr:postcode": "37130",
    "addr:street": "Appenröder Weg",
    "addr:suburb": "Gelliehausen",
    "contact:website": "https://apostel-gleichen.wir-e.de/friedhoefe",
    "denomination": "lutheran",
    "landuse": "cemetery",
    "name": "Friedhof Gelliehausen",
    "operator": "Apostel-Kirchengemeinde in Gleichen",
    "religion": "christian"
  }
},
{
  "type": "way",
  "id": 28051357,
  "center": {
    "lat": 51.5178782,
    "lon": 10.7362772
  },
  "nodes": [
    4225121241,
    4225109451,
    5225953167,
    4225109449,
    4225109453,
    4225121241
  ],
  "tags": {
    "denomination": "protestant",
    "landuse": "cemetery",
    "name": "Friedhof",
    "religion": "christian"
  }
},
{
  "type": "way",
  "id": 28678377,
  "center": {
    "lat": 51.1507701,
    "lon": 9.9998541
  },
  "nodes": [
    315195862,
    322903213,
    321516741,
    321516745,
    1908912326,
    321516754,
    315195854,
    12090353222,
    315195856,
    315195859,
    315195862
  ],
  "tags": {
    "landuse": "cemetery",
    "name": "Friedhof Reichensachsen",
    "religion": "christian"
  }
},
{
  "type": "way",
  "id": 28826030,
  "center": {
    "lat": 51.4905545,
    "lon": 10.0910402
  },
  "nodes": [
    316923692,
    316923693,
    5684755481,
    5684755480,
    338931119,
    5684755477,
    5684755476,
    262138687,
    5684755479,
    5684755478,
    316923696,
    300558731,
    8740404802,
    316923692
  ],
  "tags": {
    "contact:website": "https://apostel-gleichen.wir-e.de/friedhoefe",
    "landuse": "cemetery",
    "name": "Friedhof Wöllmarshausen",
    "operator": "Apostel-Kirchengemeinde in Gleichen"
  }
},
{
  "type": "way",
  "id": 29218225,
  "center": {
    "lat": 51.9551428,
    "lon": 10.4359794
  },
  "nodes": [
    3678268793,
    321376347,
    321376348,
    3669836258,
    3678268793
  ],
  "tags": {
    "amenity": "grave_yard",
    "name": "Friedhof Hahndorf",
    "religion": "christian"
  }
},
{
  "type": "way",
  "id": 29240493,
  "center": {
    "lat": 51.5399831,
    "lon": 10.6577122
  },
  "nodes": [
    321603623,
    3865375880,
    3865375881,
    3865375882,
    321603623
  ],
  "tags": {
    "amenity": "grave_yard",
    "denomination": "evangelical",
    "religion": "christian"
  }
},
{
  "type": "way",
  "id": 29311308,
  "center": {
    "lat": 51.5074592,
    "lon": 10.2636934
  },
  "nodes": [
    322486786,
    387487450,
    2272888706,
    9818579495,
    2272888776,
    387487451,
    322486787,
    387486289,
    2272888704,
    387485767,
    387485775,
    322486788,
    322486789,
    387485903,
    387486288,
    390953553,
    390953554,
    322486786
  ],
  "tags": {
    "landuse": "cemetery",
    "name": "St. Paulus-Friedhof"
  }
},
{
  "type": "way",
  "id": 29546543,
  "center": {
    "lat": 51.1859301,
    "lon": 10.1673727
  },
  "nodes": [
    325639630,
    325639633,
    325639634,
    1866055072,
    4044315947,
    1866055081,
    1866055078,
    2480248633,
    2480248632,
    325639630
  ],
  "tags": {
    "landuse": "cemetery"
  }
},
{
  "type": "way",
  "id": 30693644,
  "center": {
    "lat": 51.2063485,
    "lon": 10.0622619
  },
  "nodes": [
    339413446,
    1958825558,
    1888678328,
    1888678330,
    9811260782,
    9811260779,
    9857395431,
    9857395432,
    9857395434,
    9811260777,
    9811260776,
    339413446
  ],
  "tags": {
    "denomination": "protestant",
    "landuse": "cemetery",
    "name": "Friedhof Grebendorf",
    "religion": "christian"
  }
},
{
  "type": "way",
  "id": 32008859,
  "center": {
    "lat": 51.4659082,
    "lon": 10.9875611
  },
  "nodes": [
    358970118,
    3975325656,
    358995082,
    358970122,
    358970124,
    358995085,
    358970126,
    358970118
  ],
  "tags": {
    "landuse": "cemetery"
  }
},
{
  "type": "way",
  "id": 32392995,
  "center": {
    "lat": 51.1457433,
    "lon": 10.0286016
  },
  "nodes": [
    364423576,
    364423573,
    364423659,
    364423664,
    9824228017,
    364423579,
    364423576
  ],
  "tags": {
    "landuse": "cemetery",
    "name": "Neuer Friedhof"
  }
},
{
  "type": "way",
  "id": 32594534,
  "center": {
    "lat": 51.5172264,
    "lon": 10.2490216
  },
  "nodes": [
    366535283,
    366535284,
    366535285,
    366535286,
    366535283
  ],
  "tags": {
    "amenity": "grave_yard",
    "historic": "yes",
    "name": "ehem. Judenfriedhof",
    "wikidata": "Q1367650"
  }
},
{
  "type": "way",
  "id": 32911670,
  "center": {
    "lat": 51.3726812,
    "lon": 10.1338746
  },
  "nodes": [
    370647040,
    6762387207,
    370647046,
    370647048,
    370647050,
    370647040
  ],
  "tags": {
    "access": "no",
    "amenity": "grave_yard",
    "check_date": "2024-12-14",
    "historic": "grave_yard",
    "name": "Jüdischer Friedhof",
    "religion": "jewish",
    "wikidata": "Q20184579",
    "wikipedia": "de:Liste der Kulturdenkmale in Heilbad Heiligenstadt"
  }
},
{
  "type": "way",
  "id": 34213100,
  "center": {
    "lat": 51.3958671,
    "lon": 10.0036427
  },
  "nodes": [
    392376624,
    3759405473,
    392376625,
    3759405458,
    392376627,
    392376629,
    392376624
  ],
  "tags": {
    "area": "yes",
    "landuse": "cemetery",
    "name": "Friedhof Rustenfelde"
  }
},
{
  "type": "way",
  "id": 35071514,
  "center": {
    "lat": 51.2363687,
    "lon": 10.9186352
  },
  "nodes": [
    1911157908,
    1911157904,
    4763688681,
    4759070542,
    411332161,
    1911157908
  ],
  "tags": {
    "denomination": "protestant",
    "landuse": "cemetery",
    "religion": "christian",
    "wikidata": "Q136525993"
  }
},
{
  "type": "way",
  "id": 35204926,
  "center": {
    "lat": 51.1772233,
    "lon": 10.1275378
  },
  "nodes": [
    411421061,
    412780623,
    411421060,
    2030064450,
    412780622,
    411249726,
    411421061
  ],
  "tags": {
    "landuse": "cemetery",
    "name": "Friedhof Aue"
  }
},
{
  "type": "way",
  "id": 35205307,
  "center": {
    "lat": 51.8946529,
    "lon": 10.5354234
  },
  "nodes": [
    412785183,
    8252864871,
    8252864870,
    8252864869,
    412785184,
    8254017120,
    412785185,
    6681822063,
    412785186,
    412785187,
    412785188,
    412785189,
    412785190,
    6681822061,
    8252864864,
    8252864868,
    412785191,
    8252864865,
    412785183
  ],
  "tags": {
    "denomination": "protestant",
    "landuse": "cemetery",
    "religion": "christian"
  }
},
{
  "type": "way",
  "id": 35304315,
  "center": {
    "lat": 51.4640066,
    "lon": 10.9387929
  },
  "nodes": [
    8494304608,
    8494304609,
    8494304611,
    8494304610,
    8494304608
  ],
  "tags": {
    "landuse": "cemetery"
  }
},
{
  "type": "way",
  "id": 35803771,
  "center": {
    "lat": 51.8899588,
    "lon": 10.1617339
  },
  "nodes": [
    418622246,
    2211106105,
    7660849884,
    7660849874,
    2426743281,
    2211106094,
    2426743280,
    7492765900,
    7492754233,
    13234959652,
    418622248,
    1100546006,
    7492754228,
    7492754229,
    7492754211,
    418622249,
    1102709214,
    6970807760,
    6970807761,
    7492754232,
    7492754231,
    6037483680,
    418622251,
    7492754234,
    7492765897,
    418622246
  ],
  "tags": {
    "landuse": "cemetery",
    "name": "Friedhof der Stadt Seesen"
  }
},
{
  "type": "way",
  "id": 37288362,
  "center": {
    "lat": 51.7968240,
    "lon": 10.1866356
  },
  "nodes": [
    434476732,
    434476737,
    4470170847,
    4470170846,
    4470170848,
    434476736,
    434476734,
    5196810281,
    5196810282,
    5196810283,
    5196810284,
    5196810278,
    5196810280,
    5196810279,
    4470170850,
    434476732
  ],
  "tags": {
    "landuse": "cemetery"
  }
},
{
  "type": "way",
  "id": 38146996,
  "center": {
    "lat": 51.3418351,
    "lon": 10.5961162
  },
  "nodes": [
    3761702347,
    4533775659,
    10889841487,
    1602183604,
    448989505,
    4533775682,
    3761702347
  ],
  "tags": {
    "denomination": "protestant",
    "landuse": "cemetery",
    "name": "Friedhof Holzthaleben",
    "religion": "christian"
  }
},
{
  "type": "way",
  "id": 38147161,
  "center": {
    "lat": 51.3563806,
    "lon": 10.7024496
  },
  "nodes": [
    448996976,
    1591497454,
    448996978,
    448996979,
    448996981,
    448996976
  ],
  "tags": {
    "landuse": "cemetery"
  }
},
{
  "type": "way",
  "id": 38212592,
  "center": {
    "lat": 51.2753890,
    "lon": 10.4811546
  },
  "nodes": [
    450178691,
    450178693,
    450178695,
    450178697,
    6149640063,
    450178699,
    450178691
  ],
  "tags": {
    "landuse": "cemetery"
  }
},
{
  "type": "way",
  "id": 38477500,
  "center": {
    "lat": 51.0026154,
    "lon": 10.3127765
  },
  "nodes": [
    454879753,
    454879755,
    454879756,
    454879757,
    454879753
  ],
  "tags": {
    "denomination": "lutheran",
    "landuse": "cemetery",
    "religion": "christian"
  }
},
{
  "type": "way",
  "id": 38496512,
  "center": {
    "lat": 51.8681486,
    "lon": 10.1760358
  },
  "nodes": [
    455375528,
    455375532,
    455375536,
    455375540,
    455375541,
    455375555,
    455375560,
    455375562,
    8084378707,
    455375579,
    7455218371,
    455375528
  ],
  "tags": {
    "landuse": "cemetery"
  }
},
{
  "type": "way",
  "id": 38757835,
  "center": {
    "lat": 51.2156525,
    "lon": 10.2203520
  },
  "nodes": [
    459550833,
    1864655756,
    1864655691,
    1864655690,
    1864655723,
    1864655726,
    1864655747,
    12496120522,
    1129248683,
    1129248748,
    459550834,
    12496120525,
    1129248700,
    12496120524,
    459550837,
    459550840,
    459550833
  ],
  "tags": {
    "denomination": "roman_catholic",
    "landuse": "cemetery",
    "religion": "christian",
    "wikidata": "Q130396931"
  }
},
{
  "type": "way",
  "id": 39160449,
  "center": {
    "lat": 51.8542965,
    "lon": 10.1334620
  },
  "nodes": [
    469088872,
    2083660334,
    469088873,
    469088874,
    469088875,
    7947993652,
    469088872
  ],
  "tags": {
    "landuse": "cemetery"
  }
},
{
  "type": "way",
  "id": 39220046,
  "center": {
    "lat": 51.2538777,
    "lon": 10.2094676
  },
  "nodes": [
    469827844,
    1311723898,
    1885662304,
    469827846,
    9720357240,
    469827848,
    983723697,
    469827850,
    1311723442,
    1311723561,
    1311723304,
    1311723402,
    1311724045,
    469827844
  ],
  "tags": {
    "denomination": "catholic",
    "landuse": "cemetery",
    "religion": "christian"
  }
},
{
  "type": "way",
  "id": 39525676,
  "center": {
    "lat": 51.5211207,
    "lon": 10.2212135
  },
  "nodes": [
    473531215,
    9466683529,
    473531218,
    473531220,
    12982488770,
    473531222,
    2272766161,
    2272766146,
    12982488780,
    2272766152,
    473531215
  ],
  "tags": {
    "landuse": "cemetery",
    "name": "Friedhof Westerode",
    "religion": "christian"
  }
},
{
  "type": "way",
  "id": 39831583,
  "center": {
    "lat": 51.0963750,
    "lon": 10.5506239
  },
  "nodes": [
    477488774,
    477488776,
    477488779,
    477488787,
    8606754073,
    477488774
  ],
  "tags": {
    "amenity": "grave_yard",
    "name": "Friedhof"
  }
},
{
  "type": "way",
  "id": 40070284,
  "center": {
    "lat": 51.6527964,
    "lon": 10.2387181
  },
  "nodes": [
    482223271,
    482223275,
    7658705130,
    7658702012,
    482223277,
    482223273,
    495345682,
    482223271
  ],
  "tags": {
    "denomination": "protestant",
    "fixme": "yes",
    "landuse": "cemetery",
    "religion": "christian"
  }
},
{
  "type": "way",
  "id": 40931684,
  "center": {
    "lat": 51.8647895,
    "lon": 10.0578055
  },
  "nodes": [
    498478374,
    498478375,
    498478376,
    4491234513,
    498478377,
    498478374
  ],
  "tags": {
    "landuse": "cemetery"
  }
},
{
  "type": "way",
  "id": 41281361,
  "center": {
    "lat": 51.6696846,
    "lon": 10.2908435
  },
  "nodes": [
    504715572,
    504715573,
    504715574,
    12285945473,
    12285945474,
    504715576,
    1292136975,
    504715572
  ],
  "tags": {
    "landuse": "cemetery",
    "religion": "christian"
  }
},
{
  "type": "way",
  "id": 43833984,
  "center": {
    "lat": 51.4429328,
    "lon": 10.4409903
  },
  "nodes": [
    556074080,
    556074096,
    6886955417,
    697436713,
    697436710,
    1201689223,
    556074080
  ],
  "tags": {
    "landuse": "cemetery",
    "name": "Friedhof Haynrode"
  }
},
{
  "type": "way",
  "id": 44007773,
  "center": {
    "lat": 51.9840439,
    "lon": 10.5202564
  },
  "nodes": [
    559573839,
    559573840,
    559573842,
    559573844,
    559573839
  ],
  "tags": {
    "landuse": "cemetery"
  }
},
{
  "type": "way",
  "id": 44278619,
  "center": {
    "lat": 51.0238447,
    "lon": 10.2190795
  },
  "nodes": [
    562625060,
    562625062,
    290020714,
    7175685157,
    7175685156,
    7609152709,
    562625066,
    562625060
  ],
  "tags": {
    "denomination": "lutheran",
    "landuse": "cemetery",
    "religion": "christian"
  }
},
{
  "type": "way",
  "id": 44829055,
  "center": {
    "lat": 51.8051753,
    "lon": 10.0403402
  },
  "nodes": [
    568340475,
    568340476,
    568340477,
    568340470,
    568340468,
    2043168034,
    568340469,
    568340471,
    2043168080,
    2043168092,
    2043168096,
    568340472,
    568340473,
    568340474,
    568340475
  ],
  "tags": {
    "landuse": "cemetery",
    "religion": "christian"
  }
},
{
  "type": "way",
  "id": 44842350,
  "center": {
    "lat": 51.0127328,
    "lon": 10.0043727
  },
  "nodes": [
    568488109,
    568488110,
    568488111,
    568488112,
    568488113,
    568488122,
    568488128,
    568488129,
    568488130,
    568488131,
    568488132,
    568488114,
    568488109
  ],
  "tags": {
    "landuse": "cemetery",
    "name": "Friedhof Blankenbach"
  }
},
{
  "type": "way",
  "id": 45205000,
  "center": {
    "lat": 51.7289402,
    "lon": 10.2419566
  },
  "nodes": [
    573820097,
    573820098,
    6831748243,
    6836859593,
    573820044,
    573820050,
    573820097
  ],
  "tags": {
    "amenity": "grave_yard",
    "name": "Jüdischer Friedhof Seesener Straße",
    "religion": "jewish"
  }
},
{
  "type": "way",
  "id": 46159240,
  "center": {
    "lat": 51.9161234,
    "lon": 10.1128283
  },
  "nodes": [
    7061502116,
    7061502117,
    7061502119,
    7061502122,
    3412729981,
    7061502116
  ],
  "tags": {
    "landuse": "cemetery",
    "name": "Friedhof",
    "religion": "christian"
  }
},
{
  "type": "way",
  "id": 46934342,
  "center": {
    "lat": 51.0090630,
    "lon": 10.1622939
  },
  "nodes": [
    599067210,
    599067211,
    1879326801,
    7183963773,
    599067212,
    599067213,
    1879326819,
    1879326821,
    599067214,
    7183963774,
    1879326825,
    599067215,
    1879326828,
    599067210
  ],
  "tags": {
    "landuse": "cemetery",
    "name": "Friedhof Herleshausen",
    "wheelchair": "yes"
  }
},
{
  "type": "way",
  "id": 48054653,
  "center": {
    "lat": 51.2050260,
    "lon": 10.7487363
  },
  "nodes": [
    610939756,
    610939739,
    610939730,
    610939742,
    610939746,
    610939756
  ],
  "tags": {
    "landuse": "cemetery"
  }
},
{
  "type": "way",
  "id": 48653033,
  "center": {
    "lat": 51.7626352,
    "lon": 10.1699978
  },
  "nodes": [
    617812619,
    618266549,
    617812608,
    3278341966,
    617812621,
    617812641,
    617812644,
    618266595,
    617812647,
    618293318,
    617812619
  ],
  "tags": {
    "denomination": "protestant",
    "landuse": "cemetery",
    "religion": "christian"
  }
},
{
  "type": "way",
  "id": 51768298,
  "center": {
    "lat": 51.6191900,
    "lon": 10.4697210
  },
  "nodes": [
    660644714,
    30396614,
    660644699,
    2439246335,
    2439246313,
    660642948,
    660642949,
    366211816,
    660644686,
    1453604666,
    660644684,
    660644720,
    366211818,
    660642933,
    660644724,
    2439245984,
    660644725,
    2439246059,
    660644714
  ],
  "tags": {
    "landuse": "cemetery",
    "name": "Friedhof"
  }
},
{
  "type": "way",
  "id": 52062098,
  "center": {
    "lat": 51.6278099,
    "lon": 10.3876152
  },
  "nodes": [
    663580341,
    2284357347,
    2284357358,
    663580342,
    663580343,
    8756249001,
    663580344,
    2284357351,
    2284357372,
    663580341
  ],
  "tags": {
    "landuse": "cemetery",
    "name": "Friedhof Scharzfeld"
  }
},
{
  "type": "way",
  "id": 52829074,
  "center": {
    "lat": 51.0131315,
    "lon": 10.1640396
  },
  "nodes": [
    669932327,
    669932316,
    669932331,
    669932329,
    669932328,
    669932327
  ],
  "tags": {
    "landuse": "cemetery",
    "religion": "jewish"
  }
},
{
  "type": "way",
  "id": 52829075,
  "center": {
    "lat": 51.0132044,
    "lon": 10.1642028
  },
  "nodes": [
    669932313,
    669932314,
    669932315,
    669932323,
    669932330,
    669932324,
    669932325,
    669932334,
    669932326,
    669932309,
    669932327,
    669932328,
    669932329,
    669932331,
    669932313
  ],
  "tags": {
    "landuse": "cemetery",
    "name": "Sowjetische Kriegsgräberstätte",
    "note:de": "1543 Gräber von im \"Seuchenlager\" Herleshausen zwischen 1942 und 1945 gestorbenen sowjetischen Kriegsgefangenen"
  }
},
{
  "type": "way",
  "id": 52875484,
  "center": {
    "lat": 51.8987742,
    "lon": 10.4746805
  },
  "nodes": [
    670273994,
    670273995,
    8246323356,
    670273997,
    1932349925,
    8246323366,
    1932349928,
    1932349934,
    670273998,
    1193263155,
    670273999,
    7293484686,
    8246323367,
    670274000,
    670273994
  ],
  "tags": {
    "landuse": "cemetery"
  }
},
{
  "type": "way",
  "id": 56807177,
  "center": {
    "lat": 51.0253211,
    "lon": 10.9885025
  },
  "nodes": [
    7148754252,
    710675005,
    710675006,
    710675007,
    1481472565,
    710675008,
    710675009,
    7148754252
  ],
  "tags": {
    "landuse": "cemetery",
    "name": "Friedhof Gispersleben",
    "website": "https://www.erfurt.de/ef/de/erleben/sehenswertes/friedhoefe/ortsteilfriedhof/108174.html"
  }
},
{
  "type": "way",
  "id": 58592225,
  "center": {
    "lat": 51.3986903,
    "lon": 10.2132894
  },
  "nodes": [
    725887738,
    725887717,
    725887662,
    725887741,
    725887738
  ],
  "tags": {
    "landuse": "cemetery",
    "name": "Friedhof Bodenrode"
  }
},
{
  "type": "way",
  "id": 59153391,
  "center": {
    "lat": 51.1873327,
    "lon": 10.8955520
  },
  "nodes": [
    1734164181,
    733576608,
    733576610,
    4752289995,
    4752289994,
    1734164181
  ],
  "tags": {
    "landuse": "cemetery",
    "name": "Friedhof"
  }
},
{
  "type": "way",
  "id": 59213841,
  "center": {
    "lat": 51.1609024,
    "lon": 10.3231789
  },
  "nodes": [
    734481666,
    11508841443,
    734481613,
    11508841442,
    734481728,
    734481760,
    734481698,
    734481737,
    734481632,
    11508841448,
    11508841449,
    734481666
  ],
  "tags": {
    "denomination": "catholic",
    "landuse": "cemetery",
    "name": "neuer Friedhof",
    "religion": "christian",
    "wikidata": "Q130220827"
  }
},
{
  "type": "way",
  "id": 59559464,
  "center": {
    "lat": 51.5761087,
    "lon": 10.9604287
  },
  "nodes": [
    738808816,
    2491606248,
    738808854,
    11660181230,
    738808904,
    2484787300,
    915008708,
    420029561,
    738808816
  ],
  "tags": {
    "landuse": "cemetery",
    "name": "Friedhof"
  }
},
{
  "type": "way",
  "id": 59964832,
  "center": {
    "lat": 51.6127190,
    "lon": 10.4213707
  },
  "nodes": [
    8264742474,
    8264742476,
    457453816,
    457453815,
    8264742474
  ],
  "tags": {
    "landuse": "cemetery"
  }
},
{
  "type": "way",
  "id": 61226923,
  "center": {
    "lat": 51.1137207,
    "lon": 10.9334823
  },
  "nodes": [
    765275303,
    765275252,
    997539757,
    997539720,
    765275292,
    5412214083,
    997539835,
    997539830,
    5412214084,
    997539800,
    765275318,
    765275260,
    765275303
  ],
  "tags": {
    "landuse": "cemetery",
    "name:signed": "no"
  }
},
{
  "type": "way",
  "id": 66090477,
  "center": {
    "lat": 51.1964338,
    "lon": 10.4601006
  },
  "nodes": [
    802211039,
    1991037791,
    802210990,
    1991037799,
    6517744330,
    802210973,
    6517744334,
    6517744333,
    802211033,
    802210993,
    6527676630,
    802210965,
    6520452728,
    802210995,
    6522619456,
    1991037762,
    1991037780,
    1991037808,
    1991037771,
    6522619455,
    6517744324,
    802211039
  ],
  "tags": {
    "landuse": "cemetery",
    "name": "Friedhof"
  }
},
{
  "type": "way",
  "id": 70107279,
  "center": {
    "lat": 51.0170555,
    "lon": 10.8513130
  },
  "nodes": [
    3914891106,
    3914891101,
    3916262605,
    3916262604,
    3916262603,
    837389698,
    837389700,
    2549218970,
    3914891110,
    3914891104,
    3914891103,
    3914891107,
    3914891106
  ],
  "tags": {
    "landuse": "cemetery"
  }
},
{
  "type": "way",
  "id": 71177647,
  "center": {
    "lat": 51.3577063,
    "lon": 10.9008479
  },
  "nodes": [
    4253147527,
    11214339823,
    4253147526,
    847347871,
    4248681105,
    4253147527
  ],
  "tags": {
    "landuse": "cemetery",
    "name": "Friedhof"
  }
},
{
  "type": "way",
  "id": 71178007,
  "center": {
    "lat": 51.3744964,
    "lon": 10.8830164
  },
  "nodes": [
    4242712488,
    4242712434,
    847361102,
    847361105,
    847361129,
    847361135,
    4242712422,
    4242712423,
    4242712421,
    4242712443,
    4242712444,
    4242712445,
    4242712446,
    1620064900,
    1620064886,
    4242712488
  ],
  "tags": {
    "area": "yes",
    "denomination": "protestant",
    "landuse": "cemetery",
    "name": "Hauptfriedhof",
    "religion": "christian",
    "wikidata": "Q123094616"
  }
},
{
  "type": "way",
  "id": 71327078,
  "center": {
    "lat": 51.3834920,
    "lon": 10.8420227
  },
  "nodes": [
    848809347,
    848809350,
    4237023962,
    4237023961,
    848809355,
    10207115825,
    10207112704,
    10207112703,
    848809347
  ],
  "tags": {
    "area": "yes",
    "landuse": "cemetery"
  }
},
{
  "type": "way",
  "id": 72439857,
  "center": {
    "lat": 51.3783043,
    "lon": 10.0929756
  },
  "nodes": [
    860127439,
    1950466371,
    860127428,
    1950466335,
    1950466358,
    1950466373,
    860127419,
    860127437,
    1950466364,
    1950466337,
    860127439
  ],
  "tags": {
    "denomination": "catholic",
    "landuse": "cemetery",
    "name": "Friedhof Rengelrode",
    "religion": "christian"
  }
},
{
  "type": "way",
  "id": 72442928,
  "center": {
    "lat": 51.4528481,
    "lon": 10.0335461
  },
  "nodes": [
    1984322252,
    2275088168,
    10787169563,
    2275088156,
    8988661269,
    8988661267,
    8988661268,
    8988661270,
    8988661272,
    2275088184,
    8988661271,
    1984322252
  ],
  "tags": {
    "contact:website": "https://kreuzweg-gleichen-wir-e-de.wir-e.de/unsere-friedhoefe",
    "landuse": "cemetery",
    "name": "Friedhof Bremke",
    "operator": "Kreuzweg-Kirchengemeinde in Gleichen",
    "religion": "christian"
  }
},
{
  "type": "way",
  "id": 72568085,
  "center": {
    "lat": 51.3784109,
    "lon": 10.0680537
  },
  "nodes": [
    5279529242,
    5279529246,
    861317059,
    861316990,
    1506193798,
    5279529242
  ],
  "tags": {
    "landuse": "cemetery",
    "name": "Friedhof Steinheuterode"
  }
},
{
  "type": "way",
  "id": 72859053,
  "center": {
    "lat": 51.9386000,
    "lon": 10.3411945
  },
  "nodes": [
    861342270,
    2783206910,
    864664486,
    864664516,
    864664515,
    864664518,
    864664479,
    864664472,
    868981430,
    842290853,
    868981423,
    864664510,
    861342270
  ],
  "tags": {
    "landuse": "cemetery",
    "name": "Friedhof Langelsheim",
    "religion": "christian"
  }
},
{
  "type": "way",
  "id": 72875566,
  "center": {
    "lat": 51.1919932,
    "lon": 10.9337450
  },
  "nodes": [
    864885528,
    2557556031,
    864885640,
    864885607,
    2557555996,
    864885600,
    2557555990,
    864885580,
    2557555987,
    864885559,
    864885546,
    2557555994,
    864885583,
    864885562,
    2557556026,
    864885549,
    2557556029,
    864885520,
    2557556033,
    864885500,
    864885528
  ],
  "tags": {
    "landuse": "cemetery"
  }
},
{
  "type": "way",
  "id": 75717528,
  "center": {
    "lat": 51.9112645,
    "lon": 10.3233134
  },
  "nodes": [
    893922182,
    893922186,
    893922183,
    3484829951,
    893922184,
    893922185,
    893922182
  ],
  "tags": {
    "landuse": "cemetery"
  }
},
{
  "type": "way",
  "id": 76739876,
  "center": {
    "lat": 51.3626746,
    "lon": 10.3356990
  },
  "nodes": [
    904120736,
    904121104,
    904120879,
    9773401409,
    904120706,
    9773401410,
    904120736
  ],
  "tags": {
    "landuse": "cemetery",
    "name": "Friedhof Birkungen",
    "religion": "christian",
    "wikidata": "Q136465517"
  }
},
{
  "type": "way",
  "id": 77090888,
  "center": {
    "lat": 51.9090047,
    "lon": 10.7975363
  },
  "nodes": [
    907810913,
    12157644163,
    907810901,
    1758781414,
    1758781422,
    907810899,
    1758781439,
    12157644159,
    1758781408,
    907810913
  ],
  "tags": {
    "landuse": "cemetery",
    "religion": "christian"
  }
},
{
  "type": "way",
  "id": 77238521,
  "center": {
    "lat": 51.5742209,
    "lon": 10.7307766
  },
  "nodes": [
    909307635,
    909307582,
    909307579,
    909307639,
    909307621,
    909307581,
    909307574,
    909307623,
    909307590,
    909307613,
    909307597,
    909307635
  ],
  "tags": {
    "landuse": "cemetery",
    "url": "https://daten.verwaltungsportal.de/dateien/rechtsgrundlagen/friedhofsatzung2001.01.2010.pdf"
  }
},
{
  "type": "way",
  "id": 77884835,
  "center": {
    "lat": 51.4963806,
    "lon": 10.4502862
  },
  "nodes": [
    915455962,
    3757008190,
    915455963,
    915455964,
    915455965,
    3757008187,
    915455962
  ],
  "tags": {
    "barrier": "hedge",
    "height": "1.5",
    "landuse": "cemetery"
  }
},
{
  "type": "way",
  "id": 77884836,
  "center": {
    "lat": 51.4819492,
    "lon": 10.4398832
  },
  "nodes": [
    915455966,
    915455967,
    3240691846,
    915455968,
    915455969,
    915455966
  ],
  "tags": {
    "landuse": "cemetery"
  }
},
{
  "type": "way",
  "id": 78351205,
  "center": {
    "lat": 51.9155075,
    "lon": 10.4148935
  },
  "nodes": [
    919741390,
    919741391,
    919741392,
    919741393,
    919741390
  ],
  "tags": {
    "cemetery": "war_cemetery",
    "landuse": "cemetery"
  }
},
{
  "type": "way",
  "id": 80240810,
  "center": {
    "lat": 51.4726144,
    "lon": 10.4823890
  },
  "nodes": [
    915455958,
    924386607,
    940357180,
    7026738373,
    940357181,
    925258822,
    924219544,
    915455959,
    7026738372,
    940395587,
    940395578,
    915455961,
    7026738374,
    940395696,
    915455958
  ],
  "tags": {
    "landuse": "cemetery",
    "name": "Friedhof Großbodungen"
  }
},
{
  "type": "way",
  "id": 82693138,
  "center": {
    "lat": 51.4992641,
    "lon": 10.8067978
  },
  "nodes": [
    962552435,
    962552434,
    2039714287,
    9966343358,
    5467081838,
    2039714203,
    962552435
  ],
  "tags": {
    "historic": "memorial",
    "landuse": "cemetery",
    "material": "stone",
    "memorial": "stele",
    "name": "Jüdischer Friedhof",
    "religion": "jewish",
    "wikidata": "Q18413053"
  }
},
{
  "type": "way",
  "id": 83045106,
  "center": {
    "lat": 51.4656976,
    "lon": 10.4664273
  },
  "nodes": [
    966141352,
    966141354,
    966141356,
    966141358,
    966141352
  ],
  "tags": {
    "landuse": "cemetery",
    "name": "Friedhof Neustadt",
    "source": "local_knowledge"
  }
},
{
  "type": "way",
  "id": 84472491,
  "center": {
    "lat": 51.9714657,
    "lon": 10.4914292
  },
  "nodes": [
    981484210,
    981484859,
    981484531,
    981484356,
    3116458887,
    981484389,
    981485070,
    981484210
  ],
  "tags": {
    "landuse": "cemetery"
  }
},
{
  "type": "way",
  "id": 85694187,
  "center": {
    "lat": 51.9967781,
    "lon": 10.6232695
  },
  "nodes": [
    994104516,
    994104513,
    11515008678,
    994104525,
    994104521,
    994104516
  ],
  "tags": {
    "landuse": "cemetery"
  }
},
{
  "type": "way",
  "id": 85694775,
  "center": {
    "lat": 51.9028638,
    "lon": 10.6744591
  },
  "nodes": [
    1604857768,
    1604857732,
    1604857770,
    2078614208,
    1604842265,
    994439634,
    1604857768
  ],
  "tags": {
    "landuse": "cemetery"
  }
},
{
  "type": "way",
  "id": 85733846,
  "center": {
    "lat": 51.9452869,
    "lon": 10.5687002
  },
  "nodes": [
    995116436,
    7341648956,
    269724262,
    3326836137,
    3326836147,
    3326836148,
    3326836146,
    7341648931,
    7341648930,
    7341648929,
    7341648928,
    7341648925,
    3326836124,
    995116436
  ],
  "tags": {
    "landuse": "cemetery"
  }
},
{
  "type": "way",
  "id": 87291532,
  "center": {
    "lat": 51.9604552,
    "lon": 10.4841719
  },
  "nodes": [
    256639111,
    1018721580,
    1018723233,
    1014942425,
    9532444350,
    1014942512,
    2496275214,
    1014942255,
    1014942367,
    1014942790,
    2496275196,
    1014942797,
    1014942603,
    1014942650,
    256639111
  ],
  "tags": {
    "denomination": "lutheran",
    "landuse": "cemetery",
    "name": "Friedhof Immenrode",
    "religion": "christian"
  }
},
{
  "type": "way",
  "id": 87593259,
  "center": {
    "lat": 51.5192850,
    "lon": 10.0945935
  },
  "nodes": [
    1018936189,
    8202278934,
    1018936183,
    1018936182,
    8202278767,
    8202278768,
    1018936181,
    8202278935,
    8202278769,
    1018936193,
    1018936189
  ],
  "tags": {
    "landuse": "cemetery",
    "name": "Friedhof Falkenhagen"
  }
},
{
  "type": "way",
  "id": 88285029,
  "center": {
    "lat": 51.5364209,
    "lon": 10.1149305
  },
  "nodes": [
    1025495030,
    1025495035,
    1025495038,
    1031725746,
    12829408729,
    12829408728,
    12829408726,
    12829408727,
    1025495030
  ],
  "tags": {
    "landuse": "cemetery",
    "name": "Friedhof Landolfshausen",
    "source": "Bing"
  }
},
{
  "type": "way",
  "id": 88496114,
  "center": {
    "lat": 51.9810170,
    "lon": 10.0315105
  },
  "nodes": [
    1027901859,
    666909452,
    1027823268,
    263679856,
    667236984,
    1027901722,
    1027901859
  ],
  "tags": {
    "landuse": "cemetery",
    "religion": "christian"
  }
},
{
  "type": "way",
  "id": 88508969,
  "center": {
    "lat": 51.9662461,
    "lon": 10.0948180
  },
  "nodes": [
    9392763857,
    1028000797,
    1028000887,
    1028000924,
    9392763857
  ],
  "tags": {
    "landuse": "cemetery",
    "religion": "christian"
  }
},
{
  "type": "way",
  "id": 89114937,
  "center": {
    "lat": 51.9867565,
    "lon": 10.1641537
  },
  "nodes": [
    1071161678,
    1071161626,
    11240380538,
    1033755539,
    1071161678
  ],
  "tags": {
    "landuse": "cemetery",
    "name": "Friedhof Ortshausen",
    "religion": "christian"
  }
},
{
  "type": "way",
  "id": 89343251,
  "center": {
    "lat": 51.3473449,
    "lon": 10.4453008
  },
  "nodes": [
    1036380488,
    1036380470,
    1036380482,
    1036380484,
    1036380459,
    1036380499,
    1036380488
  ],
  "tags": {
    "landuse": "cemetery",
    "name": "Friedhof Rüdigershagen",
    "religion": "christian"
  }
},
{
  "type": "way",
  "id": 90581283,
  "center": {
    "lat": 51.4298578,
    "lon": 10.0022326
  },
  "nodes": [
    1051186190,
    1051186497,
    1051185702,
    1051186244,
    1051186431,
    1051186060,
    1051186190
  ],
  "tags": {
    "landuse": "cemetery",
    "name": "Friedhof Lichtenhagen",
    "operator": "Gemeinde Friedland"
  }
},
{
  "type": "way",
  "id": 91517344,
  "center": {
    "lat": 51.1353249,
    "lon": 10.1696481
  },
  "nodes": [
    7418932018,
    7418932014,
    7418921767,
    7418921766,
    7418921765,
    7418931988,
    7418931990,
    7418921776,
    7418931986,
    7418931987,
    7418921775,
    7418921783,
    7418921781,
    7418921782,
    7418921774,
    7418921768,
    7418932020,
    7418932021,
    7418932018
  ],
  "tags": {
    "landuse": "cemetery",
    "name": "Friedhof Großburschla"
  }
},
{
  "type": "way",
  "id": 91908997,
  "center": {
    "lat": 51.0256838,
    "lon": 10.5072195
  },
  "nodes": [
    1067917514,
    1067918273,
    1067914915,
    1067917547,
    1067917163,
    1067915872,
    1067916515,
    7593237828,
    1067917514
  ],
  "tags": {
    "landuse": "cemetery"
  }
},
{
  "type": "way",
  "id": 92264075,
  "center": {
    "lat": 51.2800615,
    "lon": 10.4057964
  },
  "nodes": [
    1071065719,
    6183302048,
    1071065691,
    1071065737,
    1071065717,
    1656756707,
    1656756711,
    1656756714,
    1656756723,
    1071065719
  ],
  "tags": {
    "landuse": "cemetery",
    "name": "Friedhof Horsmar"
  }
},
{
  "type": "way",
  "id": 92316233,
  "center": {
    "lat": 51.9770705,
    "lon": 10.3998074
  },
  "nodes": [
    1071432536,
    1071432587,
    7485649514,
    1071432483,
    7485649517,
    1071432352,
    1071432658,
    1071432536
  ],
  "tags": {
    "landuse": "cemetery",
    "name": "Friedhof Dörnten",
    "note": "\"Friedhof\" ist bestimmt nicht der Name sondern nur die Bezeichnung der Einrichtung!",
    "religion": "christian"
  }
},
{
  "type": "way",
  "id": 92421149,
  "center": {
    "lat": 51.6023842,
    "lon": 10.1303398
  },
  "nodes": [
    1072907673,
    1072907675,
    5872013925,
    1072907677,
    1072907676,
    1072907673
  ],
  "tags": {
    "landuse": "cemetery",
    "name": "Friedhof Bodensee"
  }
},
{
  "type": "way",
  "id": 92904933,
  "center": {
    "lat": 51.0708788,
    "lon": 10.3516967
  },
  "nodes": [
    1077134767,
    3441183747,
    3441183753,
    1077134758,
    3441183754,
    1077134756,
    3441183773,
    3441183770,
    3441183763,
    1077134769,
    3441183755,
    1077134761,
    3441183731,
    3441183727,
    3441183723,
    1077134771,
    1077134766,
    3441183725,
    3441183729,
    3441183737,
    1077134767
  ],
  "tags": {
    "addr:city": "Lauterbach",
    "addr:postcode": "99826",
    "addr:street": "Harsbergstraße",
    "amenity": "grave_yard",
    "barrier": "fence",
    "name": "Lauterbach",
    "religion": "christian",
    "wikidata": "Q113576774"
  }
},
{
  "type": "way",
  "id": 93293208,
  "center": {
    "lat": 51.8860502,
    "lon": 10.1893966
  },
  "nodes": [
    1081658872,
    1081658829,
    1081658771,
    1081658865,
    6969969999,
    6969969998,
    1081658872
  ],
  "tags": {
    "amenity": "grave_yard",
    "name": "Jüdischer Friedhof",
    "religion": "jewish"
  }
},
{
  "type": "way",
  "id": 94522212,
  "center": {
    "lat": 51.9346857,
    "lon": 10.1300084
  },
  "nodes": [
    1097963570,
    7057159823,
    7057159822,
    7061473225,
    7057159821,
    7057159820,
    1097963570
  ],
  "tags": {
    "landuse": "cemetery"
  }
},
{
  "type": "way",
  "id": 94522213,
  "center": {
    "lat": 51.9454615,
    "lon": 10.1179234
  },
  "nodes": [
    3596709516,
    7056874327,
    7056874329,
    1097963586,
    7056874338,
    7056874335,
    7056874334,
    7056874325,
    7056872005,
    7056876169,
    7056896903,
    7056897332,
    7056876170,
    3596709516
  ],
  "tags": {
    "landuse": "cemetery"
  }
},
{
  "type": "way",
  "id": 94568330,
  "center": {
    "lat": 51.9158350,
    "lon": 10.1501197
  },
  "nodes": [
    1098366889,
    1098366851,
    1098367011,
    1098367057,
    1098366983,
    1098366910,
    1098366828,
    1098366860,
    1098367033,
    7865027563,
    1098366957,
    1098366887,
    1098367014,
    1098366889
  ],
  "tags": {
    "landuse": "cemetery",
    "religion": "christian"
  }
},
{
  "type": "way",
  "id": 94661487,
  "center": {
    "lat": 51.8534815,
    "lon": 10.1544650
  },
  "nodes": [
    1098869235,
    1098869438,
    1098869342,
    1098869464,
    1098869352,
    1098869292,
    1098869228,
    1098869257,
    1098869191,
    7259025701,
    1098869531,
    7927792466,
    1098869235
  ],
  "tags": {
    "landuse": "cemetery",
    "religion": "christian"
  }
},
{
  "type": "way",
  "id": 94730663,
  "center": {
    "lat": 51.9510526,
    "lon": 10.2235869
  },
  "nodes": [
    1099951241,
    1099951261,
    1099951295,
    6400758867,
    8827251404,
    1099951241
  ],
  "tags": {
    "landuse": "cemetery"
  }
},
{
  "type": "way",
  "id": 95844331,
  "center": {
    "lat": 51.9358996,
    "lon": 10.4473560
  },
  "nodes": [
    1110706739,
    1110706736,
    1105066145,
    1110706733,
    1110706729,
    1110706739
  ],
  "tags": {
    "barrier": "wall",
    "landuse": "cemetery"
  }
},
{
  "type": "way",
  "id": 95868487,
  "center": {
    "lat": 51.1504748,
    "lon": 10.5689603
  },
  "nodes": [
    7022449545,
    7204196426,
    7204196425,
    7288963957,
    7022449548,
    7022449547,
    1110992942,
    7022449543,
    7022449544,
    1110993128,
    7204198891,
    7204198893,
    7204198892,
    1110992966,
    7022449545
  ],
  "tags": {
    "landuse": "cemetery",
    "name": "Friedhof St. Martini",
    "wikidata": "Q117303267"
  }
},
{
  "type": "way",
  "id": 95952814,
  "center": {
    "lat": 51.1629417,
    "lon": 10.5903015
  },
  "nodes": [
    1111808293,
    5258031609,
    7114616787,
    1111808242,
    1111808209,
    1111808281,
    1111808293
  ],
  "tags": {
    "amenity": "grave_yard",
    "name": "Friedhof Altengottern"
  }
},
{
  "type": "way",
  "id": 96631214,
  "center": {
    "lat": 51.9086242,
    "lon": 10.5104722
  },
  "nodes": [
    1845178288,
    6452572509,
    2731033434,
    6452572510,
    2731033430,
    2731033428,
    6452572518,
    2731033425,
    105390087,
    6452572517,
    6452572535,
    6452572538,
    2731033390,
    2731033384,
    6873901100,
    6873901101,
    6873901103,
    6873901105,
    6873901107,
    6873901114,
    6873901115,
    7468474993,
    7443597397,
    6873901118,
    2731033442,
    7617871340,
    2731033447,
    6405224025,
    1845178288
  ],
  "tags": {
    "barrier": "fence",
    "denomination": "lutheran",
    "fence_type": "wood",
    "landuse": "cemetery",
    "name": "Friedhof Harlingerode",
    "religion": "christian"
  }
},
{
  "type": "way",
  "id": 96721340,
  "center": {
    "lat": 51.3600676,
    "lon": 10.8699557
  },
  "nodes": [
    1120085077,
    1120085078,
    1120085079,
    1120085080,
    1120085077
  ],
  "tags": {
    "historic": "yes",
    "image": "File:Jüdischer_Friedhof_von_Sondershausen.jpg",
    "landuse": "cemetery",
    "name": "Jüdischer Friedhof",
    "religion": "jewish",
    "ruins": "yes",
    "start_date": "1699",
    "website": "http://www.alemannia-judaica.de/thueringen_friedhoefe#Sondershausen%20%28KYF%29",
    "wikidata": "Q1716524",
    "wikimedia_commons": "Category:Jüdischer Friedhof (Sondershausen)",
    "wikipedia": "de:Jüdischer Friedhof (Sondershausen)"
  }
},
{
  "type": "way",
  "id": 99533403,
  "center": {
    "lat": 51.1992090,
    "lon": 10.0129969
  },
  "nodes": [
    1151231592,
    1151232251,
    1751637457,
    1151232822,
    1151233306,
    1151231592
  ],
  "tags": {
    "landuse": "cemetery",
    "name": "Friedhof Niederhone",
    "religion": "christian"
  }
},
{
  "type": "way",
  "id": 99837211,
  "center": {
    "lat": 51.4453433,
    "lon": 10.8834526
  },
  "nodes": [
    1154192954,
    1154192956,
    12644636314,
    1154192958,
    12644636252,
    2785335347,
    12644636251,
    2785335005,
    2785335471,
    1154192960,
    5405206819,
    5405206818,
    5405206817,
    1154192962,
    1154192954
  ],
  "tags": {
    "landuse": "cemetery"
  }
},
{
  "type": "way",
  "id": 102015838,
  "center": {
    "lat": 51.0654592,
    "lon": 10.9336434
  },
  "nodes": [
    1177669535,
    1177669627,
    1177669622,
    1177669620,
    1177669535
  ],
  "tags": {
    "landuse": "cemetery",
    "name": "Friedhof Walschleben",
    "wikidata": "Q117302334"
  }
},
{
  "type": "way",
  "id": 103428749,
  "center": {
    "lat": 51.4262785,
    "lon": 10.9365764
  },
  "nodes": [
    1194270320,
    1194270577,
    1194270359,
    1738262530,
    1738262521,
    1194270473,
    1194270320
  ],
  "tags": {
    "amenity": "grave_yard"
  }
},
{
  "type": "way",
  "id": 105146183,
  "center": {
    "lat": 51.1622397,
    "lon": 10.3233661
  },
  "nodes": [
    1211835467,
    1211836062,
    1211835443,
    1211836049,
    1211835559,
    1211835467
  ],
  "tags": {
    "denomination": "catholic",
    "landuse": "cemetery",
    "name": "alter Friedhof",
    "religion": "christian",
    "wikidata": "Q130220782"
  }
},
{
  "type": "way",
  "id": 105944049,
  "center": {
    "lat": 51.4709490,
    "lon": 10.1002605
  },
  "nodes": [
    1219895628,
    9760723966,
    9760723965,
    1219895723,
    316927853,
    1219895727,
    1219895633,
    1219895628
  ],
  "tags": {
    "addr:city": "Gleichen",
    "addr:country": "DE",
    "addr:housenumber": "27",
    "addr:postcode": "37130",
    "addr:street": "Kerstlingeröder Straße",
    "addr:suburb": "Kerstlingerode",
    "contact:website": "https://apostel-gleichen.wir-e.de/friedhoefe",
    "denomination": "lutheran",
    "landuse": "cemetery",
    "name": "Friedhof Kerstlingerode",
    "operator": "Apostel-Kirchengemeinde in Gleichen",
    "religion": "christian"
  }
},
{
  "type": "way",
  "id": 105944051,
  "center": {
    "lat": 51.4640785,
    "lon": 10.1188964
  },
  "nodes": [
    1219895635,
    1219895680,
    1814906066,
    5683394693,
    1219895688,
    1219895676,
    9750434246,
    1219895635
  ],
  "tags": {
    "addr:city": "Gleichen",
    "addr:country": "DE",
    "addr:housenumber": "5",
    "addr:postcode": "37130",
    "addr:street": "Am Hillerasen",
    "addr:suburb": "Beienrode",
    "denomination": "lutheran",
    "landuse": "cemetery",
    "name": "Friedhof Beienrode",
    "operator": "Apostel-Kirchengemeinde in Gleichen",
    "religion": "christian"
  }
},
{
  "type": "way",
  "id": 105944054,
  "center": {
    "lat": 51.4795192,
    "lon": 10.1045383
  },
  "nodes": [
    1219895681,
    9310544178,
    1219895728,
    9752009127,
    9310544179,
    9752009119,
    2296927486,
    9752009137,
    9752009136,
    9310544180,
    9752009135,
    1219895630,
    1828267630,
    9310544181,
    1219895625,
    9752009116,
    1219895639,
    1219895681
  ],
  "tags": {
    "landuse": "cemetery",
    "name": "Friedhof Rittmarshausen",
    "operator": "Gemeinde Gleichen"
  }
},
{
  "type": "way",
  "id": 106830590,
  "center": {
    "lat": 51.2623210,
    "lon": 10.7596160
  },
  "nodes": [
    1228479932,
    7619455620,
    1228479936,
    1228479930,
    1228479943,
    1228479940,
    1228479932
  ],
  "tags": {
    "landuse": "cemetery",
    "wikidata": "Q136169385"
  }
},
{
  "type": "way",
  "id": 107081497,
  "center": {
    "lat": 51.4667325,
    "lon": 10.7570932
  },
  "nodes": [
    1231110319,
    1232365381,
    1231110337,
    1231110345,
    7278950014,
    1231110352,
    1231110355,
    1231110319
  ],
  "tags": {
    "denomination": "protestant",
    "landuse": "cemetery",
    "religion": "christian"
  }
},
{
  "type": "way",
  "id": 108202788,
  "center": {
    "lat": 51.6028484,
    "lon": 10.0994511
  },
  "nodes": [
    1241812197,
    1241812144,
    1241812142,
    1241812193,
    1241812197
  ],
  "tags": {
    "landuse": "cemetery",
    "name": "Friedhof Renshausen"
  }
},
{
  "type": "way",
  "id": 108517577,
  "center": {
    "lat": 51.6722516,
    "lon": 10.0672365
  },
  "nodes": [
    1244838171,
    1244838151,
    1244838159,
    1244838168,
    1244838163,
    1244838166,
    1244838171
  ],
  "tags": {
    "landuse": "cemetery",
    "name": "Friedhof Suterode"
  }
},
{
  "type": "way",
  "id": 108832183,
  "center": {
    "lat": 51.6809414,
    "lon": 10.0978388
  },
  "nodes": [
    1247752647,
    1247752700,
    1247752676,
    1247752655,
    1247752685,
    1247752682,
    1247752702,
    1247752658,
    1247752652,
    1247752661,
    1247752647
  ],
  "tags": {
    "landuse": "cemetery"
  }
},
{
  "type": "way",
  "id": 108840548,
  "center": {
    "lat": 51.6309021,
    "lon": 10.0272914
  },
  "nodes": [
    1247814346,
    1247814343,
    1247814340,
    1247814339,
    1247814341,
    1247814337,
    1247814346
  ],
  "tags": {
    "landuse": "cemetery",
    "name": "Friedhof Sudershausen"
  }
},
{
  "type": "way",
  "id": 109114253,
  "center": {
    "lat": 51.8889540,
    "lon": 10.5607844
  },
  "nodes": [
    1250137361,
    1250137347,
    2615600009,
    1250137350,
    1250137348,
    1250137344,
    1250137353,
    1250137346,
    1250137358,
    2620410928,
    258053761,
    1250137357,
    7792511441,
    258053760,
    2620410948,
    3252890655,
    1250137359,
    3252890654,
    258053759,
    3252890653,
    2443086653,
    3252890652,
    258053758,
    2620411012,
    2620411004,
    1250137355,
    2615599987,
    1250137361
  ],
  "tags": {
    "landuse": "cemetery"
  }
},
{
  "type": "way",
  "id": 109273603,
  "center": {
    "lat": 51.7600760,
    "lon": 10.9696814
  },
  "nodes": [
    1251422908,
    1251422920,
    1251422929,
    6815823286,
    1251422948,
    6815823290,
    6815823289,
    6815823288,
    6815823287,
    1251422908
  ],
  "tags": {
    "landuse": "cemetery"
  }
},
{
  "type": "way",
  "id": 110255574,
  "center": {
    "lat": 51.8246812,
    "lon": 10.9156496
  },
  "nodes": [
    1259616763,
    6468732734,
    8540277064,
    8540277065,
    8540277066,
    1259616759,
    8540277067,
    1259616758,
    1259616757,
    3659449932,
    1259616755,
    1259616753,
    1259616752,
    1259616750,
    1259616748,
    1259616747,
    1259616744,
    1259616763
  ],
  "tags": {
    "landuse": "cemetery"
  }
},
{
  "type": "way",
  "id": 110256240,
  "center": {
    "lat": 51.9742317,
    "lon": 10.2251459
  },
  "nodes": [
    1259621167,
    1259621173,
    1259621165,
    1259621172,
    1259621159,
    1259621170,
    1259621167
  ],
  "tags": {
    "landuse": "cemetery"
  }
},
{
  "type": "way",
  "id": 110314089,
  "center": {
    "lat": 51.7245085,
    "lon": 10.9401263
  },
  "nodes": [
    1907136565,
    1904372173,
    1904372181,
    1904372183,
    1904372176,
    1907136571,
    1907136573,
    1260099952,
    1260099947,
    1260099805,
    1260099899,
    1907136565
  ],
  "tags": {
    "amenity": "grave_yard"
  }
},
{
  "type": "way",
  "id": 110360707,
  "center": {
    "lat": 51.7755692,
    "lon": 10.9737047
  },
  "nodes": [
    2469080255,
    2469080232,
    1261905645,
    1261905629,
    2469080234,
    2469080243,
    2469080241,
    2469080237,
    2469080248,
    2469080255
  ],
  "tags": {
    "landuse": "cemetery"
  }
},
{
  "type": "way",
  "id": 110535276,
  "center": {
    "lat": 51.7170972,
    "lon": 10.9726825
  },
  "nodes": [
    1262096185,
    2277211063,
    1262096184,
    1262096182,
    915047049,
    1262096185
  ],
  "tags": {
    "amenity": "grave_yard"
  }
},
{
  "type": "way",
  "id": 110888599,
  "center": {
    "lat": 51.1164488,
    "lon": 10.3332174
  },
  "nodes": [
    1264733680,
    7364541933,
    7364541934,
    7364541935,
    1264733684,
    1264733655,
    1264733647,
    1264733717,
    1264733653,
    1264733674,
    7364541936,
    1264733659,
    1264733654,
    1264733716,
    7364541929,
    7364541930,
    1264733656,
    7364541931,
    1264733680
  ],
  "tags": {
    "landuse": "cemetery"
  }
},
{
  "type": "way",
  "id": 111876746,
  "center": {
    "lat": 51.7233168,
    "lon": 10.1198959
  },
  "nodes": [
    1273858348,
    1278342280,
    1273858410,
    1273858266,
    1273858348
  ],
  "tags": {
    "landuse": "cemetery",
    "name": "Friedhof Marke"
  }
},
{
  "type": "way",
  "id": 113697105,
  "center": {
    "lat": 51.3665824,
    "lon": 10.4314337
  },
  "nodes": [
    1288972663,
    1906807535,
    1288972664,
    1288972661,
    1288972662,
    6798464940,
    1288972663
  ],
  "tags": {
    "denomination": "roman_catholic",
    "landuse": "cemetery",
    "religion": "christian"
  }
},
{
  "type": "way",
  "id": 115192786,
  "center": {
    "lat": 51.5216581,
    "lon": 10.6596194
  },
  "nodes": [
    1302507826,
    1302507982,
    1302507900,
    1302507822,
    9671953635,
    1302507826
  ],
  "tags": {
    "denomination": "protestant",
    "landuse": "cemetery",
    "name": "Friedhof",
    "religion": "christian"
  }
},
{
  "type": "way",
  "id": 116925836,
  "center": {
    "lat": 51.3615229,
    "lon": 10.5093922
  },
  "nodes": [
    1317104095,
    1317104216,
    1317104217,
    1317104220,
    1317104095
  ],
  "tags": {
    "amenity": "grave_yard"
  }
},
{
  "type": "way",
  "id": 117562751,
  "center": {
    "lat": 51.2672021,
    "lon": 10.7382972
  },
  "nodes": [
    1324166243,
    4763550467,
    7621593546,
    1324166189,
    1324166174,
    1324166055,
    1324166243
  ],
  "tags": {
    "landuse": "cemetery"
  }
},
{
  "type": "way",
  "id": 117618009,
  "center": {
    "lat": 51.5511393,
    "lon": 10.5956797
  },
  "nodes": [
    1324668991,
    1324669022,
    1324669021,
    1324669024,
    1324669020,
    1324669005,
    8222991226,
    1324669018,
    8222991224,
    1324668997,
    8222991223,
    1324668991
  ],
  "tags": {
    "denomination": "protestant",
    "landuse": "cemetery",
    "name": "Friedhof Klettenberg",
    "religion": "christian"
  }
},
{
  "type": "way",
  "id": 117968358,
  "center": {
    "lat": 51.1086371,
    "lon": 10.5162271
  },
  "nodes": [
    1327868214,
    1327868128,
    1327868161,
    1327868173,
    1327868206,
    1327868246,
    1327868254,
    1327868155,
    1327868149,
    1327868219,
    1708726125,
    1327868214
  ],
  "tags": {
    "description": "Friedhof Weberstedt",
    "landuse": "cemetery"
  }
},
{
  "type": "way",
  "id": 119659836,
  "center": {
    "lat": 51.0573538,
    "lon": 10.2481251
  },
  "nodes": [
    1343652078,
    7464177756,
    11018608391,
    7464177755,
    7464177754,
    1343651973,
    1343651859,
    5742246492,
    1343651902,
    7464203801,
    7464203802,
    5742246490,
    7464203803,
    7464203794,
    7480339735,
    7480339736,
    1343652078
  ],
  "tags": {
    "landuse": "cemetery"
  }
},
{
  "type": "way",
  "id": 120512326,
  "center": {
    "lat": 51.4098005,
    "lon": 10.4223005
  },
  "nodes": [
    1351136958,
    1351136956,
    1351136957,
    1351136959,
    1351136960,
    1351136954,
    1351136958
  ],
  "tags": {
    "landuse": "cemetery",
    "name": "Friedhof Breitenworbis"
  }
},
{
  "type": "way",
  "id": 120512481,
  "center": {
    "lat": 51.4077018,
    "lon": 10.3992183
  },
  "nodes": [
    1351138250,
    9320232687,
    1351138251,
    9320232692,
    9320232691,
    9320232690,
    6600885409,
    1351138248,
    1351138250
  ],
  "tags": {
    "landuse": "cemetery",
    "name": "Friedhof Kirchworbis",
    "wheelchair": "yes"
  }
},
{
  "type": "way",
  "id": 120524218,
  "center": {
    "lat": 51.4774625,
    "lon": 10.9025324
  },
  "nodes": [
    1351316260,
    1351316256,
    1351316252,
    1351316255,
    1351316258,
    1351316253,
    1351316251,
    1351316257,
    4032461204,
    4032461205,
    248722526,
    1351316260
  ],
  "tags": {
    "landuse": "cemetery",
    "name": "Friedhof"
  }
},
{
  "type": "way",
  "id": 120866650,
  "center": {
    "lat": 51.3779447,
    "lon": 10.2773501
  },
  "nodes": [
    1354186310,
    1279114754,
    1354186309,
    3471997020,
    2714374088,
    2714374114,
    2714374292,
    2714374154,
    1354186308,
    3471997024,
    3471997019,
    1857358382,
    1354186305,
    3471997018,
    3471997016,
    1354186307,
    1354186310
  ],
  "tags": {
    "landuse": "cemetery",
    "name": "Friedhof",
    "wikidata": "Q136530360"
  }
},
{
  "type": "way",
  "id": 122653810,
  "center": {
    "lat": 51.5850868,
    "lon": 10.2939068
  },
  "nodes": [
    1369918065,
    8412840693,
    1369918059,
    1984438685,
    8412840684,
    1369918062,
    8408843136,
    1369918064,
    1369918065
  ],
  "tags": {
    "landuse": "cemetery"
  }
},
{
  "type": "way",
  "id": 126127634,
  "center": {
    "lat": 51.3960276,
    "lon": 10.4727366
  },
  "nodes": [
    1399057820,
    1399057794,
    9633933018,
    4350857573,
    4350857572,
    1399057791,
    1399057816,
    9633933019,
    1399057781,
    9633933005,
    1399057820
  ],
  "tags": {
    "denomination": "catholic",
    "landuse": "cemetery",
    "religion": "christian"
  }
},
{
  "type": "way",
  "id": 127553811,
  "center": {
    "lat": 51.5184233,
    "lon": 10.8742996
  },
  "nodes": [
    3727462729,
    1411403198,
    1411403194,
    3727444816,
    4039568847,
    3727462729
  ],
  "tags": {
    "landuse": "cemetery",
    "religion": "christian"
  }
},
{
  "type": "way",
  "id": 127564831,
  "center": {
    "lat": 51.7469211,
    "lon": 10.1632554
  },
  "nodes": [
    1411520291,
    1411520285,
    1411520274,
    1411520263,
    1411520288,
    1411520259,
    1411520291
  ],
  "tags": {
    "landuse": "cemetery"
  }
},
{
  "type": "way",
  "id": 128168894,
  "center": {
    "lat": 51.8011343,
    "lon": 10.3622867
  },
  "nodes": [
    1416938154,
    1416938153,
    1416938150,
    2998059501,
    1416938151,
    2998059502,
    1416938152,
    2998059504,
    1416938154
  ],
  "tags": {
    "historic": "memorial",
    "landuse": "cemetery",
    "memorial": "war_memorial",
    "name": "Russischer Ehrenfriedhof",
    "wheelchair": "limited"
  }
},
{
  "type": "way",
  "id": 128405648,
  "center": {
    "lat": 51.3546670,
    "lon": 10.4710919
  },
  "nodes": [
    1419199134,
    1419199135,
    4364268222,
    4364268219,
    1419199137,
    4364270993,
    1419199131,
    1419199134
  ],
  "tags": {
    "landuse": "cemetery"
  }
},
{
  "type": "way",
  "id": 128510494,
  "center": {
    "lat": 51.5341593,
    "lon": 10.4196165
  },
  "nodes": [
    1420061045,
    1420060939,
    1420060989,
    1420060986,
    1420061045
  ],
  "tags": {
    "landuse": "cemetery"
  }
},
{
  "type": "way",
  "id": 130217183,
  "center": {
    "lat": 51.2983362,
    "lon": 10.0178035
  },
  "nodes": [
    1435105942,
    1435105943,
    3816102734,
    1435105945,
    3816102731,
    1435105944,
    1435105942
  ],
  "tags": {
    "denomination": "evangelical",
    "description:de": "Friedhof",
    "landuse": "cemetery",
    "religion": "christian"
  }
},
{
  "type": "way",
  "id": 130293088,
  "center": {
    "lat": 51.4078195,
    "lon": 10.9755250
  },
  "nodes": [
    1435487242,
    1435487244,
    8786414130,
    1435487245,
    1435487250,
    8786414128,
    8786414096,
    8786414095,
    8786414094,
    1435487242
  ],
  "tags": {
    "denomination": "protestant",
    "landuse": "cemetery",
    "religion": "christian",
    "wikidata": "Q136530248"
  }
},
{
  "type": "way",
  "id": 131664396,
  "center": {
    "lat": 51.5976007,
    "lon": 10.5841519
  },
  "nodes": [
    1448829744,
    1448829745,
    9325576702,
    293899143,
    293898691,
    293898698,
    293898699,
    9325576703,
    1948142508,
    846167904,
    1448829742,
    1948142506,
    1448829737,
    1448829733,
    1755782011,
    1755782008,
    1448829736,
    1448829738,
    3854095128,
    3854095127,
    3854095126,
    3854095125,
    9325576695,
    3854095121,
    3854095120,
    3854095119,
    3854095116,
    3854095117,
    3854095118,
    3854095114,
    3854095113,
    3854095112,
    3854095111,
    3854095110,
    9325576696,
    8616897447,
    8616897446,
    8616897445,
    8616897444,
    8616897443,
    8616897442,
    8616897441,
    8616897440,
    8616897439,
    8616897438,
    8616897437,
    8616897436,
    8616897435,
    8616897434,
    9325576697,
    409190621,
    9325576698,
    9325576699,
    1448829740,
    1448829741,
    9014416447,
    9014416446,
    9325576701,
    1448829744
  ],
  "tags": {
    "cemetery": "wood",
    "contact:website": "https://www.friedwald.de/waldbestattung-suedharz",
    "email": "info@friedwald.de",
    "end_date": "2106-12-31",
    "landuse": "cemetery",
    "name": "FriedWald Südharz",
    "operator": "FriedWald GmbH",
    "phone": "+49 6155 848 100",
    "source": "zaehle.de;https://www.friedwald.de/waldbestattung-suedharz",
    "start_date": "2007-06-01",
    "website": "https://www.friedwald.de/waldbestattung-suedharz"
  }
},
{
  "type": "way",
  "id": 131804685,
  "center": {
    "lat": 51.5858432,
    "lon": 10.1551425
  },
  "nodes": [
    1450099789,
    1450099786,
    1450099785,
    1450099787,
    1455437796,
    1450099784,
    1455437798,
    1450099789
  ],
  "tags": {
    "landuse": "cemetery",
    "name": "Friedhof"
  }
},
{
  "type": "way",
  "id": 132077821,
  "center": {
    "lat": 51.4943925,
    "lon": 10.3921841
  },
  "nodes": [
    1453628898,
    7976896306,
    7984640982,
    7984640962,
    1453628899,
    7984640961,
    7984640960,
    1453628909,
    7984640980,
    1453628903,
    1453628907,
    1453628906,
    1453628898
  ],
  "tags": {
    "landuse": "cemetery",
    "name": "Friedhof"
  }
},
{
  "type": "way",
  "id": 132119410,
  "center": {
    "lat": 51.5539298,
    "lon": 10.6823736
  },
  "nodes": [
    1454010181,
    1454010183,
    1454010176,
    1454010179,
    1454010190,
    1454010182,
    1454010181
  ],
  "tags": {
    "landuse": "cemetery",
    "url": "https://daten.verwaltungsportal.de/dateien/rechtsgrundlagen/friedhofsatzung2001.01.2010.pdf"
  }
},
{
  "type": "way",
  "id": 132514048,
  "center": {
    "lat": 51.4777433,
    "lon": 10.7341790
  },
  "nodes": [
    1457558236,
    1457558229,
    1457558237,
    12471822124,
    1457558230,
    3784666513,
    1457558236
  ],
  "tags": {
    "denomination": "protestant",
    "landuse": "cemetery",
    "name": "Friedhof Kleinwerther",
    "religion": "christian"
  }
},
{
  "type": "way",
  "id": 132527160,
  "center": {
    "lat": 51.5050760,
    "lon": 10.7206336
  },
  "nodes": [
    1457686298,
    1457686312,
    1457686220,
    2419668228,
    3861469370,
    1457686279,
    1457686282,
    1457686343,
    5342914676,
    1457686298
  ],
  "tags": {
    "denomination": "protestant",
    "landuse": "cemetery",
    "name": "Friedhof",
    "religion": "christian"
  }
},
{
  "type": "way",
  "id": 132857310,
  "center": {
    "lat": 51.3639824,
    "lon": 10.0765397
  },
  "nodes": [
    1461685521,
    7036250679,
    1461685498,
    7036250680,
    3869480624,
    3869480621,
    1461685281,
    1461685360,
    1461685392,
    7036250678,
    1461685521
  ],
  "tags": {
    "landuse": "cemetery",
    "name": "Friedhof",
    "wikidata": "Q136530584"
  }
},
{
  "type": "way",
  "id": 132910992,
  "center": {
    "lat": 51.5087946,
    "lon": 10.6561550
  },
  "nodes": [
    1462152658,
    1462152652,
    1462152617,
    1462152659,
    1462152658
  ],
  "tags": {
    "denomination": "protestant",
    "landuse": "cemetery",
    "name": "Friedhof Haferungen",
    "religion": "christian"
  }
},
{
  "type": "way",
  "id": 134818293,
  "center": {
    "lat": 51.7519029,
    "lon": 10.8477613
  },
  "nodes": [
    1481595332,
    1481595334,
    1930587803,
    8594940897,
    1481595335,
    8594940896,
    1930587784,
    1930587781,
    1930587780,
    1930587785,
    1481595333,
    1930587801,
    1481595332
  ],
  "tags": {
    "landuse": "cemetery",
    "source": "OSB-Hinweis"
  }
},
{
  "type": "way",
  "id": 136061948,
  "center": {
    "lat": 51.8682131,
    "lon": 10.2900702
  },
  "nodes": [
    1493115511,
    10737492519,
    10737492513,
    1493115508,
    2015014011,
    2015014006,
    1493115503,
    2015014004,
    2015014017,
    10737492526,
    10737492522,
    10737492527,
    10737492507,
    10737466704,
    10737492523,
    10737466700,
    10737492509,
    10737492510,
    10737492520,
    10737492521,
    1493115511
  ],
  "tags": {
    "denomination": "lutheran",
    "landuse": "cemetery",
    "name": "Oberer Friedhof Bergstadt Lautenthal",
    "opening_hours": "May-Sep: 07:00-20:00; Oct-Apr: 08:00-sunset",
    "religion": "christian"
  }
},
{
  "type": "way",
  "id": 136420324,
  "center": {
    "lat": 51.3832454,
    "lon": 10.4947253
  },
  "nodes": [
    1496425955,
    1496425956,
    1496425957,
    1496425958,
    1496425955
  ],
  "tags": {
    "amenity": "grave_yard",
    "name": "Friedhof"
  }
},
{
  "type": "way",
  "id": 136701824,
  "center": {
    "lat": 51.6686694,
    "lon": 10.2881279
  },
  "nodes": [
    1499690570,
    1499690575,
    1499690573,
    12285508552,
    12285508551,
    10210476809,
    2029577461,
    2029577445,
    1499690576,
    1499690570
  ],
  "tags": {
    "landuse": "cemetery"
  }
},
{
  "type": "way",
  "id": 136792681,
  "center": {
    "lat": 51.6690756,
    "lon": 10.7213055
  },
  "nodes": [
    1500796277,
    3482260193,
    3482220063,
    1500796278,
    1500796279,
    3482220064,
    3482269305,
    1500796386,
    3482220062,
    1500796387,
    3482253453,
    3482292022,
    3482252723,
    1500796388,
    1500796390,
    2161026916,
    1500796391,
    3482249302,
    3482246771,
    1500796393,
    1500796392,
    1500796394,
    1500796395,
    1500796277
  ],
  "tags": {
    "landuse": "cemetery"
  }
},
{
  "type": "way",
  "id": 137617394,
  "center": {
    "lat": 51.4858397,
    "lon": 10.8463208
  },
  "nodes": [
    1509350212,
    3928272084,
    1509291013,
    2465420869,
    2465420875,
    1509350208,
    1509350212
  ],
  "tags": {
    "landuse": "cemetery"
  }
},
{
  "type": "way",
  "id": 138461895,
  "center": {
    "lat": 51.5534528,
    "lon": 10.3836458
  },
  "nodes": [
    1518125433,
    1518125414,
    1518125391,
    7936581221,
    1518125420,
    1518125437,
    1518125456,
    1518125472,
    1518125447,
    7936581217,
    1518125433
  ],
  "tags": {
    "landuse": "cemetery",
    "name": "Friedhof Zwinge"
  }
},
{
  "type": "way",
  "id": 139570378,
  "center": {
    "lat": 51.3099431,
    "lon": 10.3421057
  },
  "nodes": [
    1529898612,
    1529898631,
    1529898629,
    1529898626,
    1529898624,
    1529898622,
    1529898620,
    6337694201,
    1529898617,
    6337694211,
    1529898612
  ],
  "tags": {
    "landuse": "cemetery",
    "name": "Gemeindefriedhof"
  }
},
{
  "type": "way",
  "id": 140166450,
  "center": {
    "lat": 51.3976263,
    "lon": 10.3973755
  },
  "nodes": [
    1535647837,
    1535647831,
    1535647825,
    1535647834,
    1535647837
  ],
  "tags": {
    "landuse": "cemetery",
    "name": "Friedhof Gernrode"
  }
},
{
  "type": "way",
  "id": 140882714,
  "center": {
    "lat": 51.3862629,
    "lon": 10.3608997
  },
  "nodes": [
    1542548331,
    1542548275,
    1542548315,
    6943438834,
    1542548329,
    6943438837,
    4614863758,
    1542548331
  ],
  "tags": {
    "landuse": "cemetery",
    "name": "Friedhof Breitenholz",
    "religion": "christian"
  }
},
{
  "type": "way",
  "id": 143219996,
  "center": {
    "lat": 51.7791640,
    "lon": 10.0013520
  },
  "nodes": [
    1567162076,
    1567162084,
    1567162082,
    1567162068,
    1567336485,
    1567162067,
    1567162076
  ],
  "tags": {
    "amenity": "grave_yard"
  }
},
{
  "type": "way",
  "id": 143765559,
  "center": {
    "lat": 51.5566714,
    "lon": 10.2379663
  },
  "nodes": [
    1573158773,
    1984374623,
    1573158770,
    1573169253,
    9409430247,
    1573158767,
    1573158777,
    1573158779,
    1573158773
  ],
  "tags": {
    "landuse": "cemetery",
    "name": "Friedhof Obernfeld"
  }
},
{
  "type": "way",
  "id": 145682708,
  "center": {
    "lat": 51.3345862,
    "lon": 10.7317214
  },
  "nodes": [
    1590523053,
    1590523048,
    1590523050,
    1590523055,
    1590523053
  ],
  "tags": {
    "landuse": "cemetery",
    "name": "Friedhof Himmelsberg"
  }
},
{
  "type": "way",
  "id": 145933921,
  "center": {
    "lat": 51.5571077,
    "lon": 10.0608408
  },
  "nodes": [
    1592540273,
    9921644105,
    9921655420,
    9921644104,
    9921495482,
    1592540298,
    1592540287,
    1816276107,
    1816276099,
    9921644107,
    1592540303,
    9921655433,
    9921655421,
    1592540308,
    9921655432,
    9921655431,
    9921655430,
    9921655429,
    3443071619,
    3443071618,
    3443071617,
    12768166287,
    1592540313,
    9921655427,
    6703946349,
    9921655428,
    1592540282,
    1592540273
  ],
  "tags": {
    "landuse": "cemetery",
    "name": "Friedhof Waake"
  }
},
{
  "type": "way",
  "id": 145980640,
  "center": {
    "lat": 51.5353607,
    "lon": 10.4973009
  },
  "nodes": [
    8047229766,
    8047229765,
    8047229764,
    1592898125,
    1592898100,
    1592898003,
    1592897982,
    8047229766
  ],
  "tags": {
    "landuse": "cemetery",
    "name": "Friedhof Stöckey"
  }
},
{
  "type": "way",
  "id": 146185707,
  "center": {
    "lat": 51.1760769,
    "lon": 10.2786460
  },
  "nodes": [
    1594577614,
    1594577618,
    1594577626,
    1594577673,
    1594577685,
    1594577690,
    1594577635,
    1594577614
  ],
  "tags": {
    "denomination": "catholic",
    "landuse": "cemetery",
    "name": "Friedhof Diedorf",
    "religion": "christian"
  }
},
{
  "type": "way",
  "id": 146395906,
  "center": {
    "lat": 51.3920447,
    "lon": 10.3162842
  },
  "nodes": [
    1596682303,
    1596682309,
    1596682320,
    11627491101,
    1596682321,
    1596682324,
    4018077246,
    4018077245,
    1596682323,
    1596682303
  ],
  "tags": {
    "landuse": "cemetery",
    "name": "Friedhof Leinefelde",
    "wikidata": "Q113551134"
  }
},
{
  "type": "way",
  "id": 147614168,
  "center": {
    "lat": 51.3370099,
    "lon": 10.4850576
  },
  "nodes": [
    1608211913,
    1608211916,
    1608211918,
    1608211915,
    1608211913
  ],
  "tags": {
    "landuse": "cemetery",
    "name": "Friedhof"
  }
},
{
  "type": "way",
  "id": 147630803,
  "center": {
    "lat": 51.8086613,
    "lon": 10.1127052
  },
  "nodes": [
    1608377420,
    1608377386,
    1608377355,
    1608377427,
    1608377420
  ],
  "tags": {
    "landuse": "cemetery"
  }
},
{
  "type": "way",
  "id": 148065014,
  "center": {
    "lat": 51.7951423,
    "lon": 10.4476427
  },
  "nodes": [
    1611765755,
    436394456,
    7982540310,
    436394455,
    1611765816,
    1611765825,
    1611765822,
    1611765796,
    1611765755
  ],
  "tags": {
    "barrier": "fence",
    "landuse": "cemetery",
    "religion": "christian"
  }
},
{
  "type": "way",
  "id": 148478450,
  "center": {
    "lat": 51.6892364,
    "lon": 10.4088348
  },
  "nodes": [
    1615743721,
    2673095913,
    1615743734,
    1615743725,
    1615743716,
    1615743721
  ],
  "tags": {
    "amenity": "grave_yard"
  }
},
{
  "type": "way",
  "id": 148757243,
  "center": {
    "lat": 51.1180195,
    "lon": 10.6440058
  },
  "nodes": [
    1618235851,
    1618235819,
    1698402667,
    1698402614,
    1698402575,
    1618235751,
    1618235757,
    9093683186,
    1618235771,
    1618235799,
    9093683185,
    9093684528,
    1618235875,
    1618235851
  ],
  "tags": {
    "barrier": "wall",
    "landuse": "cemetery",
    "name": "Hauptfriedhof"
  }
},
{
  "type": "way",
  "id": 149519142,
  "center": {
    "lat": 51.5869835,
    "lon": 10.6116189
  },
  "nodes": [
    4690191745,
    4690191744,
    6247769745,
    6247769744,
    4690191743,
    4690191742,
    4690191741,
    4690191740,
    4690191739,
    4690191738,
    4690191727,
    4690191745
  ],
  "tags": {
    "landuse": "cemetery"
  }
},
{
  "type": "way",
  "id": 151713825,
  "center": {
    "lat": 51.9761273,
    "lon": 10.1483520
  },
  "nodes": [
    1645563734,
    1645563606,
    1645563607,
    1645563608,
    1645563650,
    1645563736,
    1091339016,
    1645563734
  ],
  "tags": {
    "landuse": "cemetery"
  }
},
{
  "type": "way",
  "id": 152451298,
  "center": {
    "lat": 51.9075457,
    "lon": 10.0401169
  },
  "nodes": [
    1290253073,
    1652714083,
    1652714118,
    1290253045,
    11494828223,
    1652714061,
    1290253073
  ],
  "tags": {
    "landuse": "cemetery",
    "name": "Friedhof Altgandersheim",
    "religion": "christian"
  }
},
{
  "type": "way",
  "id": 153795515,
  "center": {
    "lat": 51.9799162,
    "lon": 10.1197848
  },
  "nodes": [
    3138464936,
    3122454930,
    763155352,
    1486070992,
    1664364334,
    3138464936
  ],
  "tags": {
    "landuse": "cemetery",
    "name": "Friedhof Königsdahlum",
    "religion": "christian"
  }
},
{
  "type": "way",
  "id": 154193781,
  "center": {
    "lat": 51.8557948,
    "lon": 10.9865608
  },
  "nodes": [
    1667632513,
    1667632515,
    1667632516,
    1667632518,
    1667632513
  ],
  "tags": {
    "amenity": "grave_yard"
  }
},
{
  "type": "way",
  "id": 156313580,
  "center": {
    "lat": 51.5601781,
    "lon": 10.0046488
  },
  "nodes": [
    1685778543,
    1685778584,
    1685778570,
    1685778565,
    3781786865,
    1685778499,
    1685778472,
    1685778457,
    1685778446,
    1685778543
  ],
  "tags": {
    "addr:city": "Göttingen",
    "addr:postcode": "37077",
    "addr:street": "Am Menzelberg",
    "denomination": "lutheran",
    "landuse": "cemetery",
    "name": "Friedhof Roringen",
    "operator": "wall",
    "religion": "christian"
  }
},
{
  "type": "way",
  "id": 156444047,
  "center": {
    "lat": 51.0448973,
    "lon": 10.3893547
  },
  "nodes": [
    1686997623,
    7155936836,
    7155936838,
    7155936840,
    1686997572,
    1686997735,
    1686997733,
    7503960513,
    1686997623
  ],
  "tags": {
    "landuse": "cemetery"
  }
},
{
  "type": "way",
  "id": 157371361,
  "center": {
    "lat": 51.3900418,
    "lon": 10.7988718
  },
  "nodes": [
    1695907105,
    1748302130,
    1695907095,
    1748302145,
    11261445677,
    4217646484,
    1695907079,
    1695907096,
    4217646485,
    1695907105
  ],
  "tags": {
    "landuse": "cemetery"
  }
},
{
  "type": "way",
  "id": 158517665,
  "center": {
    "lat": 51.8693880,
    "lon": 10.9163495
  },
  "nodes": [
    1707038202,
    1707038214,
    1707038201,
    1707038216,
    1707038222,
    3253338222,
    1707038220,
    1707038207,
    1707038199,
    3253338176,
    1707038202
  ],
  "tags": {
    "landuse": "cemetery"
  }
},
{
  "type": "way",
  "id": 158660307,
  "center": {
    "lat": 51.2949561,
    "lon": 10.3505551
  },
  "nodes": [
    1708169348,
    1708169183,
    1708169409,
    1708169333,
    1708169300,
    1708169202,
    6369612144,
    1708169348
  ],
  "tags": {
    "denomination": "catholic",
    "landuse": "cemetery",
    "religion": "christian",
    "wikidata": "Q136474551"
  }
},
{
  "type": "way",
  "id": 159001500,
  "center": {
    "lat": 51.1596668,
    "lon": 10.4523108
  },
  "nodes": [
    1711106485,
    1740257098,
    5829436804,
    1740257104,
    5829436803,
    5829436802,
    5829436801,
    1711106488,
    1740257095,
    5829436800,
    5829436799,
    2034785771,
    2034785750,
    1711106489,
    1711106485
  ],
  "tags": {
    "denomination": "lutheran",
    "landuse": "cemetery",
    "religion": "christian",
    "wikidata": "Q130220427"
  }
},
{
  "type": "way",
  "id": 159009485,
  "center": {
    "lat": 51.3687729,
    "lon": 10.7378944
  },
  "nodes": [
    1711174074,
    1711174023,
    4318034470,
    1711174013,
    1711173996,
    1711174058,
    1711174263,
    1711174074
  ],
  "tags": {
    "denomination": "protestant",
    "landuse": "cemetery",
    "religion": "christian"
  }
},
{
  "type": "way",
  "id": 159911901,
  "center": {
    "lat": 51.4380562,
    "lon": 10.7251316
  },
  "nodes": [
    1719750425,
    8262299007,
    1719750368,
    3794268366,
    1719750215,
    1719750187,
    1719750245,
    1719750366,
    8262314613,
    1719750425
  ],
  "tags": {
    "denomination": "protestant",
    "landuse": "cemetery",
    "name": "Friedhof Wollersleben",
    "religion": "christian"
  }
},
{
  "type": "way",
  "id": 160200955,
  "center": {
    "lat": 51.3247731,
    "lon": 10.7736317
  },
  "nodes": [
    1722649872,
    1722649910,
    1722649938,
    1722649911,
    1722649870,
    1722649942,
    1722649872
  ],
  "tags": {
    "landuse": "cemetery",
    "wikidata": "Q120868480"
  }
},
{
  "type": "way",
  "id": 160204189,
  "center": {
    "lat": 51.3057375,
    "lon": 10.8197623
  },
  "nodes": [
    4723573729,
    4723573730,
    4721542905,
    4721542904,
    1722678890,
    4723573729
  ],
  "tags": {
    "landuse": "cemetery"
  }
},
{
  "type": "way",
  "id": 160826173,
  "center": {
    "lat": 51.3123735,
    "lon": 10.3095552
  },
  "nodes": [
    1728423317,
    1728423314,
    1728423309,
    1728423308,
    1728423316,
    1728423317
  ],
  "tags": {
    "fixme": "Genauer Grundstücksverlauf nicht bekannt.",
    "landuse": "cemetery",
    "name": "Neuer Friedhof"
  }
},
{
  "type": "way",
  "id": 161627326,
  "center": {
    "lat": 51.7713164,
    "lon": 10.7973124
  },
  "nodes": [
    1736015688,
    2119166567,
    1736015690,
    1736015701,
    2119166557,
    1736015693,
    1736015695,
    1736015687,
    1736015683,
    1736015700,
    1736015698,
    2119166568,
    1736015688
  ],
  "tags": {
    "landuse": "cemetery"
  }
},
{
  "type": "way",
  "id": 163697003,
  "center": {
    "lat": 51.9024206,
    "lon": 10.5631305
  },
  "nodes": [
    8960905702,
    8960905680,
    8960905700,
    8960905701,
    8960905699,
    1753768718,
    1753768717,
    1753768719,
    1753768720,
    1753768721,
    1753768716,
    8960905686,
    8960905688,
    8960905687,
    8960905702
  ],
  "tags": {
    "landuse": "cemetery"
  }
},
{
  "type": "way",
  "id": 164215982,
  "center": {
    "lat": 51.8989488,
    "lon": 10.7323227
  },
  "nodes": [
    1758687635,
    1758687630,
    2475138585,
    1758687626,
    1758687636,
    1758687647,
    1758687635
  ],
  "tags": {
    "landuse": "cemetery"
  }
},
{
  "type": "way",
  "id": 164229015,
  "center": {
    "lat": 51.9906779,
    "lon": 10.2701501
  },
  "nodes": [
    1758781412,
    1758781413,
    1758781420,
    1758781409,
    1758781404,
    1758781437,
    1758781405,
    442964377,
    1758781431,
    1758781412
  ],
  "tags": {
    "landuse": "cemetery"
  }
},
{
  "type": "way",
  "id": 164358218,
  "center": {
    "lat": 51.7645618,
    "lon": 10.6647624
  },
  "nodes": [
    1759991852,
    1759991877,
    1759991887,
    1759991889,
    1759991881,
    1759991840,
    1759991832,
    2085736323,
    2085736318,
    1759991828,
    1759991802,
    1759991800,
    1759991795,
    1759991797,
    1759991814,
    1759991852
  ],
  "tags": {
    "denomination": "protestant",
    "landuse": "cemetery",
    "name": "Friedhof Schierke",
    "religion": "christian"
  }
},
{
  "type": "way",
  "id": 164473219,
  "center": {
    "lat": 51.1855798,
    "lon": 10.2035636
  },
  "nodes": [
    1761137433,
    1761137431,
    1761137430,
    1761137437,
    12742589715,
    12742589716,
    12742589717,
    12742589718,
    12742589719,
    12742589720,
    12742589721,
    12742589722,
    1761137439,
    1761137433
  ],
  "tags": {
    "amenity": "grave_yard",
    "landuse": "cemetery",
    "name": "Konsul's Grab"
  }
},
{
  "type": "way",
  "id": 164960335,
  "center": {
    "lat": 51.0345972,
    "lon": 10.9737853
  },
  "nodes": [
    4530932152,
    1765505405,
    1765505409,
    1481431596,
    1481431635,
    4530932152
  ],
  "tags": {
    "landuse": "cemetery",
    "name": "Friedhof Kühnhausen",
    "website": "https://www.erfurt.de/ef/de/erleben/sehenswertes/friedhoefe/ortsteilfriedhof/108178.html"
  }
},
{
  "type": "way",
  "id": 168199406,
  "center": {
    "lat": 51.0129085,
    "lon": 10.1226461
  },
  "nodes": [
    1794869600,
    1794869591,
    1794869577,
    1794869581,
    1794869608,
    1794869606,
    1794869602,
    1794869600
  ],
  "tags": {
    "landuse": "cemetery",
    "name": "Friedhof Wommen",
    "source": "Bing"
  }
},
{
  "type": "way",
  "id": 169319085,
  "center": {
    "lat": 51.2320388,
    "lon": 10.9357023
  },
  "nodes": [
    4766218506,
    4766218508,
    1804883493,
    4766218513,
    4766218514,
    4766218517,
    1804883501,
    4766218506
  ],
  "tags": {
    "denomination": "protestant",
    "landuse": "cemetery",
    "name": "Friedhof Clingen",
    "religion": "christian"
  }
},
{
  "type": "way",
  "id": 169717408,
  "center": {
    "lat": 51.0210110,
    "lon": 10.3404692
  },
  "nodes": [
    1808794362,
    1808794357,
    1808794360,
    1808794364,
    7196003240,
    7196003239,
    7196003241,
    7196002257,
    7196002256,
    1808794362
  ],
  "tags": {
    "addr:city": "Eisenach",
    "addr:street": "Lerchenberger Straße",
    "addr:suburb": "Neukirchen",
    "denomination": "lutheran",
    "landuse": "cemetery",
    "religion": "christian",
    "wikidata": "Q113550493"
  }
},
{
  "type": "way",
  "id": 169815510,
  "center": {
    "lat": 51.3778177,
    "lon": 10.6631835
  },
  "nodes": [
    1809740532,
    1809740529,
    3962148257,
    3965689980,
    5016297303,
    5016297302,
    1809740532
  ],
  "tags": {
    "landuse": "cemetery"
  }
},
{
  "type": "way",
  "id": 170336892,
  "center": {
    "lat": 51.4890858,
    "lon": 10.0466881
  },
  "nodes": [
    317056853,
    317056851,
    1814928266,
    1814928291,
    5672758789,
    5684755470,
    5684755471,
    1814928289,
    1814928265,
    5672758790,
    670431542,
    317056853
  ],
  "tags": {
    "addr:city": "Gleichen",
    "addr:country": "DE",
    "addr:housenumber": "5",
    "addr:postcode": "37130",
    "addr:street": "Hainbundstraße",
    "addr:suburb": "Benniehausen",
    "contact:website": "http://www.kk-goe.de/gemeinden/landkreis/apostel.html",
    "denomination": "lutheran",
    "landuse": "cemetery",
    "name": "Friedhof Benniehausen",
    "operator": "Apostel-Kirchengemeinde in Gleichen",
    "religion": "christian"
  }
},
{
  "type": "way",
  "id": 170485478,
  "center": {
    "lat": 51.5285138,
    "lon": 10.0652136
  },
  "nodes": [
    1816288795,
    1816288816,
    1816288796,
    1816288807,
    1816288812,
    1816288795
  ],
  "tags": {
    "landuse": "cemetery",
    "name": "Friedhof Mackenrode"
  }
},
{
  "type": "way",
  "id": 170487538,
  "center": {
    "lat": 51.4436853,
    "lon": 10.0812339
  },
  "nodes": [
    1816324737,
    9761577147,
    9761577146,
    9761577148,
    1950609259,
    9761577143,
    1950609276,
    9761577144,
    1816324752,
    1816324746,
    1531395318,
    9310544124,
    1816324737
  ],
  "tags": {
    "addr:city": "Gleichen",
    "addr:country": "DE",
    "addr:housenumber": "10",
    "addr:postcode": "37130",
    "addr:street": "Am Eichengraben",
    "addr:suburb": "Bischhausen",
    "contact:website": "https://kreuzweg-gleichen-wir-e-de.wir-e.de/unsere-friedhoefe",
    "denomination": "lutheran",
    "landuse": "cemetery",
    "name": "Friedhof Bischhausen",
    "operator": "Kreuzweg-Kirchengemeinde in Gleichen",
    "religion": "christian"
  }
},
{
  "type": "way",
  "id": 170579755,
  "center": {
    "lat": 51.4309761,
    "lon": 10.0295311
  },
  "nodes": [
    1817530560,
    1817530559,
    1817530565,
    1817530563,
    1817530560
  ],
  "tags": {
    "contact:website": "https://kreuzweg-gleichen-wir-e-de.wir-e.de/unsere-friedhoefe",
    "denomination": "lutheran",
    "landuse": "cemetery",
    "name": "Friedhof Ischenrode",
    "operator": "Kreuzweg-Kirchengemeinde in Gleichen",
    "religion": "christian"
  }
},
{
  "type": "way",
  "id": 170645181,
  "center": {
    "lat": 51.5854505,
    "lon": 10.6730875
  },
  "nodes": [
    3883236662,
    3726029788,
    3726029789,
    3114607550,
    3883236718,
    8234246456,
    3883236658,
    8234246455,
    3883236662
  ],
  "tags": {
    "landuse": "cemetery",
    "url": "https://daten.verwaltungsportal.de/dateien/rechtsgrundlagen/friedhofsatzung2001.01.2010.pdf"
  }
},
{
  "type": "way",
  "id": 172451064,
  "center": {
    "lat": 51.0033380,
    "lon": 10.7378067
  },
  "nodes": [
    1833572339,
    1833572332,
    1833572348,
    1833572352,
    1833572339
  ],
  "tags": {
    "landuse": "cemetery",
    "religion": "christian"
  }
},
{
  "type": "way",
  "id": 173524495,
  "center": {
    "lat": 51.9537529,
    "lon": 10.3839877
  },
  "nodes": [
    1843196223,
    1843196220,
    1843196221,
    1257975244,
    1257975227,
    1257975230,
    1843196223
  ],
  "tags": {
    "amenity": "grave_yard",
    "name": "Friedhof Jerstedt"
  }
},
{
  "type": "way",
  "id": 173664850,
  "center": {
    "lat": 51.1626138,
    "lon": 10.9934413
  },
  "nodes": [
    1844339525,
    1844339503,
    1904072776,
    1904072789,
    12951143994,
    1904072767,
    12951143993,
    1844339507,
    12951143992,
    1844339524,
    1844339525
  ],
  "tags": {
    "landuse": "cemetery",
    "wikidata": "Q135068270"
  }
},
{
  "type": "way",
  "id": 173664851,
  "center": {
    "lat": 51.1720582,
    "lon": 10.9924004
  },
  "nodes": [
    1844339506,
    1844339515,
    1844339519,
    8411193414,
    1844339513,
    6000809955,
    1844339506
  ],
  "tags": {
    "barrier": "hedge",
    "landuse": "cemetery",
    "name": "Friedhof Straußfurt"
  }
},
{
  "type": "way",
  "id": 175636499,
  "center": {
    "lat": 51.5738867,
    "lon": 10.1154779
  },
  "nodes": [
    1861995407,
    1861995405,
    5676594222,
    8996251594,
    5676594223,
    5676594224,
    5676594225,
    1861995403,
    1861995402,
    1861995393,
    1861995400,
    1861995401,
    4707866822,
    1861995399,
    4707866821,
    1861995407
  ],
  "tags": {
    "landuse": "cemetery",
    "name": "Friedhof Ebergötzen"
  }
},
{
  "type": "way",
  "id": 175638109,
  "center": {
    "lat": 51.6066038,
    "lon": 10.2182461
  },
  "nodes": [
    1862009782,
    1862009760,
    1862009791,
    1862009789,
    1862009689,
    1862009692,
    1862009697,
    1862009782
  ],
  "tags": {
    "landuse": "cemetery",
    "name": "Friedhof Gieboldehausen"
  }
},
{
  "type": "way",
  "id": 176038653,
  "center": {
    "lat": 51.2599558,
    "lon": 10.3081362
  },
  "nodes": [
    1866005778,
    1866005781,
    1866005745,
    1866005737,
    1866005741,
    1866005742,
    1866005751,
    3814478049,
    1866005765,
    1866005753,
    1866005778
  ],
  "tags": {
    "landuse": "cemetery"
  }
},
{
  "type": "way",
  "id": 176040324,
  "center": {
    "lat": 51.2720837,
    "lon": 10.2814058
  },
  "nodes": [
    1866027817,
    1866027800,
    5315675763,
    5315675764,
    1866027811,
    6715004643,
    6715004642,
    6712120023,
    1866027817
  ],
  "tags": {
    "landuse": "cemetery",
    "name": "Friedhof Küllstedt"
  }
},
{
  "type": "way",
  "id": 176046092,
  "center": {
    "lat": 51.1790404,
    "lon": 10.0922048
  },
  "nodes": [
    1866080184,
    1866080188,
    1866080191,
    1866080180,
    1866080173,
    1866080184
  ],
  "tags": {
    "landuse": "cemetery",
    "name": "Friedhof Niederdünzebach"
  }
},
{
  "type": "way",
  "id": 176959429,
  "center": {
    "lat": 51.6926435,
    "lon": 10.8474575
  },
  "nodes": [
    1948458194,
    4454627936,
    4454627928,
    4454627926,
    4454627925,
    4454627924,
    1874393792,
    1948458194
  ],
  "tags": {
    "landuse": "cemetery"
  }
},
{
  "type": "way",
  "id": 177110489,
  "center": {
    "lat": 51.5640090,
    "lon": 10.8162619
  },
  "nodes": [
    1875783442,
    1875783452,
    1875783438,
    1875783494,
    3121686200,
    1875783442
  ],
  "tags": {
    "landuse": "cemetery",
    "source": "Bing"
  }
},
{
  "type": "way",
  "id": 178196237,
  "center": {
    "lat": 51.2325702,
    "lon": 10.1631193
  },
  "nodes": [
    1885669383,
    1885669392,
    1885669397,
    1885669395,
    1885669383
  ],
  "tags": {
    "landuse": "cemetery",
    "name": "Friedhof Geismar"
  }
},
{
  "type": "way",
  "id": 178286051,
  "center": {
    "lat": 51.1799826,
    "lon": 10.0519790
  },