{
  "version": 0.6,
  "generator": "Overpass API 0.7.62.8 e802775f",
  "osm3s": {
    "timestamp_osm_base": "2025-11-02T22:56:22Z",
    "copyright": "The data included in this document is from www.openstreetmap.org. The data is made available under ODbL."
  },
  "elements": [

{
  "type": "way",
  "id": 4228292,
  "center": {
    "lat": 55.5348104,
    "lon": 8.4775459
  },
  "nodes": [
    25231460,
    25231461,
    25231462,
    30647858,
    25231463,
    25231459,
    25231460
  ],
  "tags": {
    "landuse": "cemetery"
  }
},
{
  "type": "way",
  "id": 4294601,
  "center": {
    "lat": 55.4919641,
    "lon": 8.4155989
  },
  "nodes": [
    25937048,
    2502712764,
    2502712787,
    2502712807,
    2502712808,
    2502712818,
    2502712822,
    2502712820,
    2502712854,
    2502712852,
    25937045,
    1027089668,
    2502712803,
    2502712795,
    2502712785,
    25937046,
    1027089454,
    1027089547,
    1027089724,
    2502712691,
    2502712693,
    2502712734,
    2502712736,
    3781785507,
    3781785506,
    3781785505,
    3781785503,
    3781785504,
    2502712689,
    1027089667,
    25937048
  ],
  "tags": {
    "alt_name": "Gravlunden",
    "landuse": "cemetery",
    "name": "Fovrfeld Gravlund",
    "wikidata": "Q21162775",
    "wikipedia": "da:Fovrfeld Gravlund"
  }
},
{
  "type": "way",
  "id": 4296356,
  "center": {
    "lat": 55.4784208,
    "lon": 8.4819793
  },
  "nodes": [
    25952452,
    25952453,
    25952454,
    25952455,
    51495569,
    25952452
  ],
  "tags": {
    "landuse": "cemetery",
    "name": "Kirkegården i Jerne",
    "wikidata": "Q115398327"
  }
},
{
  "type": "way",
  "id": 4317872,
  "center": {
    "lat": 55.4799982,
    "lon": 8.4819144
  },
  "nodes": [
    26200677,
    26200679,
    1023153129,
    1023153222,
    1023153308,
    1023153436,
    26200675,
    26200676,
    26200677
  ],
  "tags": {
    "alt_name": "Jerne Kirkegård",
    "landuse": "cemetery",
    "name": "Kirkegården i Jerne"
  }
},
{
  "type": "way",
  "id": 4807393,
  "center": {
    "lat": 55.4758619,
    "lon": 8.4440470
  },
  "nodes": [
    30860456,
    9776380307,
    9776380306,
    1022575042,
    9776380308,
    1022575034,
    30860518,
    30860509,
    30860501,
    9776357740,
    9776357739,
    30860456
  ],
  "tags": {
    "landuse": "cemetery",
    "name": "Kirkegården ved Gormsgade",
    "name:etymology:wikidata": "Q115260542",
    "wikidata": "Q111364295"
  }
},
{
  "type": "way",
  "id": 34431685,
  "center": {
    "lat": 55.8284049,
    "lon": 8.4283221
  },
  "nodes": [
    395804721,
    2288129448,
    395804738,
    395804723,
    10719668127,
    10719668126,
    395804725,
    395804727,
    395804729,
    395804731,
    2288129565,
    395804733,
    395804721
  ],
  "tags": {
    "landuse": "cemetery",
    "religion": "christian"
  }
},
{
  "type": "way",
  "id": 42384528,
  "center": {
    "lat": 55.6194884,
    "lon": 8.4786583
  },
  "nodes": [
    529089215,
    7263115278,
    2218456091,
    529089202,
    529089161,
    529089216,
    1745524324,
    529089215
  ],
  "tags": {
    "description": "Den Gamle Kirkegaard",
    "landuse": "cemetery",
    "name": "Varde Gamle Kirkegård"
  }
},
{
  "type": "way",
  "id": 45418725,
  "center": {
    "lat": 55.6118695,
    "lon": 8.3222449
  },
  "nodes": [
    577498842,
    6195939678,
    6195939679,
    6195939680,
    6195939681,
    6195939988,
    6195939677,
    6195939676,
    577498843,
    6195939675,
    1126596479,
    2352501003,
    6195939987,
    6195939986,
    6195939985,
    6195939684,
    577498844,
    1126596869,
    577498845,
    6195939682,
    6195939683,
    577498842
  ],
  "tags": {
    "barrier": "wall",
    "landuse": "cemetery",
    "religion": "christian",
    "wall": "dry_stone"
  }
},
{
  "type": "way",
  "id": 47452205,
  "center": {
    "lat": 55.3278793,
    "lon": 8.7854100
  },
  "nodes": [
    603896447,
    603896439,
    603896396,
    603896379,
    603896447
  ],
  "tags": {
    "amenity": "grave_yard",
    "name": "Ribe Ny Kirkegård",
    "religion": "christian",
    "wikidata": "Q107300557"
  }
},
{
  "type": "way",
  "id": 47503924,
  "center": {
    "lat": 55.1934204,
    "lon": 8.7260547
  },
  "nodes": [
    604869041,
    604868994,
    604869086,
    713805300,
    604869110,
    5351750026,
    604982557,
    604982556,
    604869041
  ],
  "tags": {
    "landuse": "cemetery",
    "religion": "christian"
  }
},
{
  "type": "way",
  "id": 48309844,
  "center": {
    "lat": 55.3246974,
    "lon": 8.7618119
  },
  "nodes": [
    613823009,
    3837974836,
    3837974837,
    613823006,
    3837974835,
    3669851878,
    3669851879,
    613823033,
    3669851876,
    613823073,
    3669851875,
    613823086,
    3669851874,
    3837974840,
    3837974841,
    613823048,
    3669851866,
    3669851870,
    613823009
  ],
  "tags": {
    "alt_name": "Ribe Gl. Kirkegård",
    "amenity": "grave_yard",
    "name": "Ribe Gamle Kirkegård",
    "religion": "christian",
    "website": "https://www.ribekirkegaard.dk/besoeg-kirkegaardene/ribe-gl-kirkegaard",
    "wikidata": "Q96621402",
    "wikimedia_commons": "Category:Ribe Gamle Kirkegård"
  }
},
{
  "type": "way",
  "id": 48980368,
  "center": {
    "lat": 55.0806037,
    "lon": 8.3754908
  },
  "nodes": [
    621482604,
    621482615,
    621482617,
    621482600,
    621482616,
    621482612,
    621482608,
    621482604
  ],
  "tags": {
    "cemetery": "sea",
    "landuse": "cemetery",
    "name": "Lister Tief (Sylt Nord)"
  }
},
{
  "type": "way",
  "id": 55335386,
  "center": {
    "lat": 55.6084282,
    "lon": 8.2088510
  },
  "nodes": [
    695079751,
    695079752,
    695079749,
    695079750,
    695079751
  ],
  "tags": {
    "landuse": "cemetery",
    "religion": "christian"
  }
},
{
  "type": "way",
  "id": 60054605,
  "center": {
    "lat": 55.3632606,
    "lon": 8.7354069
  },
  "nodes": [
    746474882,
    5442351232,
    5442351231,
    5442351230,
    746474848,
    746474770,
    746474865,
    746474778,
    746474882
  ],
  "tags": {
    "amenity": "grave_yard",
    "religion": "christian"
  }
},
{
  "type": "way",
  "id": 67560364,
  "center": {
    "lat": 55.2911383,
    "lon": 8.6744915
  },
  "nodes": [
    815825913,
    815825848,
    3820208895,
    815826243,
    815825886,
    815826329,
    3820208885,
    3820208886,
    815826137,
    3820208877,
    3820208878,
    815825922,
    3820208891,
    815825913
  ],
  "tags": {
    "amenity": "grave_yard",
    "religion": "christian"
  }
},
{
  "type": "way",
  "id": 68169259,
  "center": {
    "lat": 55.3139912,
    "lon": 8.8286101
  },
  "nodes": [
    821375650,
    821375675,
    821375694,
    821375667,
    821375652,
    2352719372,
    821375689,
    821375650
  ],
  "tags": {
    "amenity": "grave_yard",
    "religion": "christian"
  }
},
{
  "type": "way",
  "id": 69142264,
  "center": {
    "lat": 55.2619935,
    "lon": 8.6846023
  },
  "nodes": [
    829360460,
    829360803,
    7354727854,
    829360945,
    3234238657,
    7354727843,
    829360484,
    829360391,
    3234238659,
    829360875,
    829360741,
    829360460
  ],
  "tags": {
    "landuse": "cemetery",
    "religion": "christian"
  }
},
{
  "type": "way",
  "id": 69468705,
  "center": {
    "lat": 55.2376464,
    "lon": 8.7144982
  },
  "nodes": [
    831782319,
    831782245,
    831782271,
    427684933,
    831782293,
    427684930,
    831782328,
    831782230,
    831782319
  ],
  "tags": {
    "landuse": "cemetery",
    "religion": "christian"
  }
},
{
  "type": "way",
  "id": 72611272,
  "center": {
    "lat": 55.3959643,
    "lon": 8.7023775
  },
  "nodes": [
    861781795,
    861781843,
    861781733,
    861781793,
    861781857,
    5873504825,
    861781751,
    861781814,
    861781865,
    861781769,
    861781835,
    861781795
  ],
  "tags": {
    "amenity": "grave_yard",
    "denomination": "lutheran",
    "religion": "christian"
  }
},
{
  "type": "way",
  "id": 87325981,
  "center": {
    "lat": 55.5305475,
    "lon": 8.3999994
  },
  "nodes": [
    1015371915,
    4833142561,
    2501570822,
    1015371985,
    4833142559,
    2501570818,
    1506167364,
    1506167380,
    1015372013,
    4833142568,
    1015371999,
    1015371844,
    1015371915
  ],
  "tags": {
    "amenity": "grave_yard"
  }
},
{
  "type": "way",
  "id": 88004825,
  "center": {
    "lat": 55.4747837,
    "lon": 8.5034240
  },
  "nodes": [
    11183546709,
    11183546708,
    11183546706,
    2502541254,
    11183546707,
    11183546705,
    1022961128,
    1101862299,
    11183444105,
    1022960584,
    1102919970,
    1022961187,
    11183444072,
    11183546709
  ],
  "tags": {
    "landuse": "cemetery",
    "layer": "-1",
    "name": "Novrup Kirkegård",
    "source": "https://kirkegårde.esbjerg.dk/admin/public/GetImage.ashx?Image=/Files/Images/Kirkeg%C3%A5rde/Om%20kirkeg%C3%A5rdene/Novrup/Novrup_Illustration_D528.png&width=480",
    "start_date": "1976-09-24",
    "website": "https://kirkegårde.esbjerg.dk/om-de-kommunale-kirkegaarde/kirkegaarde-og-kapeller/novrup-kirkegaard-og-krematorium"
  }
},
{
  "type": "way",
  "id": 93480205,
  "center": {
    "lat": 55.1150288,
    "lon": 8.7992999
  },
  "nodes": [
    1083675651,
    1083675699,
    1508633522,
    1083675667,
    1083675680,
    1508551586,
    1083675643,
    1083675651
  ],
  "tags": {
    "landuse": "cemetery",
    "name": "Døstrup Kirkegård",
    "religion": "christian"
  }
},
{
  "type": "way",
  "id": 93565720,
  "center": {
    "lat": 55.6464198,
    "lon": 8.8067169
  },
  "nodes": [
    1085290845,
    2214337413,
    1085290873,
    1085290860,
    1085290880,
    1085290845
  ],
  "tags": {
    "landuse": "cemetery",
    "religion": "christian"
  }
},
{
  "type": "way",
  "id": 93565722,
  "center": {
    "lat": 55.6471881,
    "lon": 8.8037957
  },
  "nodes": [
    1085290864,
    1085290859,
    1085290879,
    1085290862,
    8458845294,
    1085290864
  ],
  "tags": {
    "amenity": "grave_yard",
    "name": "Vester Ny Starup Kirkegård"
  }
},
{
  "type": "way",
  "id": 93566476,
  "center": {
    "lat": 55.6951177,
    "lon": 8.8414504
  },
  "nodes": [
    1085292555,
    1085292551,
    1085292557,
    1085292554,
    1085292553,
    1085292552,
    1085292558,
    1085292556,
    1085292555
  ],
  "tags": {
    "amenity": "grave_yard",
    "religion": "christian"
  }
},
{
  "type": "way",
  "id": 93738658,
  "center": {
    "lat": 55.0762931,
    "lon": 8.9311575
  },
  "nodes": [
    1088566366,
    1088566656,
    1088566979,
    4036564566,
    4036564565,
    1088566735,
    4036564564,
    1088566834,
    1088566366
  ],
  "tags": {
    "landuse": "cemetery",
    "religion": "christian"
  }
},
{
  "type": "way",
  "id": 93751658,
  "center": {
    "lat": 55.7385170,
    "lon": 8.7049911
  },
  "nodes": [
    1088745469,
    1088745421,
    1088745589,
    3098343355,
    1088745154,
    1088745469
  ],
  "tags": {
    "landuse": "cemetery"
  }
},
{
  "type": "way",
  "id": 93774292,
  "center": {
    "lat": 55.1593928,
    "lon": 8.7657628
  },
  "nodes": [
    1089058516,
    1089058340,
    3649934029,
    2291875530,
    1089058095,
    1089058417,
    1089058488,
    1089058221,
    1089058555,
    2291875510,
    2291875508,
    2291875498,
    1089058274,
    1089058654,
    1089058311,
    2291875524,
    1089058516
  ],
  "tags": {
    "amenity": "grave_yard",
    "name": "Skærbæk Kirkegård",
    "religion": "christian"
  }
},
{
  "type": "way",
  "id": 93796237,
  "center": {
    "lat": 55.1491841,
    "lon": 8.9616950
  },
  "nodes": [
    1089357135,
    10612359757,
    1089357236,
    3168109561,
    3168109453,
    3168109437,
    4221582305,
    3168109422,
    2258862623,
    4221582303,
    1089357200,
    1089357130,
    2258862621,
    1089357054,
    1089357135
  ],
  "tags": {
    "amenity": "grave_yard",
    "name": "Arrild Kirkegård",
    "religion": "christian"
  }
},
{
  "type": "way",
  "id": 93857310,
  "center": {
    "lat": 55.0903826,
    "lon": 8.6583561
  },
  "nodes": [
    1090894656,
    1090894605,
    4818147035,
    4818147041,
    1090894412,
    1090894494,
    4818147034,
    4818147037,
    4818147036,
    1090894656
  ],
  "tags": {
    "amenity": "grave_yard",
    "religion": "christian"
  }
},
{
  "type": "way",
  "id": 93862723,
  "center": {
    "lat": 55.0915636,
    "lon": 8.7288077
  },
  "nodes": [
    1091013521,
    12014391369,
    5351750032,
    1091013591,
    5351750031,
    1091013489,
    1091013538,
    5351750030,
    1091013521
  ],
  "tags": {
    "amenity": "grave_yard",
    "name": "Randerup Kirkegård",
    "religion": "christian"
  }
},
{
  "type": "way",
  "id": 93938654,
  "center": {
    "lat": 55.2597422,
    "lon": 8.9042528
  },
  "nodes": [
    1092062941,
    1092062825,
    1092063248,
    1092063478,
    3458059190,
    1092062941
  ],
  "tags": {
    "landuse": "cemetery",
    "name": "Spandet Kirkegård",
    "religion": "christian"
  }
},
{
  "type": "way",
  "id": 93938656,
  "center": {
    "lat": 55.2158686,
    "lon": 8.8515939
  },
  "nodes": [
    1092063032,
    4450258429,
    1092062903,
    1092063361,
    1092063561,
    3126588381,
    3126588358,
    1092063032
  ],
  "tags": {
    "landuse": "cemetery",
    "religion": "christian"
  }
},
{
  "type": "way",
  "id": 93951272,
  "center": {
    "lat": 55.2307333,
    "lon": 8.9908607
  },
  "nodes": [
    1092228424,
    1092228318,
    5442614714,
    1092228465,
    2537640367,
    1092228101,
    5218015276,
    5218015275,
    1092228424
  ],
  "tags": {
    "landuse": "cemetery",
    "name": "Højrup Kirkegård",
    "religion": "christian"
  }
},
{
  "type": "way",
  "id": 93962140,
  "center": {
    "lat": 55.0570357,
    "lon": 8.9511889
  },
  "nodes": [
    5442618243,
    7768766808,
    1092359306,
    7768766809,
    7768766806,
    1092359716,
    7768766805,
    7701752181,
    4032674199,
    7768766804,
    2179104631,
    1092359409,
    3496493168,
    1092359579,
    4032674194,
    7768766807,
    1092359352,
    2209741197,
    2209741196,
    2209741200,
    1092359650,
    1092359405,
    2209741203,
    2209741204,
    1092359172,
    1092359468,
    1092359246,
    7768766812,
    5442618243
  ],
  "tags": {
    "landuse": "cemetery",
    "religion": "christian"
  }
},
{
  "type": "way",
  "id": 94067642,
  "center": {
    "lat": 55.3532017,
    "lon": 8.9781293
  },
  "nodes": [
    1093673912,
    1093673684,
    1093673924,
    1093673461,
    1093673912
  ],
  "tags": {
    "amenity": "grave_yard",
    "name": "Hygum Kirkegård",
    "religion": "christian"
  }
},
{
  "type": "way",
  "id": 94067646,
  "center": {
    "lat": 55.3153165,
    "lon": 8.9813347
  },
  "nodes": [
    1093673450,
    3525557921,
    3525557915,
    1093673829,
    3525557911,
    1093673335,
    1093673356,
    1093673533,
    1093673399,
    3843414679,
    1093673450
  ],
  "tags": {
    "amenity": "grave_yard",
    "religion": "christian"
  }
},
{
  "type": "way",
  "id": 94067678,
  "center": {
    "lat": 55.3875484,
    "lon": 8.8768077
  },
  "nodes": [
    1093673578,
    12590636521,
    1093673920,
    1093673808,
    5423282991,
    5423282990,
    1093673947,
    5423282992,
    12590608998,
    1093673498,
    5423282993,
    1093673636,
    1093673578
  ],
  "tags": {
    "landuse": "cemetery",
    "religion": "christian"
  }
},
{
  "type": "way",
  "id": 94146185,
  "center": {
    "lat": 55.3314899,
    "lon": 8.8778344
  },
  "nodes": [
    1094390178,
    1094390153,
    1094390231,
    1094390159,
    1094390178
  ],
  "tags": {
    "amenity": "grave_yard",
    "name": "Obbekær Kirkegård",
    "religion": "christian"
  }
},
{
  "type": "way",
  "id": 95348420,
  "center": {
    "lat": 55.4026167,
    "lon": 8.7462556
  },
  "nodes": [
    1105802031,
    5107768382,
    1105802097,
    1105801972,
    8931425811,
    1105802025,
    5107768378,
    5107768411,
    5107768410,
    1105802031
  ],
  "tags": {
    "amenity": "grave_yard",
    "name": "Gredstedbro Kirkegård",
    "religion": "christian"
  }
},
{
  "type": "way",
  "id": 95524132,
  "center": {
    "lat": 55.6954197,
    "lon": 8.9954158
  },
  "nodes": [
    1107651532,
    1107651488,
    1107651549,
    2600886928,
    2600886929,
    2600886930,
    1107651536,
    2600886933,
    1107651474,
    1107651464,
    1107651521,
    2600886939,
    2600886937,
    2600886934,
    1107651532
  ],
  "tags": {
    "landuse": "cemetery"
  }
},
{
  "type": "way",
  "id": 95558364,
  "center": {
    "lat": 55.4366770,
    "lon": 8.7223407
  },
  "nodes": [
    1108078309,
    4248929679,
    1108077665,
    4248929635,
    4248929594,
    4248929562,
    1108078160,
    4248929560,
    1108077558,
    4248929584,
    1108078309
  ],
  "tags": {
    "amenity": "grave_yard",
    "barrier": "wall",
    "name": "Hunderup Kirkegård",
    "religion": "christian"
  }
},
{
  "type": "way",
  "id": 95588366,
  "center": {
    "lat": 55.4179680,
    "lon": 8.7910120
  },
  "nodes": [
    1108338549,
    1108338485,
    5442351247,
    1108338403,
    1108338555,
    1108338541,
    1108338549
  ],
  "tags": {
    "amenity": "grave_yard",
    "name": "Jernved Kirkegård",
    "religion": "christian"
  }
},
{
  "type": "way",
  "id": 96322888,
  "center": {
    "lat": 55.4618274,
    "lon": 8.5831253
  },
  "nodes": [
    1116388590,
    1116388648,
    10582378821,
    1116388610,
    1289480043,
    1116388614,
    1116388672,
    1552349351,
    1116388590
  ],
  "tags": {
    "amenity": "grave_yard"
  }
},
{
  "type": "way",
  "id": 96744046,
  "center": {
    "lat": 55.0581237,
    "lon": 8.8323230
  },
  "nodes": [
    1120258461,
    12124952844,
    12124952847,
    1120258709,
    12124952867,
    12124952868,
    1120258551,
    3898217468,
    1120258421,
    1120258624,
    1120258461
  ],
  "tags": {
    "amenity": "grave_yard",
    "religion": "christian"
  }
},
{
  "type": "way",
  "id": 96755534,
  "center": {
    "lat": 55.0111741,
    "lon": 8.7762965
  },
  "nodes": [
    1120422657,
    10914028058,
    10914028048,
    10914028062,
    1120422593,
    10914028041,
    10914028055,
    1120422687,
    1120422823,
    5442618005,
    1120422657
  ],
  "tags": {
    "amenity": "grave_yard",
    "religion": "christian"
  }
},
{
  "type": "way",
  "id": 96787827,
  "center": {
    "lat": 55.4310179,
    "lon": 8.6473913
  },
  "nodes": [
    1121271546,
    2082513905,
    7697560606,
    1121271331,
    1121327898,
    1121271316,
    2082513911,
    1121271552,
    1121271022,
    1121271546
  ],
  "tags": {
    "barrier": "wall",
    "landuse": "cemetery",
    "religion": "christian"
  }
},
{
  "type": "way",
  "id": 96884992,
  "center": {
    "lat": 55.0199307,
    "lon": 8.6492323
  },
  "nodes": [
    1122601729,
    1122601787,
    1122601705,
    4043463984,
    1122601612,
    1122601729
  ],
  "tags": {
    "amenity": "grave_yard",
    "religion": "christian"
  }
},
{
  "type": "way",
  "id": 98029131,
  "center": {
    "lat": 55.2720087,
    "lon": 8.5380132
  },
  "nodes": [
    1134323435,
    1134323340,
    10895780664,
    1134320779,
    1134320811,
    10895780648,
    10895780642,
    10895780650,
    10895780653,
    1134323387,
    10895780661,
    10895780645,
    10895780656,
    1134323435
  ],
  "tags": {
    "amenity": "grave_yard",
    "religion": "christian"
  }
},
{
  "type": "way",
  "id": 98490024,
  "center": {
    "lat": 55.0224166,
    "lon": 8.4174572
  },
  "nodes": [
    1139415802,
    1139415792,
    1139415849,
    1139415825,
    1139415789,
    1139415764,
    1139415824,
    1139415794,
    2169245660,
    2180067931,
    2180067929,
    1139415856,
    1139415845,
    1139415812,
    2180067915,
    1139415791,
    1139415855,
    1139415802
  ],
  "tags": {
    "landuse": "cemetery",
    "name": "Friedhof List"
  }
},
{
  "type": "way",
  "id": 98612880,
  "center": {
    "lat": 55.4587210,
    "lon": 8.6400979
  },
  "nodes": [
    1140865142,
    1140864989,
    1140865156,
    3828383234,
    1140865020,
    1140865055,
    1140865052,
    1140865028,
    1140864976,
    1140865142
  ],
  "tags": {
    "amenity": "grave_yard",
    "barrier": "wall"
  }
},
{
  "type": "way",
  "id": 99053346,
  "center": {
    "lat": 55.5554696,
    "lon": 8.1387052
  },
  "nodes": [
    1145841811,
    1145842774,
    1145841589,
    1145842830,
    10605508819,
    10605508820,
    10605508821,
    10605508822,
    10605508823,
    10605508824,
    10605508825,
    10605508826,
    10605508818,
    3894883539,
    1145841659,
    1988222935,
    1145841811
  ],
  "tags": {
    "amenity": "grave_yard",
    "religion": "christian"
  }
},
{
  "type": "way",
  "id": 99691527,
  "center": {
    "lat": 55.7889452,
    "lon": 8.6948579
  },
  "nodes": [
    1152580663,
    1152580070,
    1152580618,
    1152580906,
    1152580663
  ],
  "tags": {
    "amenity": "grave_yard"
  }
},
{
  "type": "way",
  "id": 101262289,
  "center": {
    "lat": 55.6234104,
    "lon": 8.4893324
  },
  "nodes": [
    1168830537,
    1168830195,
    2219484883,
    1108198235,
    1108198105,
    1108198257,
    3039826691,
    1108198208,
    1168830374,
    1168830306,
    3039826701,
    1168830537
  ],
  "tags": {
    "landuse": "cemetery",
    "name": "Arnbjerg Kirkegård"
  }
},
{
  "type": "way",
  "id": 101387436,
  "center": {
    "lat": 55.7243150,
    "lon": 8.5305627
  },
  "nodes": [
    1170800202,
    1969272671,
    1969272680,
    1969272684,
    1170800155,
    1170800210,
    1969272668,
    3228769949,
    1170800214,
    1969272694,
    1969272723,
    1969272703,
    1969272700,
    1969272704,
    3228769960,
    1170800161,
    1969272663,
    1969272720,
    1170800202
  ],
  "tags": {
    "landuse": "cemetery"
  }
},
{
  "type": "way",
  "id": 101399993,
  "center": {
    "lat": 55.7229994,
    "lon": 8.3427475
  },
  "nodes": [
    1170950335,
    1170950102,
    1170950448,
    1170950464,
    1170950236,
    5382461169,
    5382461170,
    1170950360,
    5382461171,
    1170950355,
    1321639177,
    5382461172,
    5382461168,
    1170950335
  ],
  "tags": {
    "amenity": "grave_yard",
    "religion": "christian"
  }
},
{
  "type": "way",
  "id": 102014421,
  "center": {
    "lat": 55.5099293,
    "lon": 8.5567248
  },
  "nodes": [
    10899354263,
    10899354262,
    6292215239,
    10899354261,
    1177634582,
    10899354260,
    10899354265,
    1177634414,
    1177634702,
    10899354259,
    6292215238,
    10899354258,
    10899354263
  ],
  "tags": {
    "amenity": "grave_yard",
    "name": "Skads Kirkegård",
    "religion": "christian"
  }
},
{
  "type": "way",
  "id": 102473393,
  "center": {
    "lat": 55.7893074,
    "lon": 8.2389152
  },
  "nodes": [
    1183437498,
    1183437467,
    10075292897,
    1183437287,
    9801991650,
    10075292898,
    1183437452,
    5355414598,
    1183437498
  ],
  "tags": {
    "amenity": "grave_yard",
    "religion": "christian"
  }
},
{
  "type": "way",
  "id": 102474888,
  "center": {
    "lat": 55.7763421,
    "lon": 8.2953539
  },
  "nodes": [
    1183450006,
    6542159458,
    2238732294,
    1183449972,
    1183449973,
    1183449960,
    1183449952,
    6542159457,
    1183449959,
    1183450006
  ],
  "tags": {
    "amenity": "grave_yard"
  }
},
{
  "type": "way",
  "id": 103311707,
  "center": {
    "lat": 55.6312780,
    "lon": 8.2813146
  },
  "nodes": [
    1193034942,
    4638736405,
    1193034919,
    6195940009,
    4638736407,
    6195940005,
    4638736399,
    4638736409,
    6195940006,
    1193034879,
    2264808784,
    2264808781,
    2264808782,
    2264808783,
    1193034883,
    4638735265,
    1193034942
  ],
  "tags": {
    "amenity": "grave_yard",
    "name": "Ål Kirkegård"
  }
},
{
  "type": "way",
  "id": 103709510,
  "center": {
    "lat": 55.6237540,
    "lon": 8.6021866
  },
  "nodes": [
    1197402999,
    1197403084,
    1197402883,
    10799908210,
    10799908209,
    1197402918,
    1197402999
  ],
  "tags": {
    "landuse": "cemetery",
    "name": "Næsbjerg Kirkegård",
    "religion": "christian"
  }
},
{
  "type": "way",
  "id": 103714296,
  "center": {
    "lat": 55.6452385,
    "lon": 8.6549788
  },
  "nodes": [
    1197428491,
    1197428504,
    1197428674,
    2214337344,
    1197428391,
    2214337348,
    2214337355,
    1197428491
  ],
  "tags": {
    "landuse": "cemetery",
    "name": "Øse Kirkegård",
    "religion": "christian"
  }
},
{
  "type": "way",
  "id": 104027445,
  "center": {
    "lat": 55.5857018,
    "lon": 8.7408510
  },
  "nodes": [
    10900053577,
    10900053578,
    10900053573,
    1200542241,
    10900053572,
    10900053571,
    10900053570,
    1200542242,
    1200542273,
    10900053569,
    10900053575,
    10900053576,
    10900053577
  ],
  "tags": {
    "landuse": "cemetery"
  }
},
{
  "type": "way",
  "id": 104030005,
  "center": {
    "lat": 55.5983340,
    "lon": 8.8056626
  },
  "nodes": [
    1200565429,
    4701757960,
    1200565382,
    1200566055,
    3061703427,
    3061703428,
    3061703426,
    3061703425,
    3061703422,
    3061703424,
    1200566129,
    1200565429
  ],
  "tags": {
    "landuse": "cemetery"
  }
},
{
  "type": "way",
  "id": 104147713,
  "center": {
    "lat": 55.5673355,
    "lon": 8.8246722
  },
  "nodes": [
    1201758694,
    1201758840,
    1201758837,
    3235205755,
    3235205748,
    1201758903,
    1201758874,
    1201758694
  ],
  "tags": {
    "landuse": "cemetery"
  }
},
{
  "type": "way",
  "id": 104151231,
  "center": {
    "lat": 55.5205242,
    "lon": 8.7840498
  },
  "nodes": [
    1201805241,
    1201805164,
    2235484253,
    1201805263,
    8703146876,
    1201805187,
    1201805180,
    1201805244,
    1201805241
  ],
  "tags": {
    "landuse": "cemetery"
  }
},
{
  "type": "way",
  "id": 104179232,
  "center": {
    "lat": 55.5127720,
    "lon": 8.9012421
  },
  "nodes": [
    1202102630,
    1202102620,
    3998905149,
    3998905150,
    2463221699,
    2463221692,
    1202102610,
    1202102630
  ],
  "tags": {
    "amenity": "grave_yard",
    "name": "Holsted Kirkegård",
    "religion": "christian"
  }
},
{
  "type": "way",
  "id": 104182167,
  "center": {
    "lat": 55.5018008,
    "lon": 8.9890761
  },
  "nodes": [
    1202142104,
    1202142120,
    4992718413,
    1202142073,
    1202142092,
    11124423235,
    1202142104
  ],
  "tags": {
    "landuse": "cemetery",
    "name": "Brørup Kirkegård",
    "religion": "christian"
  }
},
{
  "type": "way",
  "id": 104328023,
  "center": {
    "lat": 55.4404567,
    "lon": 8.3974379
  },
  "nodes": [
    2463596971,
    10895802574,
    2463596967,
    11254525756,
    11254525758,
    11254525757,
    11254525759,
    10895802568,
    10895802565,
    10895802573,
    1202761189,
    1202761184,
    10895802566,
    1203753682,
    10895802567,
    12529408558,
    12529408556,
    11254525754,
    2463596971
  ],
  "tags": {
    "amenity": "grave_yard",
    "name": "Nordre Kirkegård"
  }
},
{
  "type": "way",
  "id": 104515283,
  "center": {
    "lat": 55.8094144,
    "lon": 8.6079106
  },
  "nodes": [
    1205809401,
    2265790814,
    4586244628,
    4586244639,
    1205809416,
    4586244664,
    1205809367,
    1205809417,
    1205809457,
    1205809401
  ],
  "tags": {
    "amenity": "grave_yard",
    "name": "Ølgod Kirkegård"
  }
},
{
  "type": "way",
  "id": 104518882,
  "center": {
    "lat": 55.7930973,
    "lon": 8.5343787
  },
  "nodes": [
    1205849346,
    5355451123,
    5355451124,
    1205849332,
    1205849345,
    1205849343,
    5355451125,
    1205849341,
    1205849346
  ],
  "tags": {
    "amenity": "grave_yard",
    "religion": "christian"
  }
},
{
  "type": "way",
  "id": 104532386,
  "center": {
    "lat": 55.8510443,
    "lon": 8.7587409
  },
  "nodes": [
    1206116968,
    2273429495,
    2273429498,
    1206117212,
    1206117221,
    2273429504,
    2273429502,
    1206117005,
    11881845079,
    1206116968
  ],
  "tags": {
    "landuse": "cemetery"
  }
},
{
  "type": "way",
  "id": 104538579,
  "center": {
    "lat": 55.7549328,
    "lon": 8.9319759
  },
  "nodes": [
    1206211617,
    5095339722,
    5095339720,
    5095339719,
    5095339721,
    5095339723,
    1206211533,
    1206211582,
    1206211579,
    1206211685,
    1206211668,
    1206211720,
    1206211617
  ],
  "tags": {
    "amenity": "grave_yard",
    "name": "Grindsted Gamle Kirkegård"
  }
},
{
  "type": "way",
  "id": 104647616,
  "center": {
    "lat": 55.7041966,
    "lon": 8.7531281
  },
  "nodes": [
    1207134944,
    2266255875,
    1207134940,
    2266255870,
    1207134945,
    1207134952,
    6543148821,
    1207134944
  ],
  "tags": {
    "landuse": "cemetery",
    "name": "Ansager Kirkegård"
  }
},
{
  "type": "way",
  "id": 104649777,
  "center": {
    "lat": 55.6987902,
    "lon": 8.6456317
  },
  "nodes": [
    1207152777,
    10915923835,
    5009474171,
    5009474170,
    1207152749,
    1207152726,
    1207152775,
    1207152777
  ],
  "tags": {
    "landuse": "cemetery"
  }
},
{
  "type": "way",
  "id": 104693190,
  "center": {
    "lat": 55.4513248,
    "lon": 8.9374826
  },
  "nodes": [
    1207627403,
    4992718585,
    1207627401,
    1207627404,
    10907547984,
    10907547986,
    1207627406,
    1207627403
  ],
  "tags": {
    "amenity": "grave_yard",
    "name": "Føvling Kirkegård",
    "religion": "christian"
  }
},
{
  "type": "way",
  "id": 104694478,
  "center": {
    "lat": 55.4827532,
    "lon": 8.7944795
  },
  "nodes": [
    1207642634,
    3759024890,
    1207642622,
    3759024888,
    3759024887,
    1207642606,
    1207642649,
    10624024129,
    1546995902,
    1207642651,
    1207642611,
    1207642653,
    3759024874,
    1207642634
  ],
  "tags": {
    "landuse": "cemetery"
  }
},
{
  "type": "way",
  "id": 104710295,
  "center": {
    "lat": 55.8394420,
    "lon": 8.8928140
  },
  "nodes": [
    1207774706,
    1207774544,
    1207774755,
    1207774243,
    1207774577,
    1207774320,
    1207774706
  ],
  "tags": {
    "amenity": "grave_yard"
  }
},
{
  "type": "way",
  "id": 105071334,
  "center": {
    "lat": 55.7597828,
    "lon": 8.4322446
  },
  "nodes": [
    1211178217,
    1211178215,
    5313428075,
    10911604080,
    1211178227,
    1443392849,
    1211178209,
    1443417540,
    1211178217
  ],
  "tags": {
    "landuse": "cemetery",
    "name": "Kvong Kirkegård"
  }
},
{
  "type": "way",
  "id": 105204757,
  "center": {
    "lat": 55.7614245,
    "lon": 8.3683566
  },
  "nodes": [
    1212356584,
    5355405707,
    5355405706,
    1212356528,
    1212356564,
    1212356877,
    5355405708,
    1212356584
  ],
  "tags": {
    "amenity": "grave_yard",
    "religion": "christian"
  }
},
{
  "type": "way",
  "id": 105206526,
  "center": {
    "lat": 55.8020619,
    "lon": 8.4934123
  },
  "nodes": [
    1212389276,
    1212389287,
    1212389280,
    1212389227,
    1212389276
  ],
  "tags": {
    "amenity": "grave_yard"
  }
},
{
  "type": "way",
  "id": 105354818,
  "center": {
    "lat": 55.8748765,
    "lon": 8.5952249
  },
  "nodes": [
    1213921414,
    2286804996,
    10710771482,
    2286805140,
    10710771481,
    1213921284,
    4477793228,
    4926526831,
    1213921305,
    1213921341,
    10710771500,
    1213921298,
    4926526824,
    10710771487,
    10710771490,
    1213921414
  ],
  "tags": {
    "landuse": "cemetery"
  }
},
{
  "type": "way",
  "id": 105360377,
  "center": {
    "lat": 55.9431620,
    "lon": 8.7885206
  },
  "nodes": [
    1213956892,
    1213956784,
    1213956846,
    10910921540,
    1213956855,
    1213956827,
    1213956848,
    3252817664,
    1213956949,
    1213956877,
    8094029388,
    3252817666,
    1213956905,
    1213956980,
    1213956951,
    1213956892
  ],
  "tags": {
    "amenity": "grave_yard"
  }
},
{
  "type": "way",
  "id": 105532356,
  "center": {
    "lat": 55.8410534,
    "lon": 8.3025910
  },
  "nodes": [
    1215371114,
    1215371157,
    1215371125,
    1215371168,
    1215371114
  ],
  "tags": {
    "landuse": "cemetery",
    "religion": "christian"
  }
},
{
  "type": "way",
  "id": 105543014,
  "center": {
    "lat": 55.8122437,
    "lon": 8.2936602
  },
  "nodes": [
    1215426376,
    1215426384,
    10793538383,
    10793538384,
    1215426418,
    1215426586,
    10793538390,
    1215426584,
    1215426572,
    1215426376
  ],
  "tags": {
    "landuse": "cemetery"
  }
},
{
  "type": "way",
  "id": 105611615,
  "center": {
    "lat": 55.7783089,
    "lon": 8.7948413
  },
  "nodes": [
    1216109958,
    5208718684,
    1216109959,
    1216109971,
    1216109969,
    1216109958
  ],
  "tags": {
    "landuse": "cemetery"
  }
},
{
  "type": "way",
  "id": 105761369,
  "center": {
    "lat": 55.8938142,
    "lon": 8.8363725
  },
  "nodes": [
    1217818064,
    1217818007,
    1217818042,
    4715683050,
    1217818082,
    1217818064
  ],
  "tags": {
    "landuse": "cemetery"
  }
},
{
  "type": "way",
  "id": 105765158,
  "center": {
    "lat": 55.9340320,
    "lon": 8.9392899
  },
  "nodes": [
    1217868225,
    1217868299,
    1217868227,
    1217868314,
    1217868225
  ],
  "tags": {
    "landuse": "cemetery"
  }
},
{
  "type": "way",
  "id": 105836063,
  "center": {
    "lat": 55.7880398,
    "lon": 8.2396765
  },
  "nodes": [
    1202960615,
    10879480213,
    10879480212,
    10916636230,
    1202960105,
    10916636229,
    10879480217,
    10916636228,
    1202960338,
    1218715466,
    10879480214,
    1202960615
  ],
  "tags": {
    "landuse": "cemetery",
    "name": "Lønne Gamle Kirkegård"
  }
},
{
  "type": "way",
  "id": 105904900,
  "center": {
    "lat": 55.7504671,
    "lon": 8.9325702
  },
  "nodes": [
    1219469938,
    2417401989,
    1219469913,
    1219469936,
    1219469933,
    4883305837,
    4883305836,
    4883305834,
    4883305835,
    1219469935,
    4883305830,
    4883305831,
    4883305832,
    4883305833,
    1219469916,
    1219469938
  ],
  "tags": {
    "landuse": "cemetery",
    "name": "Grindsted Sønder Kirkegård"
  }
},
{
  "type": "way",
  "id": 107103433,
  "center": {
    "lat": 55.9909347,
    "lon": 8.7476541
  },
  "nodes": [
    1231398669,
    1231399179,
    1231399349,
    1231399126,
    3913964294,
    1231398923,
    1231398724,
    1550490808,
    1231399514,
    1231398669
  ],
  "tags": {
    "amenity": "grave_yard"
  }
},
{
  "type": "way",
  "id": 115200351,
  "center": {
    "lat": 55.8498682,
    "lon": 8.3757261
  },
  "nodes": [
    1302565444,
    10711465392,
    1737981726,
    1737981704,
    1737981709,
    1302565453,
    10711500306,
    10711500307,
    5202719260,
    1302565464,
    5202719261,
    1302565444
  ],
  "tags": {
    "amenity": "grave_yard"
  }
},
{
  "type": "way",
  "id": 116294083,
  "center": {
    "lat": 55.7245937,
    "lon": 8.6094249
  },
  "nodes": [
    1311453135,
    1311453148,
    1311453150,
    1311453152,
    1311453149,
    4138448310,
    4138448311,
    1311453135
  ],
  "tags": {
    "landuse": "cemetery"
  }
},
{
  "type": "way",
  "id": 117421199,
  "center": {
    "lat": 55.9048617,
    "lon": 8.5269231
  },
  "nodes": [
    1322848664,
    5435335359,
    1322848654,
    2267973941,
    4554898529,
    1322848660,
    1322848691,
    4554898378,
    4554898379,
    4554898374,
    2267973991,
    1322848689,
    4554898505,
    4554898509,
    4554898508,
    1322848664
  ],
  "tags": {
    "landuse": "cemetery",
    "name": "Tarm Kirkegård",
    "religion": "christian"
  }
},
{
  "type": "way",
  "id": 117421315,
  "center": {
    "lat": 55.9431941,
    "lon": 8.4998070
  },
  "nodes": [
    1322854981,
    1322854994,
    5346659370,
    1322855019,
    1322854969,
    6515100473,
    1322854984,
    4710440045,
    6515100472,
    1322854981
  ],
  "tags": {
    "amenity": "grave_yard"
  }
},
{
  "type": "way",
  "id": 117421318,
  "center": {
    "lat": 55.9433716,
    "lon": 8.5028123
  },
  "nodes": [
    1322854977,
    10776430879,
    10776430880,
    4108457262,
    1322854980,
    1322855000,
    1322854996,
    1322854976,
    2810063278,
    1322854999,
    1322854977
  ],
  "tags": {
    "landuse": "cemetery"
  }
},
{
  "type": "way",
  "id": 123633273,
  "center": {
    "lat": 55.4397343,
    "lon": 8.3883555
  },
  "nodes": [
    1377919968,
    3691338544,
    5067151706,
    1377919960,
    1377919937,
    1377920001,
    1377919939,
    1377919968
  ],
  "tags": {
    "landuse": "cemetery",
    "name": "Vestre Kirkegård",
    "religion": "christian"
  }
},
{
  "type": "way",
  "id": 135331481,
  "center": {
    "lat": 55.5733491,
    "lon": 8.2096460
  },
  "nodes": [
    1486345432,
    10916633537,
    10916633531,
    1486345430,
    1486345462,
    10916633530,
    1486345437,
    10916633529,
    10916633532,
    10916633533,
    10916633534,
    1486345439,
    10916633535,
    10916633536,
    1486345458,
    10916633541,
    1486345445,
    10916633540,
    10916633539,
    1486345442,
    9214554944,
    10916633538,
    1486345432
  ],
  "tags": {
    "landuse": "cemetery",
    "name": "Oksby Gamle Kirke",
    "wikidata": "Q12329949",
    "wikipedia": "da:Oksby Gamle Kirke"
  }
},
{
  "type": "way",
  "id": 135870782,
  "center": {
    "lat": 55.9766464,
    "lon": 8.8975296
  },
  "nodes": [
    1491364735,
    12276985118,
    12276985117,
    12276985105,
    7786345560,
    12276985116,
    12276985115,
    1491364670,
    12276985111,
    12276985112,
    12276985110,
    7786345561,
    12276985113,
    12276985114,
    1491364650,
    1491364662,
    7786345559,
    1491364735
  ],
  "tags": {
    "amenity": "grave_yard"
  }
},
{
  "type": "way",
  "id": 137135469,
  "center": {
    "lat": 55.6159167,
    "lon": 8.3745057
  },
  "nodes": [
    1296638497,
    1296638391,
    1296638210,
    1296638412,
    1296638558,
    1296638268,
    1296638284,
    1504234460,
    1296638230,
    4248770143,
    1296638497
  ],
  "tags": {
    "landuse": "cemetery"
  }
},
{
  "type": "way",
  "id": 137188255,
  "center": {
    "lat": 55.5780192,
    "lon": 8.6685642
  },
  "nodes": [
    1504774905,
    3190137076,
    1504774889,
    3190137072,
    3190137071,
    3190137070,
    3190137063,
    1504774888,
    3190137073,
    1504774903,
    1504774896,
    3190137085,
    1504774905
  ],
  "tags": {
    "amenity": "grave_yard"
  }
},
{
  "type": "way",
  "id": 138693137,
  "center": {
    "lat": 55.4092694,
    "lon": 8.9748201
  },
  "nodes": [
    1520817664,
    1520817660,
    1520817652,
    1520817654,
    1520817664
  ],
  "tags": {
    "amenity": "grave_yard",
    "religion": "christian"
  }
},
{
  "type": "way",
  "id": 140357215,
  "center": {
    "lat": 55.4039103,
    "lon": 8.8032447
  },
  "nodes": [
    1537846990,
    12633860170,
    1537846965,
    5442351527,
    5442351528,
    1537846964,
    5442351529,
    12633860177,
    1537846984,
    12633860176,
    12633860178,
    1537846990
  ],
  "tags": {
    "amenity": "grave_yard",
    "religion": "christian"
  }
},
{
  "type": "way",
  "id": 141317030,
  "center": {
    "lat": 55.4684182,
    "lon": 8.6979296
  },
  "nodes": [
    1546959749,
    10995008369,
    1546959762,
    1546959684,
    1592564154,
    1546959811,
    10995159869,
    10584664100,
    1546959915,
    1546959850,
    10995166225,
    10995159876,
    1106361620,
    1311465055,
    1546959691,
    1546959758,
    1546959767,
    1546959819,
    1546959747,
    1546959749
  ],
  "tags": {
    "alt_name": "Skt. Ansgar Kirkegård",
    "landuse": "cemetery",
    "name": "Sct. Ansgar Kirkegård",
    "website": "https://www.brammingsogn.dk/kirkegaarden"
  }
},
{
  "type": "way",
  "id": 143680626,
  "center": {
    "lat": 55.1128774,
    "lon": 8.5426205
  },
  "nodes": [
    1572424154,
    1572424139,
    1572424138,
    1572424140,
    10895979078,
    1572424153,
    4818381948,
    4818381955,
    1572424154
  ],
  "tags": {
    "amenity": "grave_yard",
    "religion": "christian",
    "wikidata": "Q89693625"
  }
},
{
  "type": "way",
  "id": 146030370,
  "center": {
    "lat": 55.9996949,
    "lon": 8.4198160
  },
  "nodes": [
    1593318953,
    6404084870,
    1593319105,
    1593319062,
    1593319078,
    1593319074,
    1593318960,
    1593319069,
    1593318953
  ],
  "tags": {
    "landuse": "cemetery"
  }
},
{
  "type": "way",
  "id": 148071918,
  "center": {
    "lat": 55.1121460,
    "lon": 8.7511769
  },
  "nodes": [
    1611823873,
    1611823872,
    5351746624,
    1611823871,
    1611823870,
    1611823869,
    1611823873
  ],
  "tags": {
    "landuse": "cemetery",
    "religion": "christian"
  }
},
{
  "type": "way",
  "id": 150060902,
  "center": {
    "lat": 55.0481924,
    "lon": 8.9496322
  },
  "nodes": [
    1629922801,
    1629922711,
    1629922814,
    1629922738,
    1629922801
  ],
  "tags": {
    "landuse": "cemetery",
    "name": "Krigsfangegravene ved Løgumkloster",
    "wikidata": "Q87815214",
    "wikimedia_commons": "Category:Løgumkloster Krigsfangegrave"
  }
},
{
  "type": "way",
  "id": 151898896,
  "center": {
    "lat": 55.5255976,
    "lon": 8.3573629
  },
  "nodes": [
    1647388016,
    1647388045,
    1647388043,
    10882674056,
    1647388027,
    1015454512,
    1647388040,
    1647388048,
    1647388049,
    1647388055,
    1647388058,
    10882674055,
    10882674054,
    10882674053,
    10882674052,
    10882674051,
    1647388104,
    1647388095,
    1647388081,
    1647388085,
    1647388091,
    1647388099,
    1647388109,
    1647388125,
    1647388122,
    1647388074,
    1647388052,
    1647388028,
    1647388024,
    1647388021,
    1647388016
  ],
  "tags": {
    "landuse": "cemetery",
    "religion": "christian"
  }
},
{
  "type": "way",
  "id": 154671985,
  "center": {
    "lat": 55.4822898,
    "lon": 8.9130246
  },
  "nodes": [
    1671710370,
    10624225330,
    1671710368,
    10624225331,
    1671710367,
    6133443459,
    6133443448,
    6133443458,
    1671710364,
    1671710343,
    1671710350,
    1671710370
  ],
  "tags": {
    "landuse": "cemetery",
    "name": "Sankt Peder Kirkegård",
    "religion": "christian"
  }
},
{
  "type": "way",
  "id": 158027033,
  "center": {
    "lat": 55.7272213,
    "lon": 8.2412535
  },
  "nodes": [
    1702646404,
    1702646460,
    6388773983,
    6388773984,
    1702646527,
    6388773981,
    1702646434,
    1702646551,
    1702646516,
    6388773982,
    1702646404
  ],
  "tags": {
    "landuse": "cemetery"
  }
},
{
  "type": "way",
  "id": 160197826,
  "center": {
    "lat": 55.6351036,
    "lon": 8.2738290
  },
  "nodes": [
    1722617070,
    1722617110,
    1722616760,
    1722616869,
    1722617070
  ],
  "tags": {
    "alt_name": "Den Tyske Flygtningekirkegård",
    "amenity": "grave_yard",
    "description": "Gravplads for tyske flygtninge der kom hertil i slutningen af 2. verdenskrig",
    "loc_name": "Den tyske gravlund",
    "name": "Flygtningekirkegården",
    "wikidata": "Q12311685"
  }
},
{
  "type": "way",
  "id": 161111658,
  "center": {
    "lat": 55.4836883,
    "lon": 8.6967074
  },
  "nodes": [
    1546995943,
    1546995937,
    1731082919,
    1546995691,
    1546995813,
    1546995746,
    1546995943
  ],
  "tags": {
    "landuse": "cemetery",
    "religion": "christian"
  }
},
{
  "type": "way",
  "id": 161596333,
  "center": {
    "lat": 55.9052435,
    "lon": 8.4427578
  },
  "nodes": [
    1735694992,
    3834421293,
    3834421294,
    3834421295,
    12051765874,
    1735694997,
    1735694994,
    3054768789,
    12051765875,
    1735694969,
    3054768776,
    1735694951,
    3834421290,
    1735694974,
    1735694986,
    1735694992
  ],
  "tags": {
    "landuse": "cemetery"
  }
},
{
  "type": "way",
  "id": 166271922,
  "center": {
    "lat": 55.9388393,
    "lon": 8.1659550
  },
  "nodes": [
    1777307799,
    1777307754,
    1777307806,
    4884216926,
    1777307727,
    1777307797,
    10607651833,
    10607651836,
    1777307799
  ],
  "tags": {
    "landuse": "cemetery"
  }
},
{
  "type": "way",
  "id": 171244395,
  "center": {
    "lat": 55.0617014,
    "lon": 8.6947752
  },
  "nodes": [
    1823073647,
    1823073655,
    1823073656,
    4033424964,
    5351750029,
    1823073649,
    1823073647
  ],
  "tags": {
    "amenity": "grave_yard",
    "religion": "christian"
  }
},
{
  "type": "way",
  "id": 211377052,
  "center": {
    "lat": 55.6057799,
    "lon": 8.9426651
  },
  "nodes": [
    2213829329,
    2213829370,
    2213829472,
    2213829469,
    2213829329
  ],
  "tags": {
    "amenity": "grave_yard",
    "religion": "christian"
  }
},
{
  "type": "way",
  "id": 211624053,
  "center": {
    "lat": 55.5917971,
    "lon": 8.4149004
  },
  "nodes": [
    2216110239,
    2216110204,
    2216110194,
    2216110173,
    5355449791,
    2216110233,
    2216110239
  ],
  "tags": {
    "amenity": "grave_yard",
    "religion": "christian"
  }
},
{
  "type": "way",
  "id": 212356727,
  "center": {
    "lat": 55.5276469,
    "lon": 8.6576470
  },
  "nodes": [
    2222148659,
    3190136285,
    2222148657,
    2222148672,
    3190136323,
    2222148669,
    2222148681,
    2222148679,
    3190136324,
    3190136319,
    2222148659
  ],
  "tags": {
    "landuse": "cemetery",
    "name": "Grimstrup Kirkegård",
    "religion": "christian"
  }
},
{
  "type": "way",
  "id": 212649489,
  "center": {
    "lat": 55.5412148,
    "lon": 8.5426315
  },
  "nodes": [
    2224790062,
    2224790033,
    2224790030,
    2224790035,
    2224790061,
    2224790062
  ],
  "tags": {
    "amenity": "grave_yard",
    "religion": "christian"
  }
},
{
  "type": "way",
  "id": 214678420,
  "center": {
    "lat": 55.6905981,
    "lon": 8.9167884
  },
  "nodes": [
    2241683153,
    2241683492,
    2241683719,
    2241683487,
    2241683153
  ],
  "tags": {
    "landuse": "cemetery"
  }
},
{
  "type": "way",
  "id": 215832962,
  "center": {
    "lat": 55.6285377,
    "lon": 8.4955299
  },
  "nodes": [
    2252672811,
    2252672810,
    2252672808,
    2252672809,
    2510682330,
    2252672811
  ],
  "tags": {
    "landuse": "cemetery",
    "name": "Østerlund Kirkegård",
    "religion": "christian"
  }
},
{
  "type": "way",
  "id": 216541104,
  "center": {
    "lat": 55.2450696,
    "lon": 8.8281581
  },
  "nodes": [
    2258926541,
    2258926540,
    2258926539,
    2258926508,
    2258926506,
    2258926507,
    2258926509,
    2258926541
  ],
  "tags": {
    "landuse": "cemetery",
    "religion": "christian"
  }
},
{
  "type": "way",
  "id": 217011550,
  "center": {
    "lat": 55.6797416,
    "lon": 8.5707049
  },
  "nodes": [
    2263358744,
    10900399059,
    10900399060,
    10900399091,
    2263358795,
    2263358775,
    10900399056,
    2263358770,
    2263358771,
    2263358792,
    2263358752,
    10900399057,
    10900399058,
    2263358744
  ],
  "tags": {
    "landuse": "cemetery"
  }
},
{
  "type": "way",
  "id": 217478083,
  "center": {
    "lat": 55.9668728,
    "lon": 8.3696851
  },
  "nodes": [
    2267434677,
    2267434676,
    2267434667,
    2267434666,
    2267434665,
    2267434663,
    2267434658,
    2286839643,
    10594945082,
    2267434652,
    2267434653,
    2267434654,
    10594945083,
    2267434657,
    2267434660,
    2267434668,
    2267434669,
    2267434670,
    2267434674,
    2267434675,
    2267434677
  ],
  "tags": {
    "landuse": "cemetery",
    "religion": "christian"
  }
},
{
  "type": "way",
  "id": 217675984,
  "center": {
    "lat": 55.9548348,
    "lon": 8.6562056
  },
  "nodes": [
    2269880571,
    2269880568,
    2269880570,
    2269880578,
    2269880636,
    2269880671,
    2269880677,
    2269880682,
    2269880687,
    2269880680,
    2269880673,
    2269880667,
    10665042587,
    2269880595,
    2269880585,
    2269880583,
    2269880581,
    2269880579,
    2269880571
  ],
  "tags": {
    "landuse": "cemetery",
    "religion": "christian"
  }
},
{
  "type": "way",
  "id": 220895429,
  "center": {
    "lat": 55.4245402,
    "lon": 8.3916602
  },
  "nodes": [
    2366377768,
    2366377769,
    2366377770,
    2366377772,
    2366377768
  ],
  "tags": {
    "amenity": "grave_yard",
    "name": "Søndre Kirkegård"
  }
},
{
  "type": "way",
  "id": 226421397,
  "center": {
    "lat": 55.5745290,
    "lon": 8.3665005
  },
  "nodes": [
    2352500998,
    2352500996,
    2352500995,
    3796007807,
    2352500958,
    2352500956,
    2352500998
  ],
  "tags": {
    "landuse": "cemetery",
    "religion": "christian"
  }
},
{
  "type": "way",
  "id": 251045442,
  "center": {
    "lat": 55.7901497,
    "lon": 8.8678904
  },
  "nodes": [
    2573399031,
    6352602937,
    2573399030,
    2573399026,
    6352602948,
    6352602947,
    2573399012,
    2573399031
  ],
  "tags": {
    "landuse": "cemetery",
    "religion": "christian"
  }
},
{
  "type": "way",
  "id": 256134402,
  "center": {
    "lat": 55.9920532,
    "lon": 8.1327870
  },
  "nodes": [
    2618295407,
    2193320384,
    2618295425,
    4138096040,
    2193320412,
    2193320421,
    2193320422,
    2618295407
  ],
  "tags": {
    "landuse": "cemetery",
    "name": "Hvide Sande Kirkegård"
  }
},
{
  "type": "way",
  "id": 262598911,
  "center": {
    "lat": 55.6596835,
    "lon": 8.1854544
  },
  "nodes": [
    2682518650,
    2682518635,
    2682518634,
    2682518649,
    2682518650
  ],
  "tags": {
    "landuse": "cemetery",
    "name": "Børsmose Kirkegård"
  }
},
{
  "type": "way",
  "id": 262630074,
  "center": {
    "lat": 55.5109606,
    "lon": 8.6955433
  },
  "nodes": [
    2683040416,
    2683040458,
    2683040459,
    2683040418,
    2683040416
  ],
  "tags": {
    "amenity": "grave_yard",
    "name": "Vester Nykirke Kirkegård",
    "religion": "christian"
  }
},
{
  "type": "way",
  "id": 264908936,
  "center": {
    "lat": 55.9863697,
    "lon": 8.5921845
  },
  "nodes": [
    2705585677,
    2705585654,
    1464464844,
    2705585653,
    2705585676,
    2705585677
  ],
  "tags": {
    "landuse": "cemetery"
  }
},
{
  "type": "way",
  "id": 264908937,
  "center": {
    "lat": 55.8854960,
    "lon": 8.5253208
  },
  "nodes": [
    2705585580,
    2705585622,
    2705585620,
    5030459885,
    5030459866,
    2705585587,
    2705585574,
    10595015249,
    2705585580
  ],
  "tags": {
    "landuse": "cemetery",
    "source": "Geodatastyrelsen : FOT ortofoto"
  }
},
{
  "type": "way",
  "id": 265736784,
  "center": {
    "lat": 55.5765078,
    "lon": 8.5900661
  },
  "nodes": [
    2713520375,
    2713520362,
    2713520361,
    2713520374,
    2713520375
  ],
  "tags": {
    "landuse": "cemetery",
    "name": "Rousthøje Kirkegårde"
  }
},
{
  "type": "way",
  "id": 265736787,
  "center": {
    "lat": 55.7954960,
    "lon": 8.3611706
  },
  "nodes": [
    2713520410,
    2713520409,
    2713520383,
    2713520382,
    2713520401,
    2713520410
  ],
  "tags": {
    "landuse": "cemetery"
  }
},
{
  "type": "way",
  "id": 265736788,
  "center": {
    "lat": 55.4493443,
    "lon": 8.8740352
  },
  "nodes": [
    2713520346,
    2713520326,
    2713520325,
    2713520327,
    2713520328,
    2713520337,
    2713520338,
    2713520345,
    2713520346
  ],
  "tags": {
    "amenity": "grave_yard",
    "religion": "christian"
  }
},
{
  "type": "way",
  "id": 367268907,
  "center": {
    "lat": 55.3547010,
    "lon": 8.4661420
  },
  "nodes": [
    3712144524,
    3712144832,
    3712144831,
    3712144829,
    3712144828,
    3712144826,
    3712144825,
    3712144523,
    3712144522,
    3712144521,
    3712144524
  ],
  "tags": {
    "landuse": "cemetery",
    "name": "Sønderho Ny Kirkegård"
  }
},
{
  "type": "way",
  "id": 399070914,
  "center": {
    "lat": 55.9768633,
    "lon": 8.5543672
  },
  "nodes": [
    4018086991,
    4777252262,
    6044658234,
    4018086990,
    4018086485,
    4018086484,
    4018086487,
    10717284846,
    4018086482,
    6044658248,
    6044658243,
    6044658247,
    6044658246,
    6044658245,
    6044658244,
    4018086991
  ],
  "tags": {
    "landuse": "cemetery"
  }
},
{
  "type": "way",
  "id": 422958536,
  "center": {
    "lat": 55.3496685,
    "lon": 8.4667533
  },
  "nodes": [
    4226766872,
    4226766874,
    4226766873,
    4226766871,
    4226766869,
    7099697679,
    4226766868,
    4226766870,
    7099697677,
    4226766872
  ],
  "tags": {
    "amenity": "grave_yard",
    "name": "Sønderho Gamle Kirkegård"
  }
},
{
  "type": "way",
  "id": 454362044,
  "center": {
    "lat": 55.5540736,
    "lon": 8.2293338
  },
  "nodes": [
    4509250628,
    4509250627,
    4509250626,
    4509250625,
    10605593622,
    1783315207,
    4509250628
  ],
  "tags": {
    "landuse": "cemetery",
    "religion": "christian"
  }
},
{
  "type": "way",
  "id": 1206925497,
  "center": {
    "lat": 55.4747619,
    "lon": 8.5036906
  },
  "nodes": [
    11183687650,
    11183687648,
    11183687641,
    11183680035,
    11183680028,
    11183680016,
    11183687647,
    11183687645,
    11183680031,
    11183680026,
    11183680019,
    11183680014,
    11183680029,
    11183687650
  ],
  "tags": {
    "amenity": "grave_yard",
    "name": "Ovalen",
    "source": "https://kirkegårde.esbjerg.dk/admin/public/GetImage.ashx?Image=/Files/Images/Kirkeg%C3%A5rde/Om%20kirkeg%C3%A5rdene/Novrup/Novrup_Illustration_D528.png&width=480"
  }
},
{
  "type": "way",
  "id": 1325684719,
  "center": {
    "lat": 55.9994449,
    "lon": 8.4202071
  },
  "nodes": [
    12266402532,
    12266402533,
    12266402534,
    12266402535,
    12266402532
  ],
  "tags": {
    "affiliation": "English;Canadian",
    "buried": "8",
    "cemetery": "war_cemetery",
    "cemetery:conflict": "WW2",
    "landuse": "cemetery",
    "name": "Commonwealth War Graves",
    "start_date": "1944-09-14",
    "website": "https://ringkobingfjordmuseer.dk/steder/raf-graven-paa-dejbjerg-kirkegaard"
  }
},
{
  "type": "way",
  "id": 1327055107,
  "center": {
    "lat": 55.9763396,
    "lon": 8.8975225
  },
  "nodes": [
    12276985106,
    12276985107,
    12276985108,
    12276985109,
    12276985106
  ],
  "tags": {
    "buried": "7",
    "cemetery": "war_cemetery",
    "cemetery:conflict": "WW2",
    "landuse": "cemetery",
    "name": "Commonwealth War Graves",
    "website": "https://www.airmen.dk/c085.htm"
  }
}

  ]
}
