{
  "version": 0.6,
  "generator": "Overpass API 0.7.62.8 e802775f",
  "osm3s": {
    "timestamp_osm_base": "2025-11-02T22:55:22Z",
    "copyright": "The data included in this document is from www.openstreetmap.org. The data is made available under ODbL."
  },
  "elements": [

{
  "type": "way",
  "id": 4955119,
  "center": {
    "lat": 53.5264041,
    "lon": 9.1635911
  },
  "nodes": [
    32685830,
    32685841,
    32685837,
    32685831,
    1644557782,
    32685830
  ],
  "tags": {
    "landuse": "cemetery"
  }
},
{
  "type": "way",
  "id": 7569857,
  "center": {
    "lat": 53.6090478,
    "lon": 9.9100507
  },
  "nodes": [
    55088480,
    771096426,
    1211257390,
    771100055,
    771100057,
    55088482,
    5155765777,
    5167887152,
    5202847433,
    771102469,
    771102467,
    1334621058,
    770270843,
    5157948035,
    55088485,
    12942464591,
    55088487,
    55088489,
    12942464581,
    12942464582,
    770243906,
    770243909,
    55088490,
    770251001,
    5157948040,
    4985631999,
    55088493,
    55088494,
    55088480
  ],
  "tags": {
    "denomination": "lutheran",
    "landuse": "cemetery",
    "name": "Friedhof Eidelstedt",
    "religion": "christian"
  }
},
{
  "type": "way",
  "id": 8014739,
  "center": {
    "lat": 53.4933277,
    "lon": 9.1385512
  },
  "nodes": [
    1697455006,
    1694884752,
    59955349,
    1027877634,
    304321995,
    304322040,
    59955350,
    59955351,
    1694884831,
    1694884862,
    1694884854,
    1697455008,
    1697455007,
    1697455006
  ],
  "tags": {
    "landuse": "cemetery",
    "name": "Neuenfelder Friedhof",
    "source": "Bing"
  }
},
{
  "type": "way",
  "id": 16507128,
  "center": {
    "lat": 53.5854071,
    "lon": 9.8881983
  },
  "nodes": [
    170424820,
    12128310651,
    12128310648,
    448950670,
    12128310649,
    12128310650,
    170424821,
    12128310630,
    12128310631,
    12128310639,
    12128310638,
    12128310632,
    1825175847,
    1825175848,
    1825175850,
    206865937,
    1825175849,
    1825175846,
    170425993,
    448946027,
    12128310633,
    448945280,
    12079708261,
    12079708262,
    12079708260,
    12079708257,
    307459482,
    12079708258,
    12079708259,
    170424823,
    411683796,
    411683803,
    170424824,
    170424826,
    7389703356,
    7389703357,
    170424827,
    3036591129,
    1202734590,
    7389703393,
    1755372398,
    1202734607,
    1202734511,
    7389703394,
    1202734626,
    1755372411,
    1754984696,
    450870072,
    170424828,
    449064778,
    1242916051,
    170424829,
    1229356174,
    170424830,
    170424832,
    1435199829,
    1435199802,
    1435199739,
    1435199753,
    1435199821,
    449063331,
    449063326,
    170424820
  ],
  "tags": {
    "heritage": "4",
    "heritage:operator": "dsa",
    "landuse": "cemetery",
    "name": "Friedhof Altona",
    "natural": "wood",
    "ref:dsa": "17706",
    "start_date": "1923",
    "wheelchair": "yes",
    "wikidata": "Q18286210",
    "wikipedia": "de:Friedhof Altona"
  }
},
{
  "type": "way",
  "id": 20791623,
  "center": {
    "lat": 53.6178142,
    "lon": 9.9565647
  },
  "nodes": [
    223297733,
    223297736,
    668985855,
    668985854,
    668985853,
    668985851,
    223297738,
    223297740,
    223297741,
    223297742,
    707961055,
    668985852,
    668985846,
    223297743,
    223297745,
    223297746,
    12763049997,
    12763049996,
    707961017,
    12763049995,
    668985797,
    223297748,
    223297750,
    223297727,
    12763078534,
    707961016,
    12763078533,
    12763078531,
    12763078532,
    12763078530,
    12763078535,
    668985798,
    668985799,
    223297728,
    223297729,
    668985800,
    668985801,
    668985802,
    668985819,
    223297730,
    1379722751,
    668985820,
    223297731,
    668985821,
    668985822,
    668985823,
    223297732,
    668985824,
    668985842,
    223297733
  ],
  "tags": {
    "denomination": "lutheran",
    "landuse": "cemetery",
    "name": "Neuer Niendorfer Friedhof",
    "religion": "christian",
    "wikidata": "Q14547022",
    "wikipedia": "de:Neuer Niendorfer Friedhof"
  }
},
{
  "type": "way",
  "id": 20919909,
  "center": {
    "lat": 53.7318401,
    "lon": 9.8967736
  },
  "nodes": [
    224746455,
    224746460,
    224746468,
    8764935909,
    8764930216,
    5293748971,
    224746452,
    8764935896,
    8764935903,
    8764979719,
    5293748969,
    224746455
  ],
  "tags": {
    "landuse": "cemetery"
  }
},
{
  "type": "way",
  "id": 22725272,
  "center": {
    "lat": 53.5693117,
    "lon": 9.9210515
  },
  "nodes": [
    12917594078,
    11001999963,
    1268462598,
    6502624215,
    9155533555,
    6502624216,
    1268462532,
    12917604026,
    12917604029,
    12917604033,
    12917603902,
    6502624240,
    12917594096,
    10984929196,
    6502624232,
    243757135,
    6502624228,
    10961969801,
    256437238,
    10984929202,
    10961969773,
    243757136,
    256437239,
    3008275907,
    10961969779,
    10961981750,
    256437479,
    243757139,
    3008275911,
    10961981743,
    256317123,
    243757140,
    256448484,
    12917594093,
    11001940764,
    10962390862,
    1268462557,
    12917594097,
    10962553735,
    1268462558,
    12917594074,
    12917594078
  ],
  "tags": {
    "denomination": "protestant",
    "landuse": "cemetery",
    "name": "Evangelischer Friedhof Bornkamp",
    "religion": "christian",
    "url": "http://grabsteine.genealogy.net/namelist.php?cem=2605"
  }
},
{
  "type": "way",
  "id": 22725306,
  "center": {
    "lat": 53.5708141,
    "lon": 9.9297046
  },
  "nodes": [
    243757532,
    762607588,
    243757534,
    243757536,
    856697797,
    3546172537,
    243757538,
    369755466,
    6502624204,
    6502624205,
    6502624206,
    369754317,
    2232146923,
    243757541,
    243757542,
    6502624208,
    243757543,
    369754631,
    243757544,
    6502624209,
    243757547,
    243757548,
    6502624210,
    11002718779,
    10990148649,
    243757549,
    11002718780,
    243757550,
    243757552,
    3465094949,
    6502624211,
    243757553,
    243757532
  ],
  "tags": {
    "denomination": "lutheran",
    "landuse": "cemetery",
    "name": "Friedhof Diebsteich",
    "religion": "christian"
  }
},
{
  "type": "way",
  "id": 23015535,
  "center": {
    "lat": 53.5897081,
    "lon": 9.7150153
  },
  "nodes": [
    248145643,
    1621672283,
    1621672346,
    1621672313,
    1621672304,
    1621672230,
    1621672319,
    247947216,
    1575418174,
    2082675135,
    357902562,
    206266483,
    357902526,
    1604697397,
    1617198171,
    1617198172,
    357902508,
    75001147,
    75001145,
    3824987457,
    271717300,
    1593937883,
    75003788,
    1575384200,
    357902594,
    202959460,
    202959458,
    202959457,
    202959455,
    202959454,
    248145643
  ],
  "tags": {
    "landuse": "cemetery"
  }
},
{
  "type": "way",
  "id": 23066242,
  "center": {
    "lat": 53.5282574,
    "lon": 9.8757862
  },
  "nodes": [
    6407606236,
    4414357368,
    4414357398,
    248911105,
    385557599,
    4563486880,
    2168696454,
    248911107,
    1667665126,
    6407606238,
    6407606237,
    6407606236
  ],
  "tags": {
    "landuse": "cemetery",
    "name": "Neuer Friedhof Finkenwerder"
  }
},
{
  "type": "way",
  "id": 23125435,
  "center": {
    "lat": 53.6943404,
    "lon": 9.6826263
  },
  "nodes": [
    249679569,
    249679570,
    249679571,
    249679573,
    249679575,
    3950251549,
    249679577,
    249679578,
    249679579,
    249679580,
    5964402768,
    3950252972,
    249679581,
    249679582,
    249679583,
    249679584,
    249679569
  ],
  "tags": {
    "denomination": "lutheran",
    "landuse": "cemetery",
    "name": "Friedhof Uetersen",
    "religion": "christian"
  }
},
{
  "type": "way",
  "id": 23159178,
  "center": {
    "lat": 53.3595484,
    "lon": 9.5322883
  },
  "nodes": [
    250280352,
    250280353,
    250280354,
    250280355,
    250280352
  ],
  "tags": {
    "created_by": "Potlatch 0.7b",
    "landuse": "cemetery"
  }
},
{
  "type": "way",
  "id": 23159252,
  "center": {
    "lat": 53.3813208,
    "lon": 9.4704811
  },
  "nodes": [
    250280832,
    11346528338,
    250280833,
    250280834,
    4339379468,
    2357297018,
    11346528336,
    11346528337,
    250280832
  ],
  "tags": {
    "landuse": "cemetery"
  }
},
{
  "type": "way",
  "id": 23798869,
  "center": {
    "lat": 53.4466738,
    "lon": 9.9511303
  },
  "nodes": [
    7315583374,
    1611645143,
    9464523674,
    1611645118,
    1611645137,
    1611645136,
    1611645139,
    257889953,
    1611645147,
    324810931,
    12185724244,
    6866232119,
    6866232118,
    6866232117,
    6866232116,
    6866232120,
    1611656317,
    257889954,
    324810934,
    924260150,
    257889955,
    257889956,
    1611655710,
    5696442966,
    10132219176,
    257889957,
    324809886,
    1311997908,
    12102827151,
    12102827154,
    257889958,
    266815269,
    257889959,
    7315583383,
    7315583384,
    7315583379,
    7315583378,
    7315583382,
    7315583381,
    7315583380,
    7315583377,
    7315583376,
    7315583375,
    7315583374
  ],
  "tags": {
    "denomination": "lutheran",
    "landuse": "cemetery",
    "name": "Neuer Friedhof Harburg",
    "religion": "christian",
    "wikidata": "Q117737133",
    "wikimedia_commons": "Category:Neuer Friedhof Harburg"
  }
},
{
  "type": "way",
  "id": 24436665,
  "center": {
    "lat": 53.6927861,
    "lon": 9.7071359
  },
  "nodes": [
    265591592,
    265591593,
    265591594,
    265591595,
    265591596,
    265591597,
    265591598,
    265591599,
    265591600,
    9385585122,
    265591601,
    265591602,
    265591603,
    265591592
  ],
  "tags": {
    "landuse": "cemetery",
    "name": "Friedhof Tornesch"
  }
},
{
  "type": "way",
  "id": 24565841,
  "center": {
    "lat": 53.6539278,
    "lon": 9.7793884
  },
  "nodes": [
    267098798,
    8618125971,
    267098799,
    267098801,
    267098802,
    267098803,
    267098798
  ],
  "tags": {
    "landuse": "cemetery",
    "name": "Kirchlicher Friedhof Pinneberg",
    "url": "http://www.friedhof-pinneberg.de/downloads/Kirchlicher-Friedhof-Pinneberg-Friedhofssatzung-ab-01032015.pdf",
    "website": "http://www.friedhof-pinneberg.de/index.html"
  }
},
{
  "type": "way",
  "id": 24615085,
  "center": {
    "lat": 53.2736460,
    "lon": 9.5042015
  },
  "nodes": [
    26066082,
    4503199231,
    10113751467,
    5649757044,
    267578965,
    3770106272,
    267578972,
    249123045,
    7048273244,
    7048273239,
    4503199230,
    26066081,
    5696880117,
    7048273229,
    5696880120,
    7048273236,
    5678335767,
    5678335755,
    26066082
  ],
  "tags": {
    "landuse": "cemetery"
  }
},
{
  "type": "way",
  "id": 24733157,
  "center": {
    "lat": 53.5500034,
    "lon": 9.9501154
  },
  "nodes": [
    268812708,
    268812709,
    1505625109,
    1505625068,
    268812710,
    2366177735,
    408774780,
    283357279,
    268812711,
    283357278,
    1505986190,
    1505986192,
    1505986202,
    268812708
  ],
  "tags": {
    "heritage": "4",
    "heritage:operator": "dsa",
    "historic": "heritage",
    "landuse": "cemetery",
    "name": "Jüdischer Friedhof Altona",
    "opening_hours": "Mo off; Tu 15:00-17:00; We off; Th 15:00-17:00; Fr off; Sa off; Su 14:00-17:00",
    "ref:dsa": "16158",
    "religion": "jewish",
    "website": "https://www.jüdischer-friedhof-altona.de/",
    "wikidata": "Q1414486",
    "wikipedia": "de:Jüdischer Friedhof Altona"
  }
},
{
  "type": "way",
  "id": 24846710,
  "center": {
    "lat": 53.4686031,
    "lon": 9.6836689
  },
  "nodes": [
    2465865880,
    2465865888,
    355764487,
    2465865873,
    2465865880
  ],
  "tags": {
    "amenity": "grave_yard",
    "landcover": "trees",
    "leaf_type": "broadleaved"
  }
},
{
  "type": "way",
  "id": 24901193,
  "center": {
    "lat": 53.0044592,
    "lon": 9.5584161
  },
  "nodes": [
    270553212,
    270553214,
    270553215,
    270553217,
    270553212
  ],
  "tags": {
    "landuse": "cemetery",
    "name": "Friedhof"
  }
},
{
  "type": "way",
  "id": 25015686,
  "center": {
    "lat": 53.6489305,
    "lon": 9.8335730
  },
  "nodes": [
    271945749,
    2721280301,
    271945750,
    2535463932,
    271945751,
    2721280294,
    2535463931,
    2535463928,
    4910526373,
    271945753,
    271945754,
    2234730505,
    2234730500,
    3427242568,
    2234730499,
    2234730512,
    2234730528,
    271945755,
    271945756,
    271945757,
    271945758,
    271945759,
    271945760,
    271945761,
    271945762,
    8252956439,
    8252956438,
    8252956437,
    8252956440,
    271945763,
    271945764,
    271945765,
    6267576660,
    271945766,
    2234267424,
    271945749
  ],
  "tags": {
    "alt_name": "Rellinger Friedhof",
    "email": "friedhof-rellingen@t-online.de",
    "landuse": "cemetery",
    "name": "Friedhof Rellingen",
    "website": "https://www.friedhof-rellingen.de/"
  }
},
{
  "type": "way",
  "id": 25055161,
  "center": {
    "lat": 53.3819031,
    "lon": 9.9816011
  },
  "nodes": [
    272588352,
    272588353,
    272588354,
    272588355,
    272588356,
    797665658,
    272588357,
    272588358,
    1200713689,
    2172456682,
    272588352
  ],
  "tags": {
    "landuse": "cemetery",
    "name": "Hittfelder Friedhof"
  }
},
{
  "type": "way",
  "id": 25122850,
  "center": {
    "lat": 53.2321375,
    "lon": 9.8032254
  },
  "nodes": [
    273529031,
    2440389909,
    273530659,
    273519144,
    275390385,
    273530660,
    2440389880,
    2440389885,
    273530662,
    273529031
  ],
  "tags": {
    "landuse": "cemetery"
  }
},
{
  "type": "way",
  "id": 25400280,
  "center": {
    "lat": 53.2855210,
    "lon": 9.7043706
  },
  "nodes": [
    275641445,
    3380206231,
    3380206230,
    3380206228,
    1137497470,
    297583030,
    276819154,
    344909860,
    276819151,
    276819147,
    471628426,
    276828172,
    3427767916,
    276828173,
    276828174,
    275641445
  ],
  "tags": {
    "landuse": "cemetery",
    "wheelchair": "yes"
  }
},
{
  "type": "way",
  "id": 25407573,
  "center": {
    "lat": 53.5197925,
    "lon": 9.8068413
  },
  "nodes": [
    276902548,
    276902549,
    276902550,
    276902551,
    276902548
  ],
  "tags": {
    "denomination": "lutheran",
    "landuse": "cemetery",
    "name": "Friedhof Neuenfelde",
    "religion": "christian",
    "url": "http://grabsteine.genealogy.net/namelist.php?cem=885"
  }
},
{
  "type": "way",
  "id": 25416180,
  "center": {
    "lat": 53.4238687,
    "lon": 9.9723474
  },
  "nodes": [
    276999981,
    1184787827,
    276999983,
    276999984,
    276999986,
    276999988,
    276999989,
    276999990,
    6227431069,
    6227431070,
    6227431071,
    276999991,
    6227431072,
    1184787809,
    276999993,
    534880187,
    276999995,
    2923156446,
    2272476610,
    276999981
  ],
  "tags": {
    "denomination": "lutheran",
    "landuse": "cemetery",
    "name": "Friedhof Sinstorf",
    "religion": "christian",
    "url": "http://grabsteine.genealogy.net/namelist.php?cem=668"
  }
},
{
  "type": "way",
  "id": 25871917,
  "center": {
    "lat": 53.3289420,
    "lon": 9.8730121
  },
  "nodes": [
    288439237,
    288439239,
    4391983216,
    288439080,
    1316566838,
    282210084,
    3891102036,
    6987336223,
    3891102028,
    282209665,
    1520113690,
    1520113693,
    282210086,
    3891102024,
    288439237
  ],
  "tags": {
    "addr:city": "Buchholz in der Nordheide",
    "addr:housenumber": "14",
    "addr:postcode": "21244",
    "addr:street": "Friedhofstraße",
    "denomination": "lutheran",
    "heritage": "yes",
    "historic": "yes",
    "landuse": "cemetery",
    "name": "Alter Friedhof",
    "religion": "christian",
    "website": "https://www.kirchenkreis-hittfeld.de/buchholz-st-paulus/unsere-friedhoefe/alter-friedhof.html",
    "wikidata": "Q51884018"
  }
},
{
  "type": "way",
  "id": 26005474,
  "center": {
    "lat": 53.2434617,
    "lon": 9.6225924
  },
  "nodes": [
    283733598,
    283733604,
    283733610,
    283733615,
    283733598
  ],
  "tags": {
    "landuse": "cemetery",
    "name": "Friedhof Königsmoor",
    "source": "GPS and Sightseeing"
  }
},
{
  "type": "way",
  "id": 26165575,
  "center": {
    "lat": 53.9497468,
    "lon": 9.4600605
  },
  "nodes": [
    3296314129,
    3296634612,
    3296314130,
    3296634610,
    3296634611,
    286519770,
    2569412054,
    286519771,
    286519772,
    3296314129
  ],
  "tags": {
    "landuse": "cemetery",
    "name": "Gemeindefriedhof Oldendorf"
  }
},
{
  "type": "way",
  "id": 26349346,
  "center": {
    "lat": 53.6929952,
    "lon": 9.7954432
  },
  "nodes": [
    275812764,
    288689072,
    288689093,
    8452111016,
    288689095,
    288689077,
    288689079,
    288689080,
    288689081,
    288689082,
    8452111015,
    8452111014,
    8452111013,
    8452111012,
    8452111011,
    275812764
  ],
  "tags": {
    "landuse": "cemetery",
    "name": "Friedhof evangelische Kirchengemeinde Kummerfeld"
  }
},
{
  "type": "way",
  "id": 26387577,
  "center": {
    "lat": 53.4272220,
    "lon": 9.9933045
  },
  "nodes": [
    289085132,
    289085134,
    289085136,
    289085139,
    289085142,
    289085144,
    289085146,
    289085148,
    2210961735,
    2210961702,
    5073189467,
    289085152,
    289085154,
    1607552189,
    1607552190,
    1607552188,
    289085158,
    289085160,
    289085162,
    5073188304,
    289085164,
    2223526230,
    289085166,
    289085169,
    2210959478,
    289085172,
    289085174,
    2210959472,
    2210961729,
    289085176,
    289085132
  ],
  "tags": {
    "landuse": "cemetery",
    "name": "Friedhof Langenbek",
    "url": "http://grabsteine.genealogy.net/namelist.php?cem=1159"
  }
},
{
  "type": "way",
  "id": 26556131,
  "center": {
    "lat": 53.3167531,
    "lon": 9.7861958
  },
  "nodes": [
    291090574,
    291090575,
    552838794,
    293204297,
    291090576,
    313812408,
    291084098,
    291090574
  ],
  "tags": {
    "landuse": "cemetery",
    "religion": "christian"
  }
},
{
  "type": "way",
  "id": 26676828,
  "center": {
    "lat": 53.8753547,
    "lon": 9.9926016
  },
  "nodes": [
    292573651,
    274909893,
    292574961,
    292573654,
    292573969,
    7838170992,
    7838170991,
    7838170990,
    292573651
  ],
  "tags": {
    "denomination": "lutheran",
    "landuse": "cemetery",
    "name": "Friedhof Schmalfeld",
    "religion": "christian"
  }
},
{
  "type": "way",
  "id": 26739888,
  "center": {
    "lat": 53.6298805,
    "lon": 9.8459876
  },
  "nodes": [
    293283677,
    3503065613,
    297084161,
    1687176790,
    1687176693,
    293283680,
    293283683,
    293283684,
    293283688,
    297084163,
    293283691,
    293283692,
    5137817928,
    8155869705,
    11234010565,
    5137817929,
    5137817925,
    5137817926,
    5137817927,
    293283694,
    293283677
  ],
  "tags": {
    "landuse": "cemetery",
    "url": "https://www.halstenbek.de/Redaktion/user_upload/pdf/Ortsrecht/Satzungen/2019_Friedhofsatzung_Gemeinde__Halstenbek_20191011.pdf",
    "website": "https://www.halstenbek.de/verwaltung-politik/verwaltung/buergerservice/friedhofsverwaltung/"
  }
},
{
  "type": "way",
  "id": 26790295,
  "center": {
    "lat": 53.6781844,
    "lon": 9.9728386
  },
  "nodes": [
    293880225,
    2464748417,
    2464748412,
    2464748410,
    2464748404,
    293880260,
    293880261,
    293880226,
    293880227,
    293880230,
    2464748354,
    10293944486,
    10293944487,
    6223775604,
    6976244028,
    10293944488,
    293880233,
    293880234,
    293880235,
    293880236,
    293880237,
    1633361166,
    293880238,
    293880225
  ],
  "tags": {
    "denomination": "lutheran",
    "landuse": "cemetery",
    "name": "Friedhof Garstedt",
    "religion": "christian"
  }
},
{
  "type": "way",
  "id": 26823483,
  "center": {
    "lat": 53.3126539,
    "lon": 9.8098939
  },
  "nodes": [
    4752886159,
    294243063,
    294243082,
    294237178,
    1984731189,
    4752886159
  ],
  "tags": {
    "landuse": "cemetery"
  }
},
{
  "type": "way",
  "id": 27144047,
  "center": {
    "lat": 53.6240055,
    "lon": 9.7276542
  },
  "nodes": [
    297814268,
    297814296,
    297814287,
    297814271,
    297814268
  ],
  "tags": {
    "landuse": "cemetery",
    "name": "Kleintierfriedhof Schleswig-Holstein-Hamburg"
  }
},
{
  "type": "way",
  "id": 27193157,
  "center": {
    "lat": 53.5873213,
    "lon": 9.2485472
  },
  "nodes": [
    298406129,
    298406136,
    298406140,
    298406151,
    298458455,
    298458459,
    298406129
  ],
  "tags": {
    "landuse": "cemetery"
  }
},
{
  "type": "way",
  "id": 27235752,
  "center": {
    "lat": 53.4671697,
    "lon": 9.6683066
  },
  "nodes": [
    298905195,
    6779395797,
    298905196,
    6779395800,
    299345624,
    2464928882,
    2703816879,
    2464928899,
    2464928898,
    2464928914,
    2463358047,
    2463358026,
    298905195
  ],
  "tags": {
    "landuse": "cemetery",
    "name": "Waldfriedhof"
  }
},
{
  "type": "way",
  "id": 27248311,
  "center": {
    "lat": 53.3235655,
    "lon": 9.6429135
  },
  "nodes": [
    299053437,
    299053441,
    299053442,
    566366848,
    299053438,
    566366841,
    299053437
  ],
  "tags": {
    "landuse": "cemetery",
    "name": "Friedhof Heidenau",
    "source": "GPS and Sightseeing"
  }
},
{
  "type": "way",
  "id": 27281650,
  "center": {
    "lat": 53.3036448,
    "lon": 9.8696369
  },
  "nodes": [
    299467104,
    299467106,
    1943138299,
    299467080,
    299467082,
    1943138291,
    1943138293,
    7126031099,
    4527291293,
    299467110,
    299442239,
    1069378923,
    1943138287,
    3061621460,
    299467104
  ],
  "tags": {
    "landuse": "cemetery",
    "name": "Städtischer Friedhof Seppensen"
  }
},
{
  "type": "way",
  "id": 28217134,
  "center": {
    "lat": 53.9298065,
    "lon": 9.5201422
  },
  "nodes": [
    309921314,
    1607750995,
    8990243563,
    8990243559,
    8990243558,
    2592090824,
    8990243562,
    8990243566,
    8990243565,
    8990243573,
    8990243572,
    8990243574,
    309921323,
    8990243561,
    8098150424,
    8990243560,
    1607751053,
    1607751048,
    1607751047,
    1607751046,
    1607751040,
    1607751033,
    1607751026,
    1607751035,
    1607751042,
    1607751045,
    1607751044,
    1607751038,
    310273704,
    310273708,
    12205856100,
    310273711,
    2600223559,
    310273712,
    309921314
  ],
  "tags": {
    "barrier": "fence",
    "denomination": "lutheran",
    "landuse": "cemetery",
    "name": "Friedhof Brunnenstraße",
    "religion": "christian",
    "wheelchair": "yes"
  }
},
{
  "type": "way",
  "id": 28274111,
  "center": {
    "lat": 53.8384463,
    "lon": 9.9503158
  },
  "nodes": [
    310487768,
    310487769,
    310487770,
    310487771,
    310487772,
    3726917238,
    6830293159,
    3184591483,
    439204314,
    7716175183,
    3184591479,
    3696363947,
    310487773,
    8816954058,
    8816954061,
    8816954060,
    8816954059,
    310487774,
    3184591347,
    12337552839,
    460402872,
    12337552838,
    310487719,
    310487982,
    310487775,
    3184591380,
    3184591397,
    3184591403,
    434141885,
    310487776,
    439204335,
    439204334,
    439205010,
    439204333,
    439204332,
    315008912,
    439204331,
    439205009,
    3184591438,
    439204330,
    310487768
  ],
  "tags": {
    "landuse": "cemetery",
    "name": "Friedhof Kaltenkirchen"
  }
},
{
  "type": "way",
  "id": 28562814,
  "center": {
    "lat": 53.8378168,
    "lon": 9.4936988
  },
  "nodes": [
    313771131,
    313771132,
    335943939,
    335943932,
    313771133,
    313771134,
    639642186,
    335936483,
    313771135,
    335936475,
    313771131
  ],
  "tags": {
    "landuse": "cemetery"
  }
},
{
  "type": "way",
  "id": 28659307,
  "center": {
    "lat": 53.3318698,
    "lon": 9.8652147
  },
  "nodes": [
    314963600,
    4391834910,
    314963601,
    314963602,
    3252155313,
    317470802,
    314963603,
    2115111023,
    314963600
  ],
  "tags": {
    "denomination": "lutheran",
    "landuse": "cemetery",
    "name": "Waldfriedhof",
    "religion": "christian"
  }
},
{
  "type": "way",
  "id": 29256942,
  "center": {
    "lat": 53.9192271,
    "lon": 9.3843889
  },
  "nodes": [
    321752628,
    321752631,
    321752630,
    11184427665,
    1893507145,
    1899708340,
    1893485774,
    321752629,
    321752628
  ],
  "tags": {
    "landuse": "cemetery"
  }
},
{
  "type": "way",
  "id": 29498227,
  "center": {
    "lat": 53.9347523,
    "lon": 9.5422706
  },
  "nodes": [
    1836233413,
    325159973,
    325159975,
    325159976,
    325159977,
    325159978,
    325159980,
    1836233406,
    325159981,
    325159983,
    325159986,
    325159987,
    325159989,
    325159990,
    1836233413
  ],
  "tags": {
    "barrier": "fence",
    "denomination": "lutheran",
    "landuse": "cemetery",
    "name": "Waldfriedhof",
    "religion": "christian",
    "source": "GPS"
  }
},
{
  "type": "way",
  "id": 29558164,
  "center": {
    "lat": 53.1065901,
    "lon": 9.4234708
  },
  "nodes": [
    12545981197,
    12545981199,
    12545981198,
    11909785688,
    325740175,
    38966694,
    325740200,
    700940846,
    700940861,
    700940857,
    700940896,
    326043424,
    326043434,
    5666435617,
    5666435618,
    5666435619,
    5666435620,
    5666435721,
    5666435722,
    5666435616,
    325740136,
    700940827,
    700945249,
    700940931,
    700945250,
    700940905,
    700940889,
    700940847,
    700940840,
    700940893,
    2678487406,
    12545981197
  ],
  "tags": {
    "landuse": "cemetery",
    "name": "Friedhof Freudenthalstraße"
  }
},
{
  "type": "way",
  "id": 29709797,
  "center": {
    "lat": 53.4504390,
    "lon": 9.6713218
  },
  "nodes": [
    270195083,
    270195084,
    388440252,
    388440250,
    270195082,
    270195083
  ],
  "tags": {
    "landuse": "cemetery",
    "name": "Friedhof Ottensen"
  }
},
{
  "type": "way",
  "id": 30101023,
  "center": {
    "lat": 53.5701897,
    "lon": 9.9125145
  },
  "nodes": [
    331574062,
    331574064,
    10979557313,
    331574067,
    8245075966,
    2505611341,
    749959394,
    749953570,
    749953577,
    8516035142,
    8516035144,
    8516035143,
    331574070,
    3036621871,
    749955495,
    8245075991,
    8245075990,
    331574072,
    331574073,
    749956914,
    331574074,
    3312034313,
    6432466300,
    331574075,
    331574078,
    749957379,
    6432466293,
    749958830,
    12853909897,
    12853909896,
    12853909895,
    331574079,
    331574062
  ],
  "tags": {
    "denomination": "lutheran",
    "landuse": "cemetery",
    "name": "Friedhof Am Holstenkamp",
    "religion": "christian"
  }
},
{
  "type": "way",
  "id": 30433099,
  "center": {
    "lat": 53.4560138,
    "lon": 9.4434496
  },
  "nodes": [
    335863832,
    335863834,
    6835124148,
    6835124149,
    335863831,
    335853737,
    335853736,
    335853735,
    335863832
  ],
  "tags": {
    "landuse": "cemetery"
  }
},
{
  "type": "way",
  "id": 30434186,
  "center": {
    "lat": 53.4629795,
    "lon": 9.4659073
  },
  "nodes": [
    335864654,
    335864655,
    335864656,
    335864657,
    335864654
  ],
  "tags": {
    "created_by": "Potlatch 0.10f",
    "landuse": "cemetery"
  }
},
{
  "type": "way",
  "id": 31091427,
  "center": {
    "lat": 53.3126263,
    "lon": 9.4634159
  },
  "nodes": [
    345521722,
    345521723,
    9713645160,
    8821316716,
    8821350617,
    8821316713,
    8821316712,
    8821316711,
    345521724,
    345521725,
    345521722
  ],
  "tags": {
    "denomination": "protestant",
    "landuse": "cemetery",
    "religion": "christian"
  }
},
{
  "type": "way",
  "id": 31142591,
  "center": {
    "lat": 53.1069338,
    "lon": 9.4101078
  },
  "nodes": [
    346350204,
    347277029,
    347277024,
    347270839,
    347276759,
    346350197,
    346350200,
    325769462,
    347274864,
    347270843,
    347274862,
    347271548,
    346350202,
    347276581,
    346350204
  ],
  "tags": {
    "landuse": "cemetery",
    "religion": "christian"
  }
},
{
  "type": "way",
  "id": 31233319,
  "center": {
    "lat": 53.1070090,
    "lon": 9.4117631
  },
  "nodes": [
    347274853,
    12545981168,
    325760569,
    346350202,
    347271548,
    347274862,
    347270843,
    347274864,
    347274853
  ],
  "tags": {
    "amenity": "grave_yard"
  }
},
{
  "type": "way",
  "id": 31309592,
  "center": {
    "lat": 53.1347490,
    "lon": 9.4503805
  },
  "nodes": [
    348388371,
    348388376,
    348388379,
    348388388,
    348388371
  ],
  "tags": {
    "landuse": "cemetery",
    "name": "Friedhof Wohlsdorf"
  }
},
{
  "type": "way",
  "id": 31466931,
  "center": {
    "lat": 53.2472292,
    "lon": 9.8249760
  },
  "nodes": [
    351499706,
    351499607,
    351499552,
    6943957807,
    2153394813,
    2153394817,
    1800864357,
    351499706
  ],
  "tags": {
    "amenity": "grave_yard",
    "name": "Friedhof Handeloh"
  }
},
{
  "type": "way",
  "id": 31497540,
  "center": {
    "lat": 53.1157263,
    "lon": 9.7912481
  },
  "nodes": [
    12257884516,
    12257884517,
    12257884518,
    12257884519,
    12257884520,
    352301631,
    352301633,
    7706808765,
    3975007116,
    7706808764,
    12257884516
  ],
  "tags": {
    "denomination": "protestant",
    "landuse": "cemetery",
    "name": "Alter Friedhof",
    "religion": "christian",
    "wikidata": "Q51885570"
  }
},
{
  "type": "way",
  "id": 31542007,
  "center": {
    "lat": 53.0625524,
    "lon": 9.3126528
  },
  "nodes": [
    358335966,
    358336359,
    3658675202,
    352961841,
    358335966
  ],
  "tags": {
    "denomination": "lutheran",
    "landuse": "cemetery",
    "name": "Friedhof Ahausen",
    "religion": "christian"
  }
},
{
  "type": "way",
  "id": 31691307,
  "center": {
    "lat": 53.8447958,
    "lon": 9.6193243
  },
  "nodes": [
    354646607,
    2438961343,
    354646608,
    8736310900,
    354646620,
    354646611,
    354646607
  ],
  "tags": {
    "landuse": "cemetery"
  }
},
{
  "type": "way",
  "id": 31694024,
  "center": {
    "lat": 53.1180420,
    "lon": 9.0464744
  },
  "nodes": [
    354669760,
    354669764,
    7279182561,
    7279182558,
    12012045392,
    354669767,
    354669771,
    12093255890,
    354669760
  ],
  "tags": {
    "denomination": "lutheran",
    "landuse": "cemetery",
    "name": "Friedhof Fischerhude",
    "operator": "Ev.-luth. Liebfrauen-Kirchengemeinde Fischerhude",
    "operator:type": "religious",
    "religion": "christian",
    "wikidata": "Q131309160"
  }
},
{
  "type": "way",
  "id": 32107361,
  "center": {
    "lat": 53.7778957,
    "lon": 9.6104839
  },
  "nodes": [
    360342176,
    360342177,
    360342179,
    360342180,
    360342176
  ],
  "tags": {
    "landuse": "cemetery"
  }
},
{
  "type": "way",
  "id": 32109061,
  "center": {
    "lat": 53.1658423,
    "lon": 9.4816761
  },
  "nodes": [
    269969918,
    1937761230,
    2424147059,
    6586437306,
    360355330,
    6586437303,
    6586437304,
    269969918
  ],
  "tags": {
    "denomination": "protestant",
    "landuse": "cemetery",
    "name": "Friedhof Scheeßel",
    "religion": "christian"
  }
},
{
  "type": "way",
  "id": 32760488,
  "center": {
    "lat": 53.4883827,
    "lon": 9.9397523
  },
  "nodes": [
    368951606,
    368951608,
    11854849856,
    368951610,
    368951612,
    368951613,
    1172830451,
    1172830419,
    368951614,
    7976812868,
    7976812869,
    7976812870,
    7976812872,
    7976812887,
    7976812890,
    368951606
  ],
  "tags": {
    "denomination": "lutheran",
    "landuse": "cemetery",
    "name": "Friedhof Moorburg",
    "religion": "christian"
  }
},
{
  "type": "way",
  "id": 32958007,
  "center": {
    "lat": 53.7369378,
    "lon": 9.5700765
  },
  "nodes": [
    371184168,
    371184169,
    371184170,
    371184171,
    371184172,
    371184173,
    371184174,
    371184175,
    371184176,
    371184168
  ],
  "tags": {
    "created_by": "Potlatch 0.10f",
    "landuse": "cemetery",
    "religion": "christian"
  }
},
{
  "type": "way",
  "id": 32964582,
  "center": {
    "lat": 53.4833057,
    "lon": 9.6282153
  },
  "nodes": [
    371236222,
    371236225,
    3514603371,
    371236224,
    371236223,
    3514603524,
    371236222
  ],
  "tags": {
    "landuse": "cemetery",
    "religion": "christian"
  }
},
{
  "type": "way",
  "id": 32964583,
  "center": {
    "lat": 53.4821900,
    "lon": 9.6272569
  },
  "nodes": [
    388182257,
    3602153023,
    2457193820,
    388182251,
    388182253,
    388182255,
    388182257
  ],
  "tags": {
    "landuse": "cemetery",
    "religion": "christian"
  }
},
{
  "type": "way",
  "id": 32977768,
  "center": {
    "lat": 53.8272630,
    "lon": 9.4301878
  },
  "nodes": [
    371442165,
    371442171,
    8220538725,
    371442092,
    3730813346,
    371442094,
    371442096,
    371442098,
    371442100,
    371442158,
    371442159,
    371442162,
    371442164,
    371442165
  ],
  "tags": {
    "denomination": "lutheran",
    "landuse": "cemetery",
    "religion": "christian"
  }
},
{
  "type": "way",
  "id": 33096810,
  "center": {
    "lat": 53.0691002,
    "lon": 9.2416604
  },
  "nodes": [
    2907003225,
    373450976,
    2822326373,
    373450984,
    2822326372,
    373450947,
    373450981,
    373450989,
    2907003225
  ],
  "tags": {
    "addr:city": "Hellwege",
    "addr:housenumber": "5",
    "addr:postcode": "27367",
    "addr:street": "Verdener Straße",
    "landuse": "cemetery"
  }
},
{
  "type": "way",
  "id": 33707787,
  "center": {
    "lat": 53.5740765,
    "lon": 9.8710237
  },
  "nodes": [
    920239162,
    12206063738,
    920266010,
    920266012,
    920266014,
    10718546988,
    920266016,
    10718546987,
    1019562913,
    1019562458,
    1019562810,
    920239165,
    1019562425,
    385368952,
    385368955,
    385368953,
    1019562204,
    385368958,
    1413005815,
    385368960,
    385368961,
    385368962,
    385368963,
    6797359626,
    385368965,
    385368967,
    385368969,
    8398265763,
    385368970,
    385379755,
    385360264,
    920239183,
    12200270072,
    12200270071,
    385360266,
    385360265,
    269694505,
    1019562726,
    920239162
  ],
  "tags": {
    "contact:website": "https://www.hamburg.de/altona/friedhoefe/2771802/friedhof-gross-flottbek/",
    "denomination": "lutheran",
    "landuse": "cemetery",
    "name": "Evangelischer Friedhof Groß Flottbek",
    "opening_hours": "Apr-Sep Mo-Fr 08:00-21:00; Apr-Sep PH,Sa,Su 09:00-21:00, Oct-Mar Mo-Fr 08:00-19:00; Oct-Mar PH,Sa,Su 09:00-19:00",
    "religion": "christian",
    "start_date": "1908",
    "wikidata": "Q26821519",
    "wikipedia": "de:Friedhof Groß Flottbek"
  }
},
{
  "type": "way",
  "id": 33840359,
  "center": {
    "lat": 53.1176855,
    "lon": 9.3961765
  },
  "nodes": [
    346301719,
    387687091,
    346301723,
    346301721,
    346301719
  ],
  "tags": {
    "amenity": "grave_yard",
    "historic": "memorial",
    "name": "Kriegsgräbergedänkstätte/Jüdischer Friedhof",
    "religion": "jewish"
  }
},
{
  "type": "way",
  "id": 34299490,
  "center": {
    "lat": 53.7941835,
    "lon": 9.4284286
  },
  "nodes": [
    393357787,
    9633255381,
    393357788,
    393363190,
    393357789,
    393357790,
    393363494,
    393363497,
    4830823146,
    9633255380,
    393357787
  ],
  "tags": {
    "landuse": "cemetery"
  }
},
{
  "type": "way",
  "id": 34299499,
  "center": {
    "lat": 53.7918378,
    "lon": 9.4281151
  },
  "nodes": [
    393358101,
    395404896,
    393358103,
    393414135,
    393358107,
    393358109,
    393358112,
    393358101
  ],
  "tags": {
    "landuse": "cemetery"
  }
},
{
  "type": "way",
  "id": 34299508,
  "center": {
    "lat": 53.7917848,
    "lon": 9.4303750
  },
  "nodes": [
    393358176,
    393358177,
    393358178,
    96123575,
    393358176
  ],
  "tags": {
    "landuse": "cemetery"
  }
},
{
  "type": "way",
  "id": 34348475,
  "center": {
    "lat": 53.2304576,
    "lon": 9.0739870
  },
  "nodes": [
    393974769,
    393974770,
    5882285937,
    5882285938,
    393974771,
    393974772,
    393974769
  ],
  "tags": {
    "landuse": "cemetery",
    "name": "Friedhof",
    "religion": "christian"
  }
},
{
  "type": "way",
  "id": 34380050,
  "center": {
    "lat": 53.3826812,
    "lon": 9.0059345
  },
  "nodes": [
    394697873,
    394697874,
    394697875,
    2379623879,
    394697876,
    394697877,
    394697873
  ],
  "tags": {
    "landuse": "cemetery",
    "name": "Friedhof Pauluskirche",
    "religion": "christian"
  }
},
{
  "type": "way",
  "id": 34598750,
  "center": {
    "lat": 53.6974858,
    "lon": 9.1935377
  },
  "nodes": [
    401656927,
    401656931,
    401656934,
    3536729404,
    3536729152,
    401656936,
    401656927
  ],
  "tags": {
    "denomination": "protestant",
    "landuse": "cemetery",
    "name": "Friedhof Osten",
    "religion": "christian"
  }
},
{
  "type": "way",
  "id": 35045131,
  "center": {
    "lat": 53.5855586,
    "lon": 9.4972594
  },
  "nodes": [
    411040706,
    411040707,
    411040709,
    2617816693,
    2617816694,
    411040716,
    411040717,
    411040718,
    2617816692,
    411040706
  ],
  "tags": {
    "landuse": "cemetery",
    "name": "Friedhof Campe"
  }
},
{
  "type": "way",
  "id": 35387546,
  "center": {
    "lat": 53.5942320,
    "lon": 9.4649688
  },
  "nodes": [
    414984643,
    2465169512,
    12396914003,
    9462430240,
    414984651,
    2613698273,
    414984647,
    12396913993,
    12396913992,
    12396913991,
    12396913902,
    12396913903,
    12396913917,
    416026464,
    416026469,
    416026468,
    416026471,
    416026466,
    416026462,
    414984643
  ],
  "tags": {
    "landuse": "cemetery",
    "name": "Horstfriedhof",
    "website": "https://www.horstfriedhof-stade.de/"
  }
},
{
  "type": "way",
  "id": 35458667,
  "center": {
    "lat": 53.5782240,
    "lon": 9.9297432
  },
  "nodes": [
    258636766,
    415865970,
    415865950,
    258636768,
    258636766
  ],
  "tags": {
    "heritage": "4",
    "heritage:operator": "dsa",
    "landuse": "cemetery",
    "name": "Jüdischer Friedhof Langenfelde",
    "ref:dsa": "19739",
    "religion": "jewish",
    "start_date": "1887",
    "wikidata": "Q1716716",
    "wikipedia": "de:Jüdischer Friedhof Langenfelde"
  }
},
{
  "type": "way",
  "id": 36770542,
  "center": {
    "lat": 53.4569593,
    "lon": 9.4957541
  },
  "nodes": [
    427526628,
    427526629,
    427526630,
    427526631,
    427526628
  ],
  "tags": {
    "landuse": "cemetery",
    "name": "Friedhof Gierenberg",
    "religion": "christian"
  }
},
{
  "type": "way",
  "id": 36771859,
  "center": {
    "lat": 53.4707482,
    "lon": 9.5187476
  },
  "nodes": [
    427539503,
    427539504,
    427539505,
    10292876844,
    427539506,
    427539507,
    3186638463,
    427539508,
    427539509,
    427539512,
    427539514,
    3186638461,
    427539503
  ],
  "tags": {
    "amenity": "grave_yard",
    "name": "Ehrenberg Friedhof"
  }
},
{
  "type": "way",
  "id": 36997598,
  "center": {
    "lat": 53.7186930,
    "lon": 9.5963753
  },
  "nodes": [
    430281859,
    430281860,
    334064565,
    429457362,
    421271130,
    4349535671,
    430281856,
    1037718424,
    430281861,
    430281862,
    430281859
  ],
  "tags": {
    "landuse": "cemetery",
    "religion": "christian"
  }
},
{
  "type": "way",
  "id": 37219432,
  "center": {
    "lat": 53.4506219,
    "lon": 9.5046740
  },
  "nodes": [
    427526622,
    427526625,
    427526626,
    427526624,
    427526622
  ],
  "tags": {
    "landuse": "cemetery",
    "name": "Oberer Friedhof",
    "religion": "christian"
  }
},
{
  "type": "way",
  "id": 37970601,
  "center": {
    "lat": 53.5900778,
    "lon": 9.9225796
  },
  "nodes": [
    445988516,
    445988520,
    499131089,
    499131082,
    499130711,
    5189012903,
    5189012840,
    5189012839,
    499142832,
    5189012902,
    5189012901,
    5189012900,
    499191372,
    3057251385,
    499194822,
    499194826,
    445988525,
    5189012896,
    5189012897,
    445988527,
    5190678340,
    445988529,
    445988531,
    8558225305,
    497744946,
    497744954,
    497744957,
    497744874,
    445988533,
    445988535,
    445988537,
    445988539,
    12328370573,
    445988516
  ],
  "tags": {
    "denomination": "lutheran",
    "landuse": "cemetery",
    "name": "Friedhof Stellingen",
    "religion": "christian"
  }
},
{
  "type": "way",
  "id": 38087966,
  "center": {
    "lat": 53.1209903,
    "lon": 9.1384684
  },
  "nodes": [
    447985586,
    12806025332,
    447985591,
    12806025330,
    12806025331,
    447985592,
    447985593,
    11088935862,
    447985594,
    447985596,
    447985586
  ],
  "tags": {
    "landuse": "cemetery",
    "name": "Friedhof Ottersberg",
    "operator": "Flecken Ottersberg",
    "operator:type": "government",
    "religion": "none"
  }
},
{
  "type": "way",
  "id": 38137976,
  "center": {
    "lat": 53.5058138,
    "lon": 9.9177549
  },
  "nodes": [
    448862363,
    2626581730,
    448862370,
    8330115515,
    4030130874,
    2626581745,
    3665156390,
    3665156389,
    448862366,
    3665156388,
    448862363
  ],
  "tags": {
    "barrier": "fence",
    "check_date": "2024-03-06",
    "denomination": "lutheran",
    "landuse": "cemetery",
    "name": "Altenwerder Friedhof",
    "religion": "christian",
    "url": "http://grabsteine.genealogy.net/namelist.php?cem=632"
  }
},
{
  "type": "way",
  "id": 38229981,
  "center": {
    "lat": 53.1366310,
    "lon": 9.1482323
  },
  "nodes": [
    3310532867,
    8999627510,
    450554125,
    450554127,
    3310532866,
    450554129,
    3310532867
  ],
  "tags": {
    "landuse": "cemetery",
    "name": "Friedhof Otterstedt",
    "operator": "Flecken Ottersberg",
    "operator:type": "government",
    "religion": "none"
  }
},
{
  "type": "way",
  "id": 38288136,
  "center": {
    "lat": 53.5468090,
    "lon": 9.9568080
  },
  "nodes": [
    451770567,
    451770592,
    451770599,
    451770590,
    451770588,
    728888754,
    451770594,
    451770607,
    728799164,
    451770583,
    451770580,
    266464605,
    266464591,
    451770575,
    451770573,
    451770569,
    451770567
  ],
  "tags": {
    "landuse": "cemetery",
    "name": "Kirchgarten der St. Pauli Kirche"
  }
},
{
  "type": "way",
  "id": 38716348,
  "center": {
    "lat": 53.7887881,
    "lon": 9.4764638
  },
  "nodes": [
    458899159,
    458899160,
    3424884535,
    458899161,
    458899162,
    2068388596,
    1354624906,
    1354624907,
    458899163,
    458899164,
    458899165,
    6954005128,
    6954005117,
    458899159
  ],
  "tags": {
    "landuse": "cemetery"
  }
},
{
  "type": "way",
  "id": 39151946,
  "center": {
    "lat": 53.1774346,
    "lon": 9.2081647
  },
  "nodes": [
    464794756,
    468743738,
    468743725,
    468743743,
    464794756
  ],
  "tags": {
    "landuse": "cemetery"
  }
},
{
  "type": "way",
  "id": 39151998,
  "center": {
    "lat": 53.1857797,
    "lon": 9.1640065
  },
  "nodes": [
    468743988,
    468743989,
    468743990,
    468743991,
    468743988
  ],
  "tags": {
    "landuse": "cemetery"
  }
},
{
  "type": "way",
  "id": 39170235,
  "center": {
    "lat": 53.8100477,
    "lon": 9.6154305
  },
  "nodes": [
    469200885,
    469200886,
    469200888,
    469200894,
    469200889,
    469200893,
    469200891,
    469200892,
    2079716303,
    469200885
  ],
  "tags": {
    "landuse": "cemetery"
  }
},
{
  "type": "way",
  "id": 39242915,
  "center": {
    "lat": 53.1903505,
    "lon": 9.8220482
  },
  "nodes": [
    470201252,
    470201253,
    470201254,
    3558339072,
    3558339078,
    3558339085,
    470256869,
    3558339086,
    3558339081,
    470201255,
    470201252
  ],
  "tags": {
    "amenity": "grave_yard",
    "denomination": "lutheran",
    "name": "Wintermoorer Friedhof",
    "religion": "christian"
  }
},
{
  "type": "way",
  "id": 39543492,
  "center": {
    "lat": 53.5694145,
    "lon": 9.9162408
  },
  "nodes": [
    473800562,
    473800564,
    473800566,
    473800567,
    473800572,
    473800562
  ],
  "tags": {
    "check_date": "2024-03-12",
    "landuse": "cemetery",
    "name": "Jüdischer Friedhof Bahrenfeld",
    "religion": "jewish",
    "wikidata": "Q1716638",
    "wikipedia": "de:Jüdischer Friedhof Bahrenfeld"
  }
},
{
  "type": "way",
  "id": 39644002,
  "center": {
    "lat": 53.4369641,
    "lon": 9.6079335
  },
  "nodes": [
    2501679554,
    475215887,
    251754607,
    251754608,
    475215889,
    475215890,
    475215892,
    475215906,
    2501679554
  ],
  "tags": {
    "landuse": "cemetery",
    "name": "Friedhof Apensen"
  }
},
{
  "type": "way",
  "id": 39702232,
  "center": {
    "lat": 53.1915179,
    "lon": 9.7363377
  },
  "nodes": [
    476021911,
    476021912,
    476021913,
    520617586,
    476021915,
    3366653355,
    476021916,
    476021918,
    476021919,
    476021920,
    476021922,
    476021923,
    476021911
  ],
  "tags": {
    "landuse": "cemetery"
  }
},
{
  "type": "way",
  "id": 40460486,
  "center": {
    "lat": 53.7340700,
    "lon": 9.4929788
  },
  "nodes": [
    490096470,
    2665404835,
    490096473,
    490096474,
    490096476,
    490096477,
    2665404697,
    2665404725,
    490096478,
    490096479,
    2665404783,
    490096470
  ],
  "tags": {
    "denomination": "lutheran",
    "landuse": "cemetery",
    "religion": "christian"
  }
},
{
  "type": "way",
  "id": 40957852,
  "center": {
    "lat": 53.5537006,
    "lon": 9.8412606
  },
  "nodes": [
    498934392,
    9751936043,
    9751936048,
    498934400,
    12512007178,
    12512007179,
    12512007180,
    702393557,
    12512007184,
    12512007183,
    702393356,
    498934405,
    498934411,
    702393377,
    11361391688,
    11361391689,
    702377411,
    702377387,
    702377258,
    11361391691,
    11361391690,
    498934434,
    498934436,
    498934439,
    498934440,
    498934441,
    12549825209,
    6452220853,
    6452220849,
    498934445,
    3390757753,
    498934451,
    498934458,
    498934464,
    9751936047,
    9751936037,
    9751936046,
    9751936045,
    9751936044,
    498934392
  ],
  "tags": {
    "denomination": "lutheran",
    "landuse": "cemetery",
    "name": "Nienstedtener Friedhof",
    "religion": "christian",
    "wikidata": "Q1803781",
    "wikipedia": "de:Nienstedtener Friedhof"
  }
},
{
  "type": "way",
  "id": 43136750,
  "center": {
    "lat": 53.1625918,
    "lon": 9.1091295
  },
  "nodes": [
    540401012,
    540401016,
    10080222636,
    540415692,
    540401022,
    540401024,
    2266136319,
    540401012
  ],
  "tags": {
    "landuse": "cemetery",
    "name": "Friedhof Buchholz"
  }
},
{
  "type": "way",
  "id": 43139585,
  "center": {
    "lat": 53.6846005,
    "lon": 9.1838778
  },
  "nodes": [
    540429901,
    540429872,
    540429863,
    540429881,
    8791839309,
    8791839310,
    8791839314,
    8791839315,
    8791863217,
    8791839316,
    8791863218,
    540429902,
    8791863222,
    540429897,
    8791863219,
    540429901
  ],
  "tags": {
    "denomination": "protestant",
    "landuse": "cemetery",
    "name": "Friedhof Basbeck",
    "religion": "christian"
  }
},
{
  "type": "way",
  "id": 43444378,
  "center": {
    "lat": 53.1831955,
    "lon": 9.6390501
  },
  "nodes": [
    2298992038,
    2298992037,
    2298992063,
    2298992064,
    547959193,
    9371122224,
    2298992038
  ],
  "tags": {
    "amenity": "grave_yard",
    "denomination": "lutheran",
    "name": "Friedhof Vahlde",
    "religion": "christian"
  }
},
{
  "type": "way",
  "id": 43486480,
  "center": {
    "lat": 53.1736025,
    "lon": 9.6634492
  },
  "nodes": [
    549065422,
    549065660,
    549065647,
    549065671,
    549065684,
    549065702,
    12142465796,
    549065431,
    549065278,
    549065422
  ],
  "tags": {
    "denomination": "lutheran",
    "landuse": "cemetery",
    "name": "Friedhof Fintel",
    "religion": "christian"
  }
},
{
  "type": "way",
  "id": 43844698,
  "center": {
    "lat": 53.8229623,
    "lon": 9.2865551
  },
  "nodes": [
    556405529,
    556405531,
    556405523,
    556405522,
    556405529
  ],
  "tags": {
    "denomination": "protestant",
    "landuse": "cemetery",
    "name": "Friedhof Freiburg/Elbe",
    "religion": "christian"
  }
},
{
  "type": "way",
  "id": 44448023,
  "center": {
    "lat": 53.4138805,
    "lon": 9.6586874
  },
  "nodes": [
    564916300,
    564916301,
    564916302,
    564916303,
    564916300
  ],
  "tags": {
    "landuse": "cemetery"
  }
},
{
  "type": "way",
  "id": 44448026,
  "center": {
    "lat": 53.4027825,
    "lon": 9.6305957
  },
  "nodes": [
    564916206,
    564916208,
    564916211,
    564916224,
    564916223,
    564916206
  ],
  "tags": {
    "landuse": "cemetery"
  }
},
{
  "type": "way",
  "id": 45273061,
  "center": {
    "lat": 53.4693121,
    "lon": 9.6916560
  },
  "nodes": [
    574976880,
    574976867,
    10779484715,
    10779484716,
    379793034,
    3667492462,
    574976872,
    10779484714,
    10779484713,
    10779484712,
    10779484711,
    10779484710,
    10779484709,
    10779484708,
    574976880
  ],
  "tags": {
    "landuse": "cemetery",
    "name": "Friedhof von St. Petri an der Ferdinandstraße",
    "religion": "christian"
  }
},
{
  "type": "way",
  "id": 45744305,
  "center": {
    "lat": 53.8906472,
    "lon": 9.5715125
  },
  "nodes": [
    582634564,
    582634560,
    582634561,
    582634563,
    582634529,
    582634532,
    3388006404,
    3388006415,
    582634564
  ],
  "tags": {
    "denomination": "lutheran",
    "landuse": "cemetery",
    "religion": "christian"
  }
},
{
  "type": "way",
  "id": 46040840,
  "center": {
    "lat": 53.4375977,
    "lon": 9.4539940
  },
  "nodes": [
    586879074,
    586879106,
    586879136,
    586879138,
    586879074
  ],
  "tags": {
    "amenity": "grave_yard",
    "name": "Friedhof Hollenbeck"
  }
},
{
  "type": "way",
  "id": 46246071,
  "center": {
    "lat": 53.8029722,
    "lon": 9.7717727
  },
  "nodes": [
    2886742980,
    330327692,
    590040430,
    5793937705,
    2886742979,
    590040444,
    590040454,
    2886742971,
    439535606,
    590040302,
    2886742969,
    2886742974,
    2886742973,
    2886742975,
    2886742977,
    2886742980
  ],
  "tags": {
    "landuse": "cemetery"
  }
},
{
  "type": "way",
  "id": 46714937,
  "center": {
    "lat": 53.5923456,
    "lon": 9.1889269
  },
  "nodes": [
    597245666,
    597245669,
    2133956888,
    2133956890,
    8735601590,
    597245674,
    597245679,
    597245666
  ],
  "tags": {
    "landuse": "cemetery"
  }
},
{
  "type": "way",
  "id": 47709445,
  "center": {
    "lat": 53.8001029,
    "lon": 9.0247611
  },
  "nodes": [
    607010468,
    3891471338,
    607010470,
    3891471329,
    607010472,
    607010523,
    3891471333,
    607010552,
    607010610,
    3891471344,
    607010468
  ],
  "tags": {
    "denomination": "lutheran",
    "landuse": "cemetery",
    "religion": "christian"
  }
},
{
  "type": "way",
  "id": 52442379,
  "center": {
    "lat": 53.7061561,
    "lon": 9.1141180
  },
  "nodes": [
    666801103,
    666801101,
    666801099,
    666801093,
    1729130323,
    8798284410,
    8798284411,
    8798284413,
    8798284414,
    666801103
  ],
  "tags": {
    "denomination": "lutheran",
    "landuse": "cemetery",
    "name": "Friedhof Althemmoor",
    "religion": "christian"
  }
},
{
  "type": "way",
  "id": 55625595,
  "center": {
    "lat": 53.0081536,
    "lon": 9.0502797
  },
  "nodes": [
    699053135,
    699053134,
    1925130582,
    1925130575,
    3396831344,
    699053156,
    1925130578,
    1925130580,
    1932260529,
    1925130576,
    699053135
  ],
  "tags": {
    "landuse": "cemetery",
    "name": "Parkfriedhof",
    "operator": "Stadt Achim",
    "religion": "none",
    "wheelchair": "yes"
  }
},
{
  "type": "way",
  "id": 55697466,
  "center": {
    "lat": 53.5750368,
    "lon": 9.8009207
  },
  "nodes": [
    699936736,
    12208746113,
    11518465561,
    11518465562,
    6315700702,
    5999910043,
    5999910024,
    699940715,
    11959785541,
    12208746124,
    699940729,
    699940743,
    5999910015,
    699940754,
    12208746123,
    4223345740,
    6048543504,
    12208746122,
    699942178,
    835707942,
    4223345771,
    4223345767,
    4223345765,
    4223345766,
    12208746127,
    12208746108,
    699942180,
    12208746109,
    12208746107,
    12208746105,
    699942182,
    12208746104,
    699910182,
    12208746103,
    12208746106,
    699910189,
    6081935418,
    12208746101,
    12208745097,
    12208745100,
    12208745099,
    12208745098,
    12208745096,
    12208745088,
    12208745091,
    12208745092,
    12208745093,
    12208745094,
    12208745095,
    12208745090,
    12208745089,
    11348034176,
    699910201,
    6451626994,
    699936654,
    832461731,
    12208746115,
    12208746114,
    6451626995,
    699936655,
    699936679,
    699936684,
    699936687,
    4223345722,
    699936691,
    699936702,
    699936714,
    4223345715,
    699936720,
    699936736
  ],
  "tags": {
    "denomination": "lutheran",
    "landuse": "cemetery",
    "name": "Friedhof Blankenese",
    "religion": "christian",
    "wikidata": "Q41680828"
  }
},
{
  "type": "way",
  "id": 55806459,
  "center": {
    "lat": 53.8440258,
    "lon": 9.4002789
  },
  "nodes": [
    701014553,
    701014370,
    701014583,
    701014516,
    3149467115,
    701014604,
    701014206,
    701014553
  ],
  "tags": {
    "denomination": "lutheran",
    "landuse": "cemetery",
    "religion": "christian",
    "wheelchair": "no"
  }
},
{
  "type": "way",
  "id": 56223773,
  "center": {
    "lat": 53.2002556,
    "lon": 9.2132327
  },
  "nodes": [
    705539716,
    705539715,
    705539785,
    705539787,
    1746608697,
    1746608703,
    705539716
  ],
  "tags": {
    "landuse": "cemetery"
  }
},
{
  "type": "way",
  "id": 56352950,
  "center": {
    "lat": 53.6401375,
    "lon": 9.7956043
  },
  "nodes": [
    409741656,
    1583703044,
    267099848,
    329260102,
    1518496224,
    267099849,
    267099854,
    2989334467,
    2989334293,
    1838154312,
    2989334314,
    2989334264,
    2989334437,
    2989334454,
    330894411,
    1838154322,
    2993681997,
    1838154303,
    2993682253,
    267099855,
    267099856,
    267099857,
    3292616316,
    2989170064,
    2989168729,
    2989170239,
    2989170063,
    2989170081,
    2989170033,
    2989170083,
    409741656
  ],
  "tags": {
    "landuse": "cemetery",
    "name": "Stadtfriedhof Pinneberg"
  }
},
{
  "type": "way",
  "id": 56843502,
  "center": {
    "lat": 53.5992025,
    "lon": 9.4215752
  },
  "nodes": [
    710729226,
    710729224,
    1705881369,
    710729217,
    1705881375,
    1705881377,
    710729219,
    710729226
  ],
  "tags": {
    "landuse": "cemetery",
    "name": "Friedhof Haddorf"
  }
},
{
  "type": "way",
  "id": 58521496,
  "center": {
    "lat": 53.4260697,
    "lon": 9.7914022
  },
  "nodes": [
    699655241,
    12304954205,
    725262154,
    725262183,
    6347735203,
    725262181,
    6347735202,
    725262180,
    12304954204,
    725262192,
    6347735201,
    699655241
  ],
  "tags": {
    "landuse": "cemetery"
  }
},
{
  "type": "way",
  "id": 58693762,
  "center": {
    "lat": 53.4112257,
    "lon": 9.1384165
  },
  "nodes": [
    727309272,
    727309274,
    727309275,
    727309276,
    727309272
  ],
  "tags": {
    "description": "Gedenkstätte Stalag X",
    "landuse": "cemetery",
    "memorial:conflict": "WW2",
    "name": "Kriegsgräberstätte Sandbostel",
    "wikidata": "Q56073121"
  }
},
{
  "type": "way",
  "id": 58759644,
  "center": {
    "lat": 53.4868331,
    "lon": 9.6002161
  },
  "nodes": [
    728247266,
    728247264,
    728247255,
    728247285,
    728247266
  ],
  "tags": {
    "landuse": "cemetery",
    "name": "Friedhof Nottensdorf"
  }
},
{
  "type": "way",
  "id": 60443446,
  "center": {
    "lat": 53.5717174,
    "lon": 9.9162832
  },
  "nodes": [
    1268438590,
    752931369,
    752931374,
    752931376,
    752931380,
    272742873,
    1268438590
  ],
  "tags": {
    "check_date": "2024-03-12",
    "denomination": "mennonite",
    "landuse": "cemetery",
    "name": "Mennonitenfriedhof",
    "religion": "christian",
    "wikidata": "Q1664659",
    "wikipedia": "de:Mennonitenfriedhof Hamburg-Altona"
  }
},
{
  "type": "way",
  "id": 60839534,
  "center": {
    "lat": 53.5614941,
    "lon": 9.6046059
  },
  "nodes": [
    761579260,
    761579261,
    761579262,
    761579263,
    761579264,
    761579265,
    761579260
  ],
  "tags": {
    "amenity": "grave_yard",
    "denomination": "lutheran",
    "religion": "christian"
  }
},
{
  "type": "way",
  "id": 60841087,
  "center": {
    "lat": 53.5704913,
    "lon": 9.6085518
  },
  "nodes": [
    761619314,
    761619315,
    761619317,
    761619319,
    761619322,
    9964495183,
    9964495184,
    761619325,
    761619314
  ],
  "tags": {
    "denomination": "lutheran",
    "landuse": "cemetery",
    "religion": "christian"
  }
},
{
  "type": "way",
  "id": 61421413,
  "center": {
    "lat": 53.5413712,
    "lon": 9.5409453
  },
  "nodes": [
    766863342,
    766863345,
    766863346,
    766863349,
    766863342
  ],
  "tags": {
    "amenity": "grave_yard"
  }
},
{
  "type": "way",
  "id": 61684406,
  "center": {
    "lat": 53.1931680,
    "lon": 9.9651446
  },
  "nodes": [
    768845727,
    768845729,
    768845732,
    768845735,
    768845727
  ],
  "tags": {
    "landuse": "cemetery",
    "natural": "heath"
  }
},
{
  "type": "way",
  "id": 61754859,
  "center": {
    "lat": 53.2853307,
    "lon": 9.0897600
  },
  "nodes": [
    769414262,
    769414265,
    769414267,
    769414269,
    9430907886,
    769414262
  ],
  "tags": {
    "landuse": "cemetery",
    "name": "Friedhof",
    "religion": "christian",
    "source": "GPS"
  }
},
{
  "type": "way",
  "id": 61849016,
  "center": {
    "lat": 53.3260657,
    "lon": 9.1145478
  },
  "nodes": [
    770694603,
    770694604,
    770694605,
    6234323525,
    770694606,
    770694607,
    770694603
  ],
  "tags": {
    "landuse": "cemetery",
    "name": "Friedhof",
    "religion": "christian"
  }
},
{
  "type": "way",
  "id": 61920365,
  "center": {
    "lat": 53.7125027,
    "lon": 9.3854050
  },
  "nodes": [
    771833606,
    771833743,
    771833638,
    771833745,
    771833766,
    771833625,
    771833663,
    771833606
  ],
  "tags": {
    "landuse": "cemetery",
    "religion": "christian"
  }
},
{
  "type": "way",
  "id": 66317154,
  "center": {
    "lat": 53.4073070,
    "lon": 9.4441918
  },
  "nodes": [
    803829305,
    803829313,
    803829309,
    803829304,
    803829303,
    803829305
  ],
  "tags": {
    "landuse": "cemetery",
    "source": "yahoo and knowledge"
  }
},
{
  "type": "way",
  "id": 68868452,
  "center": {
    "lat": 53.6564712,
    "lon": 9.4745161
  },
  "nodes": [
    827193353,
    827193354,
    6340641704,
    827193355,
    2383087277,
    2383087278,
    827193356,
    827193353
  ],
  "tags": {
    "amenity": "grave_yard"
  }
},
{
  "type": "way",
  "id": 69696459,
  "center": {
    "lat": 53.9740126,
    "lon": 9.9709738
  },
  "nodes": [
    833578759,
    833578697,
    3667200672,
    3667200673,
    833578574,
    3667200674,
    3667200675,
    833578451,
    833578633,
    3667200671,
    833578759
  ],
  "tags": {
    "landuse": "cemetery"
  }
},
{
  "type": "way",
  "id": 69749797,
  "center": {
    "lat": 53.5358787,
    "lon": 9.6889497
  },
  "nodes": [
    275143905,
    834380550,
    834380401,
    834380513,
    834380519,
    308773449,
    275144210,
    275143905
  ],
  "tags": {
    "denomination": "lutheran",
    "landuse": "cemetery",
    "religion": "christian"
  }
},
{
  "type": "way",
  "id": 70528354,
  "center": {
    "lat": 53.9177180,
    "lon": 9.8754319
  },
  "nodes": [
    841661955,
    747282873,
    841662084,
    841661910,
    841661955
  ],
  "tags": {
    "landuse": "cemetery"
  }
},
{
  "type": "way",
  "id": 71213461,
  "center": {
    "lat": 53.6137325,
    "lon": 9.3123479
  },
  "nodes": [
    847712945,
    847712874,
    847712890,
    847712931,
    8722078883,
    8722078884,
    8722078885,
    847712953,
    847712881,
    847712898,
    847712942,
    847712872,
    847712888,
    847712905,
    847712945
  ],
  "tags": {
    "landuse": "cemetery",
    "name": "Friedhof Himmelpforten",
    "religion": "christian"
  }
},
{
  "type": "way",
  "id": 71830213,
  "center": {
    "lat": 53.5902662,
    "lon": 9.9265026
  },
  "nodes": [
    853607733,
    7503818929,
    6469993526,
    5190678422,
    853607385,
    10894395970,
    853607382,
    10894395971,
    853607377,
    6469979290,
    10894395968,
    6518850321,
    6518850322,
    853607736,
    365564439,
    365564428,
    7503818931,
    365564430,
    6507019359,
    6469993519,
    6469993520,
    6469993523,
    6507019356,
    6507019355,
    6469993524,
    853607733
  ],
  "tags": {
    "denomination": "lutheran",
    "landuse": "cemetery",
    "name": "Friedhof Stellingen",
    "religion": "christian"
  }
},
{
  "type": "way",
  "id": 74735652,
  "center": {
    "lat": 53.7159714,
    "lon": 9.0508783
  },
  "nodes": [
    882782225,
    882782014,
    882782244,
    882782122,
    882782225
  ],
  "tags": {
    "amenity": "grave_yard",
    "name": "Kriegsgräberstätte"
  }
},
{
  "type": "way",
  "id": 76389479,
  "center": {
    "lat": 53.0319312,
    "lon": 9.7117081
  },
  "nodes": [
    900948166,
    900948167,
    2613028211,
    900948120,
    11012806338,
    11012806337,
    900948121,
    900948122,
    900948166
  ],
  "tags": {
    "landuse": "cemetery",
    "name": "Friedhof Neuenkirchen"
  }
},
{
  "type": "way",
  "id": 76634956,
  "center": {
    "lat": 53.7921025,
    "lon": 9.3228540
  },
  "nodes": [
    903278234,
    8680155446,
    8680155445,
    903278032,
    8680155444,
    903279236,
    903278810,
    903278148,
    903279054,
    903278234
  ],
  "tags": {
    "denomination": "lutheran",
    "landuse": "cemetery",
    "name": "Alter Friedhof",
    "note": "could be inaccurately",
    "religion": "christian"
  }
},
{
  "type": "way",
  "id": 76635048,
  "center": {
    "lat": 53.7967108,
    "lon": 9.3279841
  },
  "nodes": [
    903279211,
    903277994,
    12388850609,
    903278879,
    903278217,
    12388850614,
    12388850615,
    12388850612,
    12388850611,
    12388850610,
    903279211
  ],
  "tags": {
    "denomination": "lutheran",
    "landuse": "cemetery",
    "name": "Neuer Friedhof",
    "religion": "christian"
  }
},
{
  "type": "way",
  "id": 77931476,
  "center": {
    "lat": 53.0779119,
    "lon": 9.9938704
  },
  "nodes": [
    915879218,
    915879266,
    2161577020,
    1632703987,
    9138920714,
    9138920710,
    12250481822,
    915879218
  ],
  "tags": {
    "landuse": "cemetery"
  }
},
{
  "type": "way",
  "id": 80175152,
  "center": {
    "lat": 53.3325959,
    "lon": 9.9586129
  },
  "nodes": [
    935261328,
    935261025,
    935261116,
    935260809,
    7876520450,
    7876520451,
    935260945,
    935261073,
    935260893,
    935261436,
    935261328
  ],
  "tags": {
    "landuse": "cemetery",
    "name": "Gemeindefriedhof Bendestorf"
  }
},
{
  "type": "way",
  "id": 81111124,
  "center": {
    "lat": 53.9543278,
    "lon": 9.0157652
  },
  "nodes": [
    945264209,
    7578012943,
    7578012944,
    1685832404,
    1685832401,
    1685832399,
    1685832393,
    10582801774,
    1393915606,
    1393915604,
    1393915603,
    2724986336,
    1393915605,
    1393915607,
    1393915609,
    1393915612,
    945264198,
    1393915614,
    2724986346,
    10582842550,
    1393915620,
    945264221,
    1393915621,
    1685832406,
    945264209
  ],
  "tags": {
    "landuse": "cemetery",
    "name": "Friedhof Marne",
    "wikidata": "Q135779128"
  }
},
{
  "type": "way",
  "id": 81365181,
  "center": {
    "lat": 53.6192145,
    "lon": 9.1175510
  },
  "nodes": [
    948086895,
    1114993349,
    1114992831,
    948086936,
    948086867,
    4565921231,
    1088362474,
    1114993495,
    948086910,
    1114993407,
    948086895
  ],
  "tags": {
    "amenity": "grave_yard"
  }
},
{
  "type": "way",
  "id": 82325468,
  "center": {
    "lat": 53.5236482,
    "lon": 9.6066819
  },
  "nodes": [
    958822422,
    958822376,
    958822510,
    958822409,
    958822386,
    958822443,
    958822420,
    958822422
  ],
  "tags": {
    "amenity": "grave_yard",
    "denomination": "lutheran",
    "religion": "christian"
  }
},
{
  "type": "way",
  "id": 82652499,
  "center": {
    "lat": 53.9886841,
    "lon": 9.5407182
  },
  "nodes": [
    961966297,
    961966306,
    961966377,
    961966440,
    961966258,
    961966318,
    961966409,
    961966297
  ],
  "tags": {
    "amenity": "grave_yard",
    "denomination": "lutheran",
    "name": "Neuer Friedhof Hohenaspe",
    "religion": "christian",
    "source": "survey"
  }
},
{
  "type": "way",
  "id": 82720260,
  "center": {
    "lat": 53.9895875,
    "lon": 9.5294456
  },
  "nodes": [
    963189632,
    963511385,
    963189711,
    963189544,
    963189741,
    963189575,
    963189535,
    1103662424,
    1103662328,
    963189469,
    963189674,
    963189632
  ],
  "tags": {
    "denomination": "lutheran",
    "landuse": "cemetery",
    "name": "Friedhof Hohenaspe",
    "religion": "christian",
    "source": "Bing"
  }
},
{
  "type": "way",
  "id": 83942250,
  "center": {
    "lat": 53.9501403,
    "lon": 9.7222724
  },
  "nodes": [
    976942855,
    976942871,
    976942823,
    976942853,
    976942803,
    976942827,
    976942801,
    976942838,
    976942799,
    976942829,
    976942855
  ],
  "tags": {
    "denomination": "lutheran",
    "landuse": "cemetery",
    "name": "Südfriedhof",
    "religion": "christian"
  }
},
{
  "type": "way",
  "id": 85271102,
  "center": {
    "lat": 53.9590985,
    "lon": 9.7234015
  },
  "nodes": [
    383861723,
    988792205,
    321192719,
    1012730668,
    988754444,
    1012730688,
    383861720,
    1981718709,
    2056163553,
    2056163542,
    2056163539,
    988754494,
    383861723
  ],
  "tags": {
    "denomination": "lutheran",
    "landuse": "cemetery",
    "name": "Nordfriedhof",
    "religion": "christian"
  }
},
{
  "type": "way",
  "id": 87435756,
  "center": {
    "lat": 53.0718813,
    "lon": 9.3538202
  },
  "nodes": [
    1016694382,
    1016694407,
    1016694499,
    1016694127,
    1016694382
  ],
  "tags": {
    "amenity": "grave_yard",
    "denomination": "lutheran",
    "religion": "christian"
  }
},
{
  "type": "way",
  "id": 87438027,
  "center": {
    "lat": 53.1159933,
    "lon": 9.2375253
  },
  "nodes": [
    1016720499,
    3034981187,
    3034981183,
    3034981185,
    3034981189,
    3034981192,
    1016720438,
    1016720328,
    9282524033,
    1016720298,
    9282524032,
    1016720499
  ],
  "tags": {
    "denomination": "protestant",
    "landuse": "cemetery",
    "religion": "christian"
  }
},
{
  "type": "way",
  "id": 88133040,
  "center": {
    "lat": 53.6901375,
    "lon": 9.1507843
  },
  "nodes": [
    1024073230,
    6847161832,
    1024073287,
    1024073282,
    1024073237,
    1024073290,
    1024073249,
    1024073243,
    1024073232,
    1024073230
  ],
  "tags": {
    "landuse": "cemetery",
    "name": "Friedhof Warstade",
    "wikidata": "Q110575536"
  }
},
{
  "type": "way",
  "id": 88318231,
  "center": {
    "lat": 53.4844062,
    "lon": 9.0503234
  },
  "nodes": [
    1025863138,
    8615306187,
    8615306190,
    8615306189,
    8615306188,
    9825587146,
    1025863116,
    1025863127,
    1025863121,
    1025863138
  ],
  "tags": {
    "landuse": "cemetery",
    "source": "Bing"
  }
},
{
  "type": "way",
  "id": 88588000,
  "center": {
    "lat": 53.6396071,
    "lon": 9.2807227
  },
  "nodes": [
    1028754706,
    1028754419,
    1028754624,
    1028754548,
    1028754706
  ],
  "tags": {
    "denomination": "lutheran",
    "landuse": "cemetery",
    "name": "Friedhof Horst-Burweg",
    "religion": "christian"
  }
},
{
  "type": "way",
  "id": 88720418,
  "center": {
    "lat": 53.5917187,
    "lon": 9.3595363
  },
  "nodes": [
    1029880360,
    1029880151,
    1029880461,
    1029880581,
    1029880360
  ],
  "tags": {
    "landuse": "cemetery",
    "name": "Friedhof"
  }
},
{
  "type": "way",
  "id": 88724380,
  "center": {
    "lat": 53.6902964,
    "lon": 9.1170266
  },
  "nodes": [
    1029928044,
    1029928104,
    1029927774,
    1029929448,
    1029929159,
    1029928142,
    1029928044
  ],
  "tags": {
    "landuse": "cemetery"
  }
},
{
  "type": "way",
  "id": 88724391,
  "center": {
    "lat": 53.6594303,
    "lon": 9.1216295
  },
  "nodes": [
    1029929132,
    1029928012,
    3956191542,
    3956191541,
    1029929594,
    1029928601,
    1029929132
  ],
  "tags": {
    "landuse": "cemetery"
  }
},
{
  "type": "way",
  "id": 89019450,
  "center": {
    "lat": 53.5742089,
    "lon": 9.3204959
  },
  "nodes": [
    1033038299,
    1033038344,
    1033038288,
    6256148137,
    6256148136,
    1033038378,
    10007417199,
    10007417200,
    1033038299
  ],
  "tags": {
    "landuse": "cemetery"
  }
},
{
  "type": "way",
  "id": 89062325,
  "center": {
    "lat": 53.5414287,
    "lon": 9.3191344
  },
  "nodes": [
    1033389344,
    1033389385,
    1033389405,
    1033389336,
    1033389350,
    1033389344
  ],
  "tags": {
    "landuse": "cemetery"
  }
},
{
  "type": "way",
  "id": 89068081,
  "center": {
    "lat": 53.7147172,
    "lon": 9.0268012
  },
  "nodes": [
    1033443686,
    1033443853,
    1033443645,
    1033443701,
    9466601731,
    9466601730,
    1033443686
  ],
  "tags": {
    "landuse": "cemetery"
  }
},
{
  "type": "way",
  "id": 89150885,
  "center": {
    "lat": 53.7300265,
    "lon": 9.0323911
  },
  "nodes": [
    1034097791,
    1034098228,
    1034098013,
    1034097825,
    1034097791
  ],
  "tags": {
    "landuse": "cemetery",
    "name": "Friedhof Westerhamm"
  }
},
{
  "type": "way",
  "id": 89173638,
  "center": {
    "lat": 53.6787410,
    "lon": 9.2564125
  },
  "nodes": [
    1034385975,
    1034386359,
    1034385817,
    1034386334,
    1034386062,
    1034386243,
    1034385975
  ],
  "tags": {
    "landuse": "cemetery",
    "religion": "christian"
  }
},
{
  "type": "way",
  "id": 89216399,
  "center": {
    "lat": 53.0621251,
    "lon": 9.0268292
  },
  "nodes": [
    1035498087,
    1057079171,
    1057078898,
    3541807305,
    1035498177,
    1035498117,
    1057078795,
    1057078838,
    1057079179,
    1057079184,
    1035498087
  ],
  "tags": {
    "landuse": "cemetery",
    "name": "Friedhof Bockhorster Weg/Hauptstraße",
    "operator": "Gemeinde Oyten",
    "operator:type": "public",
    "religion": "none"
  }
},
{
  "type": "way",
  "id": 89221840,
  "center": {
    "lat": 53.7106864,
    "lon": 9.2760090
  },
  "nodes": [
    1035575058,
    1035575452,
    9340027799,
    1035575087,
    1035575477,
    1035575275,
    1035575058
  ],
  "tags": {
    "landuse": "cemetery"
  }
},
{
  "type": "way",
  "id": 89233315,
  "center": {
    "lat": 53.7158393,
    "lon": 9.0730437
  },
  "nodes": [
    1035633255,
    3930226866,
    1035633828,
    3930226910,
    1035633327,
    1035633492,
    1035633255
  ],
  "tags": {
    "landuse": "cemetery"
  }
},
{
  "type": "way",
  "id": 89396075,
  "center": {
    "lat": 53.4681073,
    "lon": 9.2040644
  },
  "nodes": [
    1036918329,
    1036918354,
    1036918323,
    1036918379,
    1036918289,
    1036918296,
    1027785634,
    9577604155,
    1036918281,
    1036918329
  ],
  "tags": {
    "denomination": "lutheran",
    "landuse": "cemetery",
    "name": "Friedhof Hesedorf",
    "religion": "christian",
    "source": "Bing"
  }
},
{
  "type": "way",
  "id": 89453827,
  "center": {
    "lat": 53.7256023,
    "lon": 9.0885473
  },
  "nodes": [
    1037446735,
    1037446353,
    1037446520,
    1037446658,
    1037446735
  ],
  "tags": {
    "landuse": "cemetery"
  }
},
{
  "type": "way",
  "id": 89554887,
  "center": {
    "lat": 53.4839061,
    "lon": 9.1618308
  },
  "nodes": [
    259179405,
    1030445367,
    451705823,
    1030445372,
    32626717,
    9044255852,
    1030445359,
    1038145340,
    1030445373,
    1027785531,
    259179405
  ],
  "tags": {
    "landuse": "cemetery",
    "name": "Hohe Worth"
  }
},
{
  "type": "way",
  "id": 89561221,
  "center": {
    "lat": 53.5289313,
    "lon": 9.6773160
  },
  "nodes": [
    356679064,
    2916601224,
    5219962356,
    2916601222,
    275253253,
    5219955409,
    5219955407,
    5219962324,
    1038195597,
    356679061,
    5219955408,
    356679064
  ],
  "tags": {
    "landuse": "cemetery",
    "religion": "christian"
  }
},
{
  "type": "way",
  "id": 89568849,
  "center": {
    "lat": 53.7178811,
    "lon": 9.5972864
  },
  "nodes": [
    1037718588,
    268522083,
    268522084,
    1037718260,
    268522085,
    430281856,
    4349535671,
    421271130,
    1037718304,
    1037718662,
    4350303512,
    1037718256,
    1037718609,
    1038265396,
    1037718588
  ],
  "tags": {
    "amenity": "grave_yard",
    "religion": "christian"
  }
},
{
  "type": "way",
  "id": 89973818,
  "center": {
    "lat": 53.7578090,
    "lon": 9.0837728
  },
  "nodes": [
    1042934556,
    1042909503,
    1042909183,
    1042934845,
    1042934530,
    1042934556
  ],
  "tags": {
    "landuse": "cemetery"
  }
},
{
  "type": "way",
  "id": 90843544,
  "center": {
    "lat": 53.9980046,
    "lon": 9.2655571
  },
  "nodes": [
    1054708846,
    1054708847,
    3541854711,
    1054708848,
    1054708849,
    3541853584,
    1054708850,
    3541853577,
    1054708852,
    3541853580,
    1054708866,
    3541853586,
    1054708870,
    1054708873,
    3490157973,
    1054708876,
    3490157974,
    1054708846
  ],
  "tags": {
    "landuse": "cemetery",
    "name": "Alter Friedhof",
    "source": "Bing",
    "wikimedia_commons": "File:Alter Friedhof in der Bökelnburg.jpg"
  }
},
{
  "type": "way",
  "id": 90885783,
  "center": {
    "lat": 53.0278112,
    "lon": 9.8477786
  },
  "nodes": [
    8738673183,
    8738673184,
    8738673185,
    1055362873,
    8738673183
  ],
  "tags": {
    "denomination": "lutheran",
    "landuse": "cemetery",
    "name": "Friedhof Wolterdingen",
    "operator": "Heilig-Geist Kirchengemeinde Wolterdingen",
    "religion": "christian",
    "website": "https://kirche-wolterdingen.wir-e.de/friedhof"
  }
},
{
  "type": "way",
  "id": 93244083,
  "center": {
    "lat": 53.6497911,
    "lon": 9.0427649
  },
  "nodes": [
    1080823563,
    1080823602,
    1080823596,
    1080823583,
    3894808423,
    1080823560,
    3894808437,
    3894808453,
    1080823563
  ],
  "tags": {
    "landuse": "cemetery"
  }
},
{
  "type": "way",
  "id": 93574117,
  "center": {
    "lat": 53.5175520,
    "lon": 9.2134080
  },
  "nodes": [
    3090322079,
    1085352863,
    1085352860,
    1085352874,
    3090322080,
    3090322079
  ],
  "tags": {
    "landuse": "cemetery",
    "religion": "christian"
  }
},
{
  "type": "way",
  "id": 94692050,
  "center": {
    "lat": 53.8020926,
    "lon": 9.2369939
  },
  "nodes": [
    1099361434,
    1099361430,
    1099361438,
    1099361409,
    1099361434
  ],
  "tags": {
    "landuse": "cemetery"
  }
},
{
  "type": "way",
  "id": 94798556,
  "center": {
    "lat": 53.5214045,
    "lon": 9.0521296
  },
  "nodes": [
    1100509568,
    1100509520,
    4458441388,
    4458441384,
    1100509548,
    1798338852,
    1798338867,
    1100509568
  ],
  "tags": {
    "amenity": "grave_yard",
    "religion": "christian",
    "source": "Bing"
  }
},
{
  "type": "way",
  "id": 94871505,
  "center": {
    "lat": 53.7971112,
    "lon": 9.0733048
  },
  "nodes": [
    1101548536,
    1101548553,
    8607387392,
    1101534540,
    1101548546,
    1101548551,
    1101548536
  ],
  "tags": {
    "landuse": "cemetery"
  }
},
{
  "type": "way",
  "id": 95094550,
  "center": {
    "lat": 53.6762025,
    "lon": 9.0560866
  },
  "nodes": [
    1103211377,
    1103211030,
    1103210666,
    1103211026,
    1103211300,
    1103211377
  ],
  "tags": {
    "landuse": "cemetery"
  }
},
{
  "type": "way",
  "id": 95314296,
  "center": {
    "lat": 53.3647300,
    "lon": 9.7144362
  },
  "nodes": [
    1105569514,
    1105569516,
    1105569520,
    1105569527,
    3221140393,
    1105569514
  ],
  "tags": {
    "amenity": "grave_yard",
    "landuse": "cemetery",
    "name": "Friedhof Hollenstedt",
    "religion": "christian"
  }
},
{
  "type": "way",
  "id": 96035783,
  "center": {
    "lat": 53.4950350,
    "lon": 9.0846510
  },
  "nodes": [
    1112705253,
    1112705245,
    1112705168,
    1112705191,
    1112705253
  ],
  "tags": {
    "landuse": "cemetery",
    "name": "Friedhof Glinde"
  }
},
{
  "type": "way",
  "id": 96203409,
  "center": {
    "lat": 53.5722092,
    "lon": 9.0123079
  },
  "nodes": [
    1115101705,
    1115100783,
    1115101816,
    1115101455,
    1115101705
  ],
  "tags": {
    "amenity": "grave_yard"
  }
},
{
  "type": "way",
  "id": 96715535,
  "center": {
    "lat": 53.8621867,
    "lon": 9.3299827
  },
  "nodes": [
    1120033486,
    1120034066,
    3742513457,
    3742513452,
    3742513444,
    3742513447,
    3742513442,
    3742513441,
    1120033814,
    1120033566,
    1120033486
  ],
  "tags": {
    "landuse": "cemetery"
  }
},
{
  "type": "way",
  "id": 96808444,
  "center": {
    "lat": 53.4565511,
    "lon": 9.1177689
  },
  "nodes": [
    1121627476,
    1121627447,
    1121627495,
    1121627523,
    1121627476
  ],
  "tags": {
    "landuse": "cemetery",
    "source": "Bing, knowledge"
  }
},
{
  "type": "way",
  "id": 97219849,
  "center": {
    "lat": 53.4744778,
    "lon": 9.1360177
  },
  "nodes": [
    1126193031,
    1126193019,
    1126193041,
    1126193038,
    1126193042,
    1126193031
  ],
  "tags": {
    "landuse": "cemetery",
    "name": "Friedhof Engeo"
  }
},
{
  "type": "way",
  "id": 97354193,
  "center": {
    "lat": 53.7686623,
    "lon": 9.0605716
  },
  "nodes": [
    1127655651,
    11843481798,
    11843481799,
    1127655577,
    12334559022,
    12334559025,
    11843481789,
    11843481788,
    1127655633,
    1127655501,
    401575060,
    401575058,
    1127655635,
    1127655651
  ],
  "tags": {
    "landuse": "cemetery"
  }
},
{
  "type": "way",
  "id": 98267464,
  "center": {
    "lat": 53.3163578,
    "lon": 9.3447621
  },
  "nodes": [
    1137051465,
    1137051522,
    1152570168,
    1137051411,
    1152570191,
    1137051441,
    1152048334,
    1137051484,
    1137051465
  ],
  "tags": {
    "landuse": "cemetery"
  }
},
{
  "type": "way",
  "id": 98312182,
  "center": {
    "lat": 53.5953973,
    "lon": 9.0980257
  },
  "nodes": [
    1137510197,
    4582917079,
    1137510155,
    4582917087,
    4582917085,
    4582917084,
    4582917086,
    1137509992,
    1137510213,
    4582917044,
    1137510103,
    10606642647,
    4582917082,
    4582917080,
    4582917081,
    4582917083,
    10606642650,
    1137510197
  ],
  "tags": {
    "landuse": "cemetery"
  }
},
{
  "type": "way",
  "id": 98441260,
  "center": {
    "lat": 53.6873315,
    "lon": 9.0780544
  },
  "nodes": [
    1139019605,
    1139020031,
    1139018290,
    3941770541,
    1139020717,
    1139019217,
    1139024450,
    1139019605
  ],
  "tags": {
    "amenity": "grave_yard"
  }
},
{
  "type": "way",
  "id": 98593587,
  "center": {
    "lat": 53.1523478,
    "lon": 9.3564160
  },
  "nodes": [
    1140672140,
    1140672139,
    1140672131,
    1140672134,
    1140672140
  ],
  "tags": {
    "landuse": "cemetery",
    "name": "Friedhof Borchel"
  }
},
{
  "type": "way",
  "id": 99359542,
  "center": {
    "lat": 53.0223938,
    "lon": 9.1011732
  },
  "nodes": [
    1149236122,
    2544291873,
    6444090262,
    11860327309,
    1149235455,
    1149235343,
    11860327298,
    1149235228,
    11860327307,
    11860327308,
    11860327291,
    2544291874,
    1149236122
  ],
  "tags": {
    "landuse": "cemetery",
    "name": "Friedhof Badenermoor",
    "operator": "Stadt Achim",
    "religion": "none"
  }
},
{
  "type": "way",
  "id": 99360497,
  "center": {
    "lat": 53.0007095,
    "lon": 9.0916978
  },
  "nodes": [
    1149249276,
    1557275510,
    1149249035,
    1907667132,
    1149248956,
    12055260769,
    12055260770,
    1149248912,
    8149091798,
    8149091799,
    1149248932,
    1149249358,
    1149249299,
    1149249206,
    1149249328,
    3502605527,
    1149249276
  ],
  "tags": {
    "landuse": "cemetery",
    "name": "Friedhof Baden",
    "operator": "Stadt Achim",
    "religion": "none"
  }
},
{
  "type": "way",
  "id": 99856599,
  "center": {
    "lat": 53.3157241,
    "lon": 9.3404960
  },
  "nodes": [
    1154356661,
    1154356628,
    1154356674,
    1154356675,
    1154356662,
    1154356646,
    1154356631,
    1154356672,
    1154356661
  ],
  "tags": {
    "amenity": "grave_yard"
  }
},
{
  "type": "way",
  "id": 102204885,
  "center": {
    "lat": 53.3048021,
    "lon": 9.9437894
  },
  "nodes": [
    1179511828,
    1179511853,
    1179511800,
    705992789,
    26734857,
    705992830,
    705992815,
    1179511828
  ],
  "tags": {
    "landuse": "cemetery",
    "name": "Neuer Friedhof"
  }
},
{
  "type": "way",
  "id": 102596861,
  "center": {
    "lat": 53.4374902,
    "lon": 9.9820736
  },
  "nodes": [
    1184787791,
    1184787725,
    1184787837,
    1184787780,
    1184787738,
    1184787847,
    1184787791
  ],
  "tags": {
    "denomination": "lutheran",
    "landuse": "cemetery",
    "name": "Friedhof Wilstorf",
    "religion": "christian"
  }
},
{
  "type": "way",
  "id": 102621814,
  "center": {
    "lat": 53.4700573,
    "lon": 9.8423026
  },
  "nodes": [
    1185074183,
    1185074159,
    1185074151,
    7334889704,
    1185074180,
    1185074141,
    1185074121,
    1185074177,
    1185074183
  ],
  "tags": {
    "landuse": "cemetery",
    "name": "Friedhof Fischbek"
  }
},
{
  "type": "way",
  "id": 102628128,
  "center": {
    "lat": 53.1075332,
    "lon": 9.3125258
  },
  "nodes": [
    1185186809,
    1185186789,
    1185186811,
    1185186815,
    1185186830,
    1185186833,
    1185186837,
    1185186805,
    1185186814,
    1185186809
  ],
  "tags": {
    "amenity": "grave_yard",
    "denomination": "lutheran",
    "name": "Friedhof Waffensen",
    "religion": "christian"
  }
},
{
  "type": "way",
  "id": 102632049,
  "center": {
    "lat": 53.4772586,
    "lon": 9.8675281
  },
  "nodes": [
    1185260488,
    1185260485,
    12878863229,
    1185260475,
    1185260479,
    289298978,
    1185260488
  ],
  "tags": {
    "landuse": "cemetery",
    "name": "Alter Neugrabener Friedhof"
  }
},
{
  "type": "way",
  "id": 102713949,
  "center": {
    "lat": 53.5266724,
    "lon": 9.8655703
  },
  "nodes": [
    1186299091,
    1186299067,
    1186299100,
    1186299116,
    1186299093,
    2469335769,
    1186299113,
    1186299084,
    1186299071,
    5957305471,
    1186299102,
    1186299117,
    1186299091
  ],
  "tags": {
    "denomination": "lutheran",
    "landuse": "cemetery",
    "name": "Lüneburger Friedhof",
    "religion": "christian"
  }
},
{
  "type": "way",
  "id": 102713950,
  "center": {
    "lat": 53.4642358,
    "lon": 9.9736538
  },
  "nodes": [
    1833923888,
    1393490952,
    1749961218,
    1186299086,
    1749961217,
    245564654,
    1833923880,
    1833923883,
    1833923888
  ],
  "tags": {
    "barrier": "fence",
    "landuse": "cemetery",
    "name": "Jüdischer Friedhof Harburg",
    "name:en": "Jewish Cemetery in Hamburg-Harburg",
    "religion": "jewish",
    "start_date": "C17",
    "url": "http://grabsteine.genealogy.net/namelist.php?cem=671",
    "wikidata": "Q1716682",
    "wikimedia_commons": "Category:Jüdischer Friedhof (Hamburg-Harburg)",
    "wikipedia": "de:Jüdischer Friedhof Harburg"
  }
},
{
  "type": "way",
  "id": 103484010,
  "center": {
    "lat": 53.7510678,
    "lon": 9.1443370
  },
  "nodes": [
    1194803333,
    1194803331,
    1194803329,
    1194803327,
    1194803326,
    1194803328,
    1194803333
  ],
  "tags": {
    "landuse": "cemetery"
  }
},
{
  "type": "way",
  "id": 105505354,
  "center": {
    "lat": 53.2963931,
    "lon": 9.2855629
  },
  "nodes": [
    1215092271,
    1215092285,
    1215092245,
    1215092429,
    1215092408,
    1215092271
  ],
  "tags": {
    "amenity": "grave_yard",
    "barrier": "wall",
    "name": "Jüdischer Friedhof",
    "religion": "jewish",
    "wikipedia": "de:Jüdischer Friedhof (Zeven)"
  }
},
{
  "type": "way",
  "id": 109890860,
  "center": {
    "lat": 53.5966377,
    "lon": 9.0657995
  },
  "nodes": [
    1256919334,
    1256919253,
    1256919314,
    1256919239,
    1256919334
  ],
  "tags": {
    "amenity": "grave_yard",
    "name": "Friedhof Armstorf"
  }
},
{
  "type": "way",
  "id": 113964436,
  "center": {
    "lat": 53.2088541,
    "lon": 9.1509114
  },
  "nodes": [
    1291577266,
    1291577247,
    1291577264,
    1291577250,
    1291577263,
    1291577266
  ],
  "tags": {
    "landuse": "cemetery"
  }
},
{
  "type": "way",
  "id": 114651050,
  "center": {
    "lat": 53.5693803,
    "lon": 9.1764323
  },
  "nodes": [
    1298187863,
    1298187891,
    1298187888,
    1298187874,
    1298187862,
    1298187870,
    1298187865,
    1298187863
  ],
  "tags": {
    "landuse": "cemetery",
    "name": "Friedhof"
  }
},
{
  "type": "way",
  "id": 114923557,
  "center": {
    "lat": 53.7607789,
    "lon": 9.6976630
  },
  "nodes": [
    1300461489,
    1300461493,
    1300461479,
    1300461478,
    1300461485,
    9253977057,
    1300461490,
    9253977058,
    1300461484,
    1300461491,
    1300461492,
    1300461477,
    1300461482,
    3439811529,
    1300461481,
    1300461487,
    1421783815,
    4582773737,
    10010739247,
    10010739248,
    10010739249,
    3439811542,
    1300461486,
    3439811555,
    1300461489
  ],
  "tags": {
    "landuse": "cemetery",
    "name": "Friedhof der Stadt Elmshorn",
    "operator": "Stadt Elmshorn",
    "start_date": "1969"
  }
},
{
  "type": "way",
  "id": 115511459,
  "center": {
    "lat": 53.7576110,
    "lon": 9.6542220
  },
  "nodes": [
    1304831626,
    1304831667,
    1304831699,
    1304831621,
    1304831626
  ],
  "tags": {
    "denomination": "ashkenazi",
    "historic": "yes",
    "landuse": "cemetery",
    "name": "Jüdischer Friedhof",
    "religion": "jewish",
    "website": "https://gedenkstaetten-sh.de/gedenkstaetten/juedische-friedhofshalle-17",
    "wikidata": "Q1351199"
  }
},
{
  "type": "way",
  "id": 116874339,
  "center": {
    "lat": 53.4060279,
    "lon": 9.2218977
  },
  "nodes": [
    1316560267,
    1316560258,
    1316560254,
    1316560256,
    1316560266,
    1316560263,
    1316560267
  ],
  "tags": {
    "landuse": "cemetery",
    "name": "Friedhof"
  }
},
{
  "type": "way",
  "id": 117392665,
  "center": {
    "lat": 53.2192332,
    "lon": 9.3080267
  },
  "nodes": [
    1322377652,
    1322377485,
    1322377697,
    1322377532,
    1322377652
  ],
  "tags": {
    "landuse": "cemetery"
  }
},
{
  "type": "way",
  "id": 117518284,
  "center": {
    "lat": 53.0093745,
    "lon": 9.5183112
  },
  "nodes": [
    1898079666,
    1323813808,
    1898415292,
    1224514044,
    1735414302,
    1898079666
  ],
  "tags": {
    "amenity": "grave_yard"
  }
},
{
  "type": "way",
  "id": 118596636,
  "center": {
    "lat": 53.9801884,
    "lon": 9.1161988
  },
  "nodes": [
    1289344089,
    2426555068,
    11684163057,
    965181774,
    4437349068,
    1738064880,
    1378584820,
    4437349061,
    4437349057,
    1380863456,
    1380863454,
    1333597794,
    4437349051,
    4437349045,
    4437349042,
    4437349048,
    4437349043,
    1289344089
  ],
  "tags": {
    "landuse": "cemetery",
    "religion": "christian"
  }
},
{
  "type": "way",
  "id": 120129790,
  "center": {
    "lat": 53.4844921,
    "lon": 9.5738645
  },
  "nodes": [
    1347675273,
    1347675271,
    1347675268,
    1347675269,
    2291572919,
    1347675273
  ],
  "tags": {
    "landuse": "cemetery"
  }
},
{
  "type": "way",
  "id": 120136820,
  "center": {
    "lat": 53.9037439,
    "lon": 9.1422908
  },
  "nodes": [
    3705436491,
    1347741212,
    6467578908,
    5367575269,
    5367575268,
    2917687022,
    1347741208,
    1347741207,
    1347741214,
    1347741206,
    3705436494,
    3705436493,
    3705436491
  ],
  "tags": {
    "landuse": "cemetery",
    "name": "Paulusfriedhof"
  }
},
{
  "type": "way",
  "id": 120291292,
  "center": {
    "lat": 53.9262382,
    "lon": 9.6322285
  },
  "nodes": [
    1349122616,
    1349122619,
    3586322836,
    1349122622,
    1349122625,
    1349122616
  ],
  "tags": {
    "landuse": "cemetery",
    "religion": "christian"
  }
},
{
  "type": "way",
  "id": 120880753,
  "center": {
    "lat": 53.1278729,
    "lon": 9.2074254
  },
  "nodes": [
    1340701891,
    1340701885,
    1354380757,
    1340701873,
    1340701886,
    1340701891
  ],
  "tags": {
    "landuse": "cemetery",
    "name": "Friedhof Reeßum"
  }
},
{
  "type": "way",
  "id": 122000812,
  "center": {
    "lat": 53.7337355,
    "lon": 9.8963039
  },
  "nodes": [
    1364262994,
    1364262990,
    1364262996,
    5718553302,
    1364262998,
    1364262994
  ],
  "tags": {
    "amenity": "grave_yard",
    "name": "Alter Friedhof"
  }
},
{
  "type": "way",
  "id": 122397876,
  "center": {
    "lat": 54.0010338,
    "lon": 9.2642001
  },
  "nodes": [
    1367882520,
    1367882549,
    1367882527,
    1367882493,
    1367882528,
    1367882517,
    1367882518,
    1367882516,
    2267284345,
    3541854733,
    2271434583,
    1367882514,
    1367882495,
    1367882520
  ],
  "tags": {
    "landuse": "cemetery"
  }
},
{
  "type": "way",
  "id": 124514561,
  "center": {
    "lat": 53.8928818,
    "lon": 9.1025033
  },
  "nodes": [
    1385809285,
    1385809286,
    1385809289,
    1385809290,
    1385809285
  ],
  "tags": {
    "heritage": "4",
    "heritage:operator": "lfd",
    "landuse": "cemetery",
    "lfd:criteria": "Ensemble",
    "name": "Jakobusfriedhof",
    "ref:lfd": "27363",
    "source": "Bing",
    "wikidata": "Q58393699"
  }
},
{
  "type": "way",
  "id": 124728923,
  "center": {
    "lat": 53.2941917,
    "lon": 9.9835514
  },
  "nodes": [
    1387395613,
    1387395614,
    1387395612,
    1387395599,
    1387395610,
    1387395607,
    1387395601,
    1197146950,
    3012790703,
    1387395592,
    1387395615,
    3012790711,
    1387395580,
    1387395613
  ],
  "tags": {
    "landuse": "cemetery",
    "name": "Friedhof Asendorf"
  }
},
{
  "type": "way",
  "id": 126129229,
  "center": {
    "lat": 53.0875320,
    "lon": 9.8715382
  },
  "nodes": [
    1399071029,
    1399071026,
    1330141342,
    2916658778,
    1399071027,
    1399071029
  ],
  "tags": {
    "amenity": "grave_yard"
  }
},
{
  "type": "way",
  "id": 127031968,
  "center": {
    "lat": 53.1628225,
    "lon": 9.4781359
  },
  "nodes": [
    351905675,
    269758183,
    8128301769,
    1406823070,
    1406823035,
    1406823053,
    1406823059,
    351905675
  ],
  "tags": {
    "landuse": "cemetery",
    "source": "Bing Luftbilder"
  }
},
{
  "type": "way",
  "id": 127221694,
  "center": {
    "lat": 53.6021664,
    "lon": 9.2051265
  },
  "nodes": [
    1408691493,
    1408691397,
    1408691665,
    1408691163,
    1408691493
  ],
  "tags": {
    "landuse": "cemetery"
  }
},
{
  "type": "way",
  "id": 127226041,
  "center": {
    "lat": 53.5828732,
    "lon": 9.2097400
  },
  "nodes": [
    1408741051,
    1408741093,
    1408741013,
    1408741113,
    1408741051
  ],
  "tags": {
    "landuse": "cemetery"
  }
},
{
  "type": "way",
  "id": 127326793,
  "center": {
    "lat": 53.6165414,
    "lon": 9.2495365
  },
  "nodes": [
    1409708553,
    1409708255,
    1409708316,
    1409708308,
    1409708553
  ],
  "tags": {
    "landuse": "cemetery"
  }
},
{
  "type": "way",
  "id": 127886872,
  "center": {
    "lat": 53.4514202,
    "lon": 9.7311195
  },
  "nodes": [
    1414489584,
    1414489589,
    1414489587,
    1414489591,
    1414489584
  ],
  "tags": {
    "landuse": "cemetery"
  }
},
{
  "type": "way",
  "id": 134200443,
  "center": {
    "lat": 53.0075142,
    "lon": 9.0390533
  },
  "nodes": [
    1476066060,
    1476066275,
    1476066277,
    1476066065,
    1476066111,
    1476066134,
    3405052746,
    1476066212,
    3405052163,
    1476066059,
    1476066271,
    1476066227,
    3405052178,
    3405052164,
    1476066159,
    1476066072,
    1476066060
  ],
  "tags": {
    "denomination": "lutheran",
    "landuse": "cemetery",
    "name": "Friedhof Achim",
    "operator": "Ev.-luth. Kirchengemeinde Achim",
    "religion": "christian"
  }
},
{
  "type": "way",
  "id": 136840764,
  "center": {
    "lat": 53.8288737,
    "lon": 9.1292215
  },
  "nodes": [
    1501215647,
    1502919762,
    1501215640,
    1501215566,
    1501215573,
    1501215580,
    1501215647
  ],
  "tags": {
    "landuse": "cemetery"
  }
},
{
  "type": "way",
  "id": 137436704,
  "center": {
    "lat": 53.8302064,
    "lon": 9.2095506
  },
  "nodes": [
    1507629639,
    1508524038,
    1507629646,
    1508524076,
    1508524074,
    1508524073,
    1507629645,
    1507629629,
    1507629639
  ],
  "tags": {
    "landuse": "cemetery"
  }
},
{
  "type": "way",
  "id": 139274891,
  "center": {
    "lat": 53.5496898,
    "lon": 9.9201834
  },
  "nodes": [
    93312079,
    7259082943,
    322918298,
    872143901,
    93312080,
    872143585,
    7259082952,
    7162230381,
    7261842542,
    7261842547,
    872143978,
    872143305,
    93312081,
    1580991430,
    322918294,
    322918292,
    322918290,
    7259082940,
    93312083,
    7259082941,
    7259082942,
    93312079
  ],
  "tags": {
    "barrier": "fence",
    "check_date": "2024-03-13",
    "denomination": "lutheran",
    "landuse": "cemetery",
    "name": "Friedhof Bernadottestraße",
    "religion": "christian",
    "start_date": "1860"
  }
},
{
  "type": "way",
  "id": 144233689,
  "center": {
    "lat": 53.8489301,
    "lon": 9.7101824
  },
  "nodes": [
    1578132176,
    1578132194,
    1578132185,
    3742677549,
    1578132173,
    1578132165,
    1578132179,
    3742677595,
    1578132187,
    1578132171,
    1578132182,
    1578132176
  ],
  "tags": {
    "landuse": "cemetery"
  }
},
{
  "type": "way",
  "id": 144342682,
  "center": {
    "lat": 53.6429507,
    "lon": 9.5773368
  },
  "nodes": [
    1578862209,
    6584853098,
    1578862210,
    1578862212,
    1578862211,
    1578862209
  ],
  "tags": {
    "landuse": "cemetery"
  }
},
{
  "type": "way",
  "id": 144931717,
  "center": {
    "lat": 53.2026654,
    "lon": 9.5549494
  },
  "nodes": [
    1584088034,
    8286911743,
    1584088035,
    2289745994,
    1584088021,
    1584088019,
    1584088034
  ],
  "tags": {
    "landuse": "cemetery"
  }
},
{
  "type": "way",
  "id": 144986666,
  "center": {
    "lat": 53.1004841,
    "lon": 9.6762157
  },
  "nodes": [
    1584593850,
    1584593861,
    3578365532,
    3578364947,
    1584593865,
    1584593866,
    1584593850
  ],
  "tags": {
    "amenity": "grave_yard"
  }
},
{
  "type": "way",
  "id": 147604612,
  "center": {
    "lat": 53.4368580,
    "lon": 9.9022152
  },
  "nodes": [
    1608041514,
    8087591979,
    1608041512,
    8087591978,
    8087591977,
    1608041520,
    1608041521,
    2914227850,
    1608041508,
    1608041510,
    1608041514
  ],
  "tags": {
    "landuse": "cemetery",
    "name": "Friedhof zu Vahrendorf"
  }
},
{
  "type": "way",
  "id": 148214232,
  "center": {
    "lat": 53.2960102,
    "lon": 9.3867555
  },
  "nodes": [
    1613175845,
    1613175849,
    1613175880,
    5846173983,
    1613175868,
    1613175866,
    1613175845
  ],
  "tags": {
    "amenity": "grave_yard",
    "name": "Friedhof Weertzen-Freyersen"
  }
},
{
  "type": "way",
  "id": 148710235,
  "center": {
    "lat": 53.6556391,
    "lon": 9.6708721
  },
  "nodes": [
    208021061,
    5497084044,
    1617835021,
    11694073652,
    4622442838,
    1617835018,
    3037415375,
    5497082546,
    10753764807,
    10753764806,
    10753764805,
    10753763604,
    1617835011,
    208021061
  ],
  "tags": {
    "landuse": "cemetery",
    "name": "Friedhof Heist"
  }
},
{
  "type": "way",
  "id": 148894727,
  "center": {
    "lat": 53.6155989,
    "lon": 9.9497736
  },
  "nodes": [
    223293081,
    667355532,
    6419601704,
    1460118338,
    1460118341,
    1460118342,
    6419601703,
    6419601702,
    1460118343,
    223293083,
    223293084,
    6419601701,
    602651570,
    652699309,
    223293085,
    602651571,
    602651572,
    223293087,
    654155391,
    654155387,
    6419601845,
    6419601843,
    410204607,
    6419597545,
    3730405564,
    3730405563,
    410204610,
    3730405561,
    3730405560,
    223293081
  ],
  "tags": {
    "denomination": "lutheran",
    "landuse": "cemetery",
    "name": "Alter Niendorfer Friedhof",
    "religion": "christian",
    "wikidata": "Q438118",
    "wikipedia": "de:Alter Niendorfer Friedhof"
  }
},
{
  "type": "way",
  "id": 149162002,
  "center": {
    "lat": 53.6355512,
    "lon": 9.3762774
  },
  "nodes": [
    1621782559,
    1621782488,
    1621782284,
    1621782456,
    1621782559
  ],
  "tags": {
    "landuse": "cemetery"
  }
},
{
  "type": "way",
  "id": 151516617,
  "center": {
    "lat": 53.5525336,
    "lon": 9.0668679
  },
  "nodes": [
    1089011384,
    10594756908,
    1089011053,
    1089011160,
    1891346049,
    1089011980,
    1643299222,
    1089011750,
    1089011384
  ],
  "tags": {
    "landuse": "cemetery"
  }
},
{
  "type": "way",
  "id": 154004586,
  "center": {
    "lat": 53.6774428,
    "lon": 9.9295044
  },
  "nodes": [
    1666139583,
    1666139778,
    1666140007,
    1666139967,
    1493375808,
    3513464318,
    316804538,
    3513464308,
    1210477032,
    1210476986,
    316804539,
    1666139842,
    1666139921,
    1666139841,
    1666139499,
    1666140303,
    1666140442,
    1666139977,
    1666139527,
    1666139583
  ],
  "tags": {
    "landuse": "cemetery",
    "name": "Heidefriedhof Bönningstedt",
    "website": "https://www.boenningstedt.de/Bürgerservice/Friedhof.html"
  }
},
{
  "type": "way",
  "id": 154007222,
  "center": {
    "lat": 53.5244985,
    "lon": 9.1318285
  },
  "nodes": [
    1643297346,
    1643297349,
    1666153549,
    1666153545,
    1643297346
  ],
  "tags": {
    "landuse": "cemetery"
  }
},
{
  "type": "way",
  "id": 155557982,
  "center": {
    "lat": 53.0072162,
    "lon": 9.1227967
  },
  "nodes": [
    1679512638,
    6447160410,
    1679512636,
    1679512637,
    1679512627,
    1679512631,
    1679512640,
    6447160413,
    6447160414,
    6447160412,
    1679512638
  ],
  "tags": {
    "landuse": "cemetery",
    "name": "Friedhof Etelsen",
    "operator": "Flecken Langwedel",
    "operator:type": "government",
    "religion": "none"
  }
},
{
  "type": "way",
  "id": 156048077,
  "center": {
    "lat": 53.5240233,
    "lon": 9.4025117
  },
  "nodes": [
    11076524812,
    1683576311,
    1683576124,
    1864213760,
    1683576109,
    11076524816,
    11076524815,
    11076524814,
    11076524813,
    11076524812
  ],
  "tags": {
    "denomination": "lutheran",
    "landuse": "cemetery",
    "religion": "christian"
  }
},
{
  "type": "way",
  "id": 157072810,
  "center": {
    "lat": 53.3835821,
    "lon": 9.6072928
  },