{
  "version": 0.6,
  "generator": "Overpass API 0.7.62.8 e802775f",
  "osm3s": {
    "timestamp_osm_base": "2025-11-02T22:55:22Z",
    "copyright": "The data included in this document is from www.openstreetmap.org. The data is made available under ODbL."
  },
  "elements": [

{
  "type": "way",
  "id": 4359434,
  "center": {
    "lat": 51.3412035,
    "lon": 12.3175959
  },
  "nodes": [
    26568654,
    26568655,
    653433265,
    11065196822,
    11065196817,
    11065196816,
    11065196814,
    653433234,
    11065234040,
    11065234045,
    11065234047,
    11065234049,
    412143717,
    11065234051,
    8255258892,
    11065234056,
    3328333547,
    26568656,
    907075746,
    26568657,
    26568651,
    26568652,
    26568653,
    1774025371,
    6402395560,
    5765783663,
    26568654
  ],
  "tags": {
    "barrier": "wall",
    "check_date:opening_hours": "2024-02-12",
    "denomination": "lutheran",
    "landuse": "cemetery",
    "name": "Friedhof Lindenau",
    "opening_hours": "Apr-Sep 07:00-20:00; Oct-Mar 08:00-18:00",
    "operator": "Ev.-Luth. Friedhofsverband Leipzig",
    "operator:type": "religious",
    "religion": "christian",
    "wikidata": "Q124290274"
  }
},
{
  "type": "way",
  "id": 4463400,
  "center": {
    "lat": 51.5620019,
    "lon": 12.9941727
  },
  "nodes": [
    27374860,
    3797329037,
    4317882712,
    4317882713,
    27374861,
    9688644537,
    3807320525,
    3807320545,
    27374859,
    27374860
  ],
  "tags": {
    "heritage": "4",
    "heritage:operator": "lfd",
    "image": "https://commons.wikimedia.org/wiki/File:Sowjetischer_Ehrenfriedhof_(Torgau)_(5).jpg",
    "landuse": "cemetery",
    "lfd:criteria": "Ensemble",
    "name": "Sowjetischer Ehrenfriedhof",
    "ref:lfd": "09301818",
    "start_date": "1948-1949",
    "wikidata": "Q49593150",
    "wikimedia_commons": "Category:Sowjetischer Ehrenfriedhof (Torgau)"
  }
},
{
  "type": "way",
  "id": 4827237,
  "center": {
    "lat": 51.8130542,
    "lon": 12.2381422
  },
  "nodes": [
    1888803938,
    10207783255,
    10207783257,
    10207783256,
    31031644,
    10207783261,
    2511655284,
    31031645,
    10207783230,
    10207783229,
    10207783228,
    2511655281,
    31209135,
    534776823,
    10207783231,
    31031646,
    10207783224,
    10207783225,
    10207783226,
    10207783227,
    10207783222,
    10207783223,
    2663691250,
    10207783245,
    10207783246,
    2663691253,
    2663691256,
    2663691261,
    10207783248,
    10207783247,
    2663691265,
    1888803937,
    10207783249,
    10207783250,
    10207783251,
    10207783252,
    31031647,
    10207783253,
    10207783254,
    1888803938
  ],
  "tags": {
    "barrier": "fence",
    "landuse": "cemetery",
    "name": "Friedhof III",
    "natural": "wood",
    "wikidata": "Q65552911"
  }
},
{
  "type": "way",
  "id": 4827242,
  "center": {
    "lat": 51.8138069,
    "lon": 12.2438016
  },
  "nodes": [
    31031757,
    31031758,
    31031759,
    672353164,
    31031760,
    738776904,
    31031757
  ],
  "tags": {
    "landuse": "cemetery",
    "name": "Ehrenfriedhof"
  }
},
{
  "type": "way",
  "id": 10771966,
  "center": {
    "lat": 51.5638267,
    "lon": 12.9873934
  },
  "nodes": [
    95905812,
    95905820,
    2749763903,
    2749763900,
    2749763898,
    2749763899,
    2749763901,
    2749763902,
    95905822,
    95905826,
    2749763897,
    2749763890,
    95905830,
    269133406,
    95905812
  ],
  "tags": {
    "boundary": "protected_area",
    "heritage": "4",
    "heritage:operator": "lfd",
    "image": "https://commons.wikimedia.org/wiki/File:Friedhof_Torgau.jpg",
    "landuse": "cemetery",
    "lfd:criteria": "Ensemble",
    "name": "Stadtfriedhof Torgau",
    "protect_class": "22",
    "ref:lfd": "09302405",
    "religion": "christian",
    "wikidata": "Q49593373",
    "wikimedia_commons": "Category:Friedhof (Torgau)"
  }
},
{
  "type": "way",
  "id": 14983404,
  "center": {
    "lat": 51.3471864,
    "lon": 12.4378182
  },
  "nodes": [
    147980128,
    5221120946,
    2419269133,
    2419269135,
    2419269137,
    2419269136,
    2419269134,
    147980130,
    5490279489,
    5490279488,
    147980133,
    3393066990,
    147980135,
    4756526165,
    147980128
  ],
  "tags": {
    "barrier": "fence",
    "landuse": "cemetery",
    "name": "Friedhof Sellerhausen",
    "wikidata": "Q116057229"
  }
},
{
  "type": "way",
  "id": 17067007,
  "center": {
    "lat": 51.3738778,
    "lon": 12.3451358
  },
  "nodes": [
    177223196,
    9521837367,
    9521837371,
    9521837370,
    9485915828,
    9521837410,
    9521837411,
    9521837373,
    1820624356,
    9521837372,
    177223209,
    4578291885,
    9521837374,
    1850168435,
    3770816477,
    3770816476,
    4212988148,
    4212988149,
    4212988146,
    4212988147,
    2087032813,
    9485915833,
    9485915831,
    4212988155,
    177223233,
    9485915830,
    4212988156,
    9521833853,
    9485915829,
    177223242,
    4212988158,
    177223196
  ],
  "tags": {
    "landuse": "cemetery",
    "name": "Friedhof Möckern"
  }
},
{
  "type": "way",
  "id": 19181424,
  "center": {
    "lat": 51.5957870,
    "lon": 12.5837882
  },
  "nodes": [
    198930547,
    198930566,
    3392847918,
    5857434226,
    5857434227,
    3392847921,
    198930591,
    3392847920,
    3392847914,
    198930626,
    1948790952,
    198930547
  ],
  "tags": {
    "boundary": "protected_area",
    "heritage": "4",
    "heritage:operator": "lfd",
    "image": "https://commons.wikimedia.org/wiki/File:Friedhof_Bad_D%C3%BCben_2016_IMG_6753.jpg",
    "landuse": "cemetery",
    "lfd:criteria": "Ensemble",
    "name": "Stadtfriedhof Bad Düben",
    "protect_class": "22",
    "ref:lfd": "09304758",
    "source": "local knowledge",
    "wikidata": "Q49465068",
    "wikimedia_commons": "Category:Friedhof Bad Düben"
  }
},
{
  "type": "way",
  "id": 19531544,
  "center": {
    "lat": 51.6167718,
    "lon": 12.6819049
  },
  "nodes": [
    202912647,
    6184910400,
    3045619557,
    202912657,
    202912661,
    202912670,
    6261576851,
    6261576815,
    2097343864,
    6184910399,
    6556222924,
    6556222925,
    6556222926,
    6556222927,
    202912647
  ],
  "tags": {
    "landuse": "cemetery"
  }
},
{
  "type": "way",
  "id": 22697179,
  "center": {
    "lat": 51.3582108,
    "lon": 12.2695727
  },
  "nodes": [
    243463321,
    243463322,
    6039530224,
    243463323,
    243463325,
    6868905227,
    6039529479,
    6039529476,
    6039530236,
    6039530228,
    6039530222,
    6039530227,
    4682298157,
    6039530226,
    6039530225,
    4682298155,
    243463321
  ],
  "tags": {
    "barrier": "wall",
    "landuse": "cemetery",
    "name": "Friedhof Gundorf"
  }
},
{
  "type": "way",
  "id": 23185927,
  "center": {
    "lat": 51.2836446,
    "lon": 12.4164251
  },
  "nodes": [
    250734878,
    250734879,
    250734880,
    250734881,
    250734882,
    370446589,
    250734878
  ],
  "tags": {
    "amenity": "grave_yard",
    "name": "Gottesacker Dösen"
  }
},
{
  "type": "way",
  "id": 23326848,
  "center": {
    "lat": 51.3365109,
    "lon": 12.3905875
  },
  "nodes": [
    252596253,
    252596254,
    252596255,
    394924176,
    252596257,
    252596259,
    252596253
  ],
  "tags": {
    "heritage": "yes",
    "landuse": "cemetery",
    "name": "Alter Johannisfriedhof",
    "opening_hours": "Mar-Oct 10:00-18:00; Nov-Feb 10:00-16:00",
    "religion": "christian",
    "wikidata": "Q49235837",
    "wikipedia": "de:Alter Johannisfriedhof"
  }
},
{
  "type": "way",
  "id": 23514109,
  "center": {
    "lat": 51.4651726,
    "lon": 12.2677010
  },
  "nodes": [
    254648708,
    254648709,
    254648710,
    254648711,
    254648712,
    254648713,
    8869487732,
    254648708
  ],
  "tags": {
    "landuse": "cemetery"
  }
},
{
  "type": "way",
  "id": 24041596,
  "center": {
    "lat": 51.0537568,
    "lon": 12.5539422
  },
  "nodes": [
    260729403,
    9572477882,
    9572477883,
    9572394539,
    9572413530,
    260729393,
    9572413531,
    260729395,
    9572400070,
    9572400071,
    9572467506,
    260729396,
    9572467507,
    9572478421,
    9572478422,
    260729397,
    9572376016,
    9572478717,
    260729398,
    9572473847,
    10257997011,
    10257997010,
    260729399,
    10257983007,
    260729400,
    10257997032,
    10257997036,
    1110548806,
    324352428,
    260729402,
    260729401,
    260729403
  ],
  "tags": {
    "landuse": "cemetery",
    "name": "Alter Friedhof"
  }
},
{
  "type": "way",
  "id": 24210699,
  "center": {
    "lat": 51.4309376,
    "lon": 12.3800602
  },
  "nodes": [
    262148701,
    262148702,
    262148703,
    262148705,
    262148706,
    262148707,
    320803974,
    262148708,
    262148709,
    262148710,
    262148701
  ],
  "tags": {
    "denomination": "lutheran",
    "landuse": "cemetery",
    "noname": "yes",
    "religion": "christian"
  }
},
{
  "type": "way",
  "id": 24210740,
  "center": {
    "lat": 51.4310225,
    "lon": 12.3813780
  },
  "nodes": [
    262148921,
    262148925,
    262148923,
    262148922,
    262148921
  ],
  "tags": {
    "landuse": "cemetery",
    "noname": "yes"
  }
},
{
  "type": "way",
  "id": 24224000,
  "center": {
    "lat": 51.0517064,
    "lon": 12.5519674
  },
  "nodes": [
    262286128,
    262286129,
    1110548800,
    262286130,
    10075645377,
    8321842101,
    8321842098,
    4595890010,
    4595890011,
    262286131,
    4595889982,
    4595889984,
    4595889981,
    262286132,
    1485607665,
    4595889985,
    262286128
  ],
  "tags": {
    "addr:housenumber": "1",
    "addr:street": "Leichenweg",
    "landuse": "cemetery"
  }
},
{
  "type": "way",
  "id": 24704560,
  "center": {
    "lat": 51.3263099,
    "lon": 12.4482804
  },
  "nodes": [
    268517846,
    268517847,
    268517848,
    268517849,
    5732413223,
    268517850,
    268517851,
    268517852,
    2715320224,
    2715320231,
    1742544474,
    268517846
  ],
  "tags": {
    "barrier": "fence",
    "denomination": "lutheran",
    "landuse": "cemetery",
    "name": "Kreuzfriedhof Mölkau",
    "religion": "christian",
    "wikidata": "Q123980938",
    "wikimedia_commons": "File:Kreuzfriedhof Mölkau - Ansicht Gräberfeld.jpg"
  }
},
{
  "type": "way",
  "id": 24709184,
  "center": {
    "lat": 51.3253628,
    "lon": 12.4519982
  },
  "nodes": [
    268561235,
    5732525233,
    268561236,
    268561237,
    268561238,
    1538720192,
    5732525235,
    268561235
  ],
  "tags": {
    "addr:city": "Leipzig",
    "addr:housenumber": "206",
    "addr:postcode": "04316",
    "addr:street": "Zweinaundorfer Straße",
    "denomination": "lutheran",
    "landuse": "cemetery",
    "name": "Kirchfriedhof Zweinaundorf",
    "religion": "christian",
    "wikidata": "Q123916455",
    "wikimedia_commons": "File:Kirchhof Zweinaundorf - Gräberfeld mit Südseite Kirche.jpg"
  }
},
{
  "type": "way",
  "id": 24713089,
  "center": {
    "lat": 51.3533076,
    "lon": 12.2097502
  },
  "nodes": [
    268611387,
    268611388,
    268611389,
    268611390,
    2301129876,
    268611391,
    268611392,
    2301129847,
    2301129841,
    268611387
  ],
  "tags": {
    "landuse": "cemetery"
  }
},
{
  "type": "way",
  "id": 24758184,
  "center": {
    "lat": 51.9986544,
    "lon": 12.7833056
  },
  "nodes": [
    269050293,
    269050303,
    269050304,
    269050299,
    269050301,
    4529315319,
    269050293
  ],
  "tags": {
    "landuse": "cemetery",
    "name": "Friedhof"
  }
},
{
  "type": "way",
  "id": 24760079,
  "center": {
    "lat": 51.2748329,
    "lon": 12.3096442
  },
  "nodes": [
    269064968,
    269064969,
    269064970,
    1690724482,
    1690724478,
    269064971,
    269064968
  ],
  "tags": {
    "landuse": "cemetery",
    "name": "Friedhof Knauthain"
  }
},
{
  "type": "way",
  "id": 25204119,
  "center": {
    "lat": 51.8102357,
    "lon": 12.1561245
  },
  "nodes": [
    274814766,
    2581313810,
    274814767,
    274814768,
    274814769,
    274814766
  ],
  "tags": {
    "landuse": "cemetery"
  }
},
{
  "type": "way",
  "id": 25280632,
  "center": {
    "lat": 51.7935296,
    "lon": 12.3023944
  },
  "nodes": [
    275404071,
    275404073,
    275404074,
    275404076,
    2229276832,
    275404071
  ],
  "tags": {
    "amenity": "grave_yard",
    "name": "Friedhof Kleutsch"
  }
},
{
  "type": "way",
  "id": 25309308,
  "center": {
    "lat": 51.8251372,
    "lon": 12.2444601
  },
  "nodes": [
    275684582,
    2530432173,
    2582820510,
    2530432068,
    2530432056,
    275684585,
    1888803958,
    2582820506,
    275684589,
    2530432118,
    2582820508,
    2582820511,
    275684592,
    275684596,
    275684598,
    275684602,
    275684582
  ],
  "tags": {
    "barrier": "wall",
    "height": "2.2",
    "landuse": "cemetery",
    "name": "Israelitischer Friedhof",
    "religion": "jewish",
    "source:height": "ARCore"
  }
},
{
  "type": "way",
  "id": 25335200,
  "center": {
    "lat": 51.3342113,
    "lon": 12.6219083
  },
  "nodes": [
    276052682,
    12431543164,
    12431543177,
    12431543163,
    276052683,
    276052684,
    276052685,
    1328657706,
    276052682
  ],
  "tags": {
    "landuse": "cemetery",
    "name": "Friedhof Waldstraße",
    "religion": "christian"
  }
},
{
  "type": "way",
  "id": 25461823,
  "center": {
    "lat": 51.8274056,
    "lon": 12.2383213
  },
  "nodes": [
    11896610160,
    277455824,
    277455825,
    277455830,
    11883918883,
    277455819,
    11896610165,
    11896610166,
    520409706,
    277455820,
    277455821,
    277455822,
    11958533111,
    277455823,
    11896610157,
    11896610158,
    7689260417,
    11896610159,
    11896610160
  ],
  "tags": {
    "barrier": "wall",
    "landuse": "cemetery",
    "name": "Neuer Begräbnisplatz , Historischer Friedhof I",
    "wikimedia_commons": "Category:Neuer Begräbnisplatz Dessau",
    "wikipedia": "de:Neuer Begräbnisplatz (Dessau)"
  }
},
{
  "type": "way",
  "id": 25511958,
  "center": {
    "lat": 51.7682158,
    "lon": 12.3128041
  },
  "nodes": [
    277995887,
    1830813479,
    277995890,
    277995891,
    4239895119,
    277995893,
    4239895127,
    277995887
  ],
  "tags": {
    "amenity": "grave_yard"
  }
},
{
  "type": "way",
  "id": 25513686,
  "center": {
    "lat": 51.7224530,
    "lon": 12.3180236
  },
  "nodes": [
    278012839,
    2969358077,
    278012844,
    278012850,
    278012854,
    278012859,
    278012839
  ],
  "tags": {
    "landuse": "cemetery"
  }
},
{
  "type": "way",
  "id": 25526772,
  "center": {
    "lat": 51.7453923,
    "lon": 12.2781412
  },
  "nodes": [
    278195579,
    278195583,
    278195587,
    278195590,
    278195593,
    278195579
  ],
  "tags": {
    "amenity": "grave_yard"
  }
},
{
  "type": "way",
  "id": 25526803,
  "center": {
    "lat": 51.7642122,
    "lon": 12.2753360
  },
  "nodes": [
    278195869,
    278195870,
    356911806,
    278195871,
    278195872,
    278195869
  ],
  "tags": {
    "amenity": "grave_yard"
  }
},
{
  "type": "way",
  "id": 25559539,
  "center": {
    "lat": 51.8169522,
    "lon": 12.2027268
  },
  "nodes": [
    278587944,
    2913790013,
    278587946,
    278587947,
    278587948,
    278587944
  ],
  "tags": {
    "landuse": "cemetery",
    "name": "Friedhof Alten",
    "religion": "christian"
  }
},
{
  "type": "way",
  "id": 25801162,
  "center": {
    "lat": 51.7306424,
    "lon": 12.3429041
  },
  "nodes": [
    281431831,
    281431832,
    281431837,
    3424786702,
    3424786701,
    281431842,
    281431831
  ],
  "tags": {
    "landuse": "cemetery"
  }
},
{
  "type": "way",
  "id": 25801419,
  "center": {
    "lat": 51.7091249,
    "lon": 12.3060876
  },
  "nodes": [
    281434359,
    7460360719,
    2737522773,
    281434360,
    10285246823,
    2737513997,
    10285246832,
    281434361,
    281434362,
    2737513998,
    2737513999,
    12431177383,
    7460360721,
    10285246626,
    12431177382,
    281434359
  ],
  "tags": {
    "landuse": "cemetery"
  }
},
{
  "type": "way",
  "id": 25859102,
  "center": {
    "lat": 51.6735675,
    "lon": 12.3339130
  },
  "nodes": [
    282049604,
    282049605,
    401590475,
    401590476,
    282049607,
    282049608,
    282049604
  ],
  "tags": {
    "landuse": "cemetery"
  }
},
{
  "type": "way",
  "id": 25926307,
  "center": {
    "lat": 51.6887356,
    "lon": 12.3164420
  },
  "nodes": [
    282812956,
    282812957,
    9646104838,
    282812958,
    5600697870,
    10881149024,
    282812956
  ],
  "tags": {
    "landuse": "cemetery"
  }
},
{
  "type": "way",
  "id": 25951494,
  "center": {
    "lat": 51.7565904,
    "lon": 12.0836332
  },
  "nodes": [
    283112328,
    283112329,
    283112330,
    283112331,
    283112328
  ],
  "tags": {
    "amenity": "grave_yard"
  }
},
{
  "type": "way",
  "id": 26125278,
  "center": {
    "lat": 51.2975089,
    "lon": 12.2128475
  },
  "nodes": [
    286013708,
    855385803,
    286013712,
    286014614,
    766890515,
    766889707,
    855386888,
    286014615,
    855387840,
    855384366,
    855381515,
    286013708
  ],
  "tags": {
    "landuse": "cemetery",
    "name": "Friedhof Markranstädt",
    "source": "Yahoo! Aerial Imagery"
  }
},
{
  "type": "way",
  "id": 26258044,
  "center": {
    "lat": 51.6486018,
    "lon": 12.2985219
  },
  "nodes": [
    287582098,
    287582099,
    287582102,
    8812702791,
    287582103,
    287582105,
    287582106,
    287582111,
    287582107,
    287582109,
    287582110,
    287582098
  ],
  "tags": {
    "landuse": "cemetery",
    "name": "Friedhof Greppin"
  }
},
{
  "type": "way",
  "id": 26261668,
  "center": {
    "lat": 51.3056520,
    "lon": 12.4680236
  },
  "nodes": [
    5299265278,
    287622482,
    287622483,
    6218239700,
    3673658589,
    5299265279,
    5299265278
  ],
  "tags": {
    "addr:city": "Leipzig",
    "addr:country": "DE",
    "addr:housenumber": "2a",
    "addr:postcode": "04288",
    "addr:street": "Zaucheblick",
    "landuse": "cemetery",
    "name": "Kommunaler Friedhof Holzhausen",
    "operator": "Stadt Leipzig",
    "wikidata": "Q123984674"
  }
},
{
  "type": "way",
  "id": 26366277,
  "center": {
    "lat": 51.1544949,
    "lon": 12.0991963
  },
  "nodes": [
    288868563,
    1141455423,
    1141455186,
    1141455489,
    1141455621,
    1141455305,
    1141455455,
    1141455388,
    288868557,
    1137966122,
    288868564,
    288868559,
    288868562,
    1141455547,
    288868563
  ],
  "tags": {
    "landuse": "cemetery",
    "name": "Friedhof"
  }
},
{
  "type": "way",
  "id": 26552644,
  "center": {
    "lat": 51.8214473,
    "lon": 12.2836139
  },
  "nodes": [
    291039228,
    10019777648,
    10019774705,
    291039232,
    3394915236,
    10019774706,
    291039237,
    10019774694,
    10019774695,
    291039238,
    10019774696,
    10019777633,
    1366594102,
    291039239,
    10019777636,
    291039240,
    10019777643,
    10019774708,
    5909396158,
    10019777637,
    10019774707,
    291039228
  ],
  "tags": {
    "amenity": "grave_yard"
  }
},
{
  "type": "way",
  "id": 26626391,
  "center": {
    "lat": 51.9435119,
    "lon": 12.5122238
  },
  "nodes": [
    292046295,
    292046296,
    292046298,
    401823593,
    401823591,
    401823598,
    292046300,
    292046295
  ],
  "tags": {
    "denomination": "protestant",
    "landuse": "cemetery",
    "religion": "christian"
  }
},
{
  "type": "way",
  "id": 26706422,
  "center": {
    "lat": 51.8926224,
    "lon": 12.1990428
  },
  "nodes": [
    292894723,
    292894724,
    292894725,
    292894726,
    292894727,
    292894723
  ],
  "tags": {
    "amenity": "grave_yard",
    "barrier": "wall"
  }
},
{
  "type": "way",
  "id": 26732763,
  "center": {
    "lat": 51.7972334,
    "lon": 12.1865763
  },
  "nodes": [
    293216528,
    293216529,
    1303944760,
    2561994976,
    2561994975,
    293216530,
    293216531,
    293216532,
    1303944753,
    293216528
  ],
  "tags": {
    "landuse": "cemetery",
    "name": "Friedhof Kochstedt",
    "website": "https://stadtpflege.dessau-rosslau.de/friedhofswesen/"
  }
},
{
  "type": "way",
  "id": 26753322,
  "center": {
    "lat": 51.8826081,
    "lon": 12.6368681
  },
  "nodes": [
    293454077,
    293454082,
    12790118635,
    12790118633,
    12790118632,
    293454077
  ],
  "tags": {
    "amenity": "grave_yard",
    "denomination": "evangelical",
    "religion": "christian"
  }
},
{
  "type": "way",
  "id": 26936687,
  "center": {
    "lat": 51.9129813,
    "lon": 12.4113187
  },
  "nodes": [
    295162010,
    295162023,
    295162011,
    295162012,
    295162014,
    13050810803,
    3059861123,
    295162017,
    295162019,
    295162010
  ],
  "tags": {
    "amenity": "grave_yard"
  }
},
{
  "type": "way",
  "id": 26964806,
  "center": {
    "lat": 51.7203399,
    "lon": 12.4157539
  },
  "nodes": [
    295480219,
    295480222,
    295480233,
    295480240,
    295480247,
    8694886283,
    6229435462,
    6229435461,
    8694886250,
    3468337163,
    8694886251,
    8694886252,
    8694886253,
    8694886254,
    8694886255,
    8694886256,
    8694886257,
    8694886258,
    8694886259,
    8694886260,
    295480219
  ],
  "tags": {
    "landuse": "cemetery"
  }
},
{
  "type": "way",
  "id": 27182200,
  "center": {
    "lat": 51.8432088,
    "lon": 12.1726941
  },
  "nodes": [
    298258580,
    3424694249,
    282554012,
    3424694240,
    3424694233,
    3424694235,
    298258581,
    298258582,
    298258583,
    298258584,
    298258585,
    308302134,
    298258586,
    298258587,
    3424694223,
    8251690670,
    298258588,
    3424694244,
    3424694251,
    3424694263,
    3424694261,
    3424694259,
    3424694254,
    3424694255,
    298258580
  ],
  "tags": {
    "landuse": "cemetery",
    "name": "Zentralfriedhof Dessau-Roßlau",
    "website": "https://stadtpflege.dessau-rosslau.de/friedhofswesen/"
  }
},
{
  "type": "way",
  "id": 27204109,
  "center": {
    "lat": 51.8074685,
    "lon": 12.4271810
  },
  "nodes": [
    298522288,
    1719599878,
    298522295,
    298522302,
    298522307,
    1719599846,
    298522288
  ],
  "tags": {
    "amenity": "grave_yard"
  }
},
{
  "type": "way",
  "id": 27468415,
  "center": {
    "lat": 51.6937935,
    "lon": 12.7345448
  },
  "nodes": [
    301606529,
    3522389526,
    301606530,
    3522389524,
    3522389527,
    1153067351,
    3524034656,
    3524034657,
    3524034655,
    301606532,
    3524034661,
    301606533,
    3792696917,
    3792696916,
    3792696914,
    301606529
  ],
  "tags": {
    "amenity": "grave_yard",
    "religion": "christian"
  }
},
{
  "type": "way",
  "id": 27487306,
  "center": {
    "lat": 51.3924575,
    "lon": 12.2456539
  },
  "nodes": [
    301772753,
    387494393,
    9115483683,
    387494402,
    301772755,
    1666387854,
    9115483705,
    1666387838,
    9115483709,
    1666387853,
    9115483698,
    947056937,
    9115483699,
    1666387833,
    301772757,
    1666387970,
    301772753
  ],
  "tags": {
    "landuse": "cemetery",
    "name": "Zentralfriedhof Schkeuditz"
  }
},
{
  "type": "way",
  "id": 27709072,
  "center": {
    "lat": 51.3487131,
    "lon": 12.0652073
  },
  "nodes": [
    304279961,
    304279962,
    2084860183,
    304279963,
    2084860352,
    304279964,
    304279961
  ],
  "tags": {
    "landuse": "cemetery"
  }
},
{
  "type": "way",
  "id": 27871056,
  "center": {
    "lat": 51.8073319,
    "lon": 12.1545838
  },
  "nodes": [
    305996179,
    305996188,
    2938636761,
    305996195,
    305996201,
    2938636762,
    305996179
  ],
  "tags": {
    "amenity": "grave_yard"
  }
},
{
  "type": "way",
  "id": 27991792,
  "center": {
    "lat": 51.0832744,
    "lon": 12.1076206
  },
  "nodes": [
    307376738,
    9596383528,
    9596383527,
    9596383529,
    9596383493,
    307376740,
    307376742,
    307376744,
    1232228093,
    1232228120,
    307376747,
    307376738
  ],
  "tags": {
    "amenity": "grave_yard"
  }
},
{
  "type": "way",
  "id": 28231590,
  "center": {
    "lat": 51.6010182,
    "lon": 12.3134231
  },
  "nodes": [
    310079794,
    310079790,
    310079791,
    4576040173,
    310079768,
    4576040391,
    4576040390,
    4576040392,
    310079793,
    4576040393,
    4576040389,
    310079794
  ],
  "tags": {
    "landuse": "cemetery",
    "name": "Friedhof Holzweißig"
  }
},
{
  "type": "way",
  "id": 28418086,
  "center": {
    "lat": 51.4047757,
    "lon": 12.4153869
  },
  "nodes": [
    312170331,
    312170332,
    312170333,
    312170334,
    312170331
  ],
  "tags": {
    "landuse": "cemetery"
  }
},
{
  "type": "way",
  "id": 28454745,
  "center": {
    "lat": 51.4531719,
    "lon": 12.8727394
  },
  "nodes": [
    312616684,
    12744772734,
    312616691,
    12744772733,
    12744772731,
    12744772730,
    12744772729,
    2668416107,
    2613879907,
    312616706,
    2613879913,
    2613879914,
    2613879903,
    2613879896,
    12744772735,
    2613879886,
    312616602,
    312616606,
    312616684
  ],
  "tags": {
    "landuse": "cemetery",
    "name": "Friedhof Kobershain"
  }
},
{
  "type": "way",
  "id": 28473119,
  "center": {
    "lat": 51.5482202,
    "lon": 12.1302431
  },
  "nodes": [
    312800235,
    312800237,
    3305876252,
    1398801778,
    312800235
  ],
  "tags": {
    "landuse": "cemetery"
  }
},
{
  "type": "way",
  "id": 28552464,
  "center": {
    "lat": 51.8163319,
    "lon": 12.4481384
  },
  "nodes": [
    313664591,
    313664592,
    340159600,
    3030545262,
    340159601,
    313664595,
    313866931,
    313664591
  ],
  "tags": {
    "denomination": "protestant",
    "landuse": "cemetery",
    "religion": "christian"
  }
},
{
  "type": "way",
  "id": 28734320,
  "center": {
    "lat": 51.3602013,
    "lon": 12.4196453
  },
  "nodes": [
    315931039,
    1219408714,
    315931041,
    1219408646,
    6926265967,
    1722309012,
    1722309010,
    1219408615,
    1219408670,
    315931042,
    315931045,
    1219408647,
    5214498469,
    3023066228,
    10259461923,
    315931048,
    5214498475,
    3023066227,
    5214498488,
    5040810911,
    5214498480,
    347475265,
    347475266,
    5044128687,
    5214498483,
    5214498481,
    5040810917,
    3023066214,
    3802653776,
    3023066207,
    5040810916,
    5040810914,
    5214498479,
    5214498484,
    347475269,
    315931039
  ],
  "tags": {
    "landuse": "cemetery",
    "name": "Friedhof Schönefeld",
    "wikidata": "Q122700197"
  }
},
{
  "type": "way",
  "id": 29382175,
  "center": {
    "lat": 51.5155972,
    "lon": 12.0101240
  },
  "nodes": [
    323185430,
    323185431,
    3415083100,
    323185432,
    3415083101,
    323185434,
    323185430
  ],
  "tags": {
    "barrier": "wall",
    "landuse": "cemetery",
    "name": "Friedhof St. Pankratius",
    "religion": "christian"
  }
},
{
  "type": "way",
  "id": 29382389,
  "center": {
    "lat": 51.5147700,
    "lon": 12.0099514
  },
  "nodes": [
    323186947,
    289186484,
    9831732851,
    9831732847,
    9831732848,
    323186945,
    323186947
  ],
  "tags": {
    "denomination": "protestant",
    "landuse": "cemetery",
    "name": "Friedhof St. Pankratius",
    "religion": "christian"
  }
},
{
  "type": "way",
  "id": 29879660,
  "center": {
    "lat": 51.1551246,
    "lon": 12.9260510
  },
  "nodes": [
    329229466,
    329229471,
    2631159159,
    2631159155,
    2631159157,
    2631159143,
    2631159133,
    329229478,
    2631141094,
    2631141070,
    4913539801,
    2631141050,
    409960747,
    2631141015,
    2631141029,
    329229484,
    2631141097,
    4913539808,
    4913539807,
    4913539806,
    2631141111,
    329229461,
    329229466
  ],
  "tags": {
    "landuse": "cemetery",
    "name": "Friedhof Leisnig"
  }
},
{
  "type": "way",
  "id": 30721273,
  "center": {
    "lat": 51.0570173,
    "lon": 12.6882832
  },
  "nodes": [
    339769735,
    7006286428,
    10132868681,
    1228949161,
    10132868678,
    1078658682,
    9830379678,
    338900602,
    12484767129,
    9830379788,
    339769741,
    339769747,
    1078658708,
    9830379648,
    9830379647,
    2072018401,
    1078658691,
    2072018164,
    4869902414,
    4869902411,
    9830379671,
    338903479,
    9830379679,
    1078658693,
    339769762,
    339769767,
    7006286429,
    339769770,
    339769773,
    339769735
  ],
  "tags": {
    "barrier": "wall",
    "denomination": "lutheran",
    "landuse": "cemetery",
    "name": "Friedhof Geithain",
    "religion": "christian",
    "wikidata": "Q49377296"
  }
},
{
  "type": "way",
  "id": 30730203,
  "center": {
    "lat": 51.2998357,
    "lon": 12.3248768
  },
  "nodes": [
    339866430,
    339866433,
    1507177891,
    1507177894,
    339866437,
    339866440,
    2893048370,
    339866430
  ],
  "tags": {
    "landuse": "cemetery",
    "name": "Friedhof Großzschocher",
    "operator": "Ev.-Luth. Friedhofsverband Leipzig",
    "operator:type": "religious",
    "religion": "christian"
  }
},
{
  "type": "way",
  "id": 30765091,
  "center": {
    "lat": 51.2472317,
    "lon": 12.5648775
  },
  "nodes": [
    340232062,
    340232063,
    7798876220,
    6225933694,
    340232064,
    6225933693,
    340232065,
    340232062
  ],
  "tags": {
    "amenity": "grave_yard",
    "denomination": "protestant",
    "landuse": "religious",
    "religion": "christian"
  }
},
{
  "type": "way",
  "id": 31006401,
  "center": {
    "lat": 51.3707933,
    "lon": 12.3673136
  },
  "nodes": [
    344765287,
    344765297,
    344765320,
    10593554989,
    344765308,
    344765302,
    8724917064,
    344765293,
    8724917066,
    344765287
  ],
  "tags": {
    "landuse": "cemetery",
    "name": "Friedhof Gohlis",
    "opening_hours": "Apr 01-Sep 30 07:00-20:00; Oct 01-Mar 31 08:00-18:00",
    "operator": "Ev.-Luth. Friedhofsverband Leipzig",
    "operator:type": "religious",
    "religion": "christian"
  }
},
{
  "type": "way",
  "id": 31051935,
  "center": {
    "lat": 51.3729271,
    "lon": 12.3672399
  },
  "nodes": [
    345184390,
    2854085629,
    9854190687,
    9854190685,
    9854190690,
    9854190679,
    9854190677,
    9854190674,
    9854190672,
    9854190670,
    345184392,
    9854190665,
    9854190663,
    9854190657,
    9854190655,
    9854190653,
    9854190651,
    9854190648,
    9854190649,
    9854190642,
    9854190638,
    9854190632,
    9854106814,
    345184393,
    2854085623,
    2854085631,
    2854085622,
    2854085621,
    2854085634,
    2854085625,
    2854085626,
    345184391,
    2854085624,
    345184390
  ],
  "tags": {
    "contact:instagram": "https://www.instagram.com/ev._luth._friedhofsverband/",
    "denomination": "evangelical",
    "email": "gohlis@friedhofsverband-leipzig.de",
    "fax": "+49 341 33163845",
    "landuse": "cemetery",
    "name": "Friedhof Gohlis",
    "opening_hours": "Apr 1-Sep 30: 07:00-20:00; Oct 1-Mar 31: 08:00-18:00",
    "operator": "Ev.-Luth. Friedhofsverband Leipzig",
    "operator:type": "religious",
    "phone": "+49 341 9110718",
    "religion": "christian",
    "website": "https://www.friedhofsverband-leipzig.de/gohlis/"
  }
},
{
  "type": "way",
  "id": 31524100,
  "center": {
    "lat": 51.9609850,
    "lon": 12.5357826
  },
  "nodes": [
    352789161,
    352789162,
    352789164,
    352789165,
    411897699,
    352789168,
    352789166,
    1248084690,
    352789161
  ],
  "tags": {
    "denomination": "lutheran",
    "landuse": "cemetery",
    "name": "Cobbelsdorf",
    "religion": "christian"
  }
},
{
  "type": "way",
  "id": 31541531,
  "center": {
    "lat": 51.1307112,
    "lon": 12.5033134
  },
  "nodes": [
    352956619,
    352956621,
    352956624,
    3896980507,
    352956627,
    352956629,
    352956631,
    352956634,
    352956636,
    3896980472,
    3896980471,
    3896980464,
    352956638,
    3896980458,
    8848671810,
    3896979353,
    352956642,
    352956645,
    352956649,
    352956653,
    352956661,
    3896979327,
    3896979326,
    352956619
  ],
  "tags": {
    "landuse": "cemetery",
    "name": "Friedhof Borna"
  }
},
{
  "type": "way",
  "id": 31696226,
  "center": {
    "lat": 51.6171082,
    "lon": 12.0063913
  },
  "nodes": [
    354687936,
    354687938,
    8574858191,
    354687939,
    354687942,
    354687945,
    2251194457,
    354687949,
    354687936
  ],
  "tags": {
    "landuse": "cemetery"
  }
},
{
  "type": "way",
  "id": 31775438,
  "center": {
    "lat": 51.8464164,
    "lon": 12.2188439
  },
  "nodes": [
    355713705,
    355713715,
    355713708,
    355713710,
    355713711,
    355713716,
    355713714,
    10796782358,
    355713705
  ],
  "tags": {
    "landuse": "cemetery",
    "name": "Ziebigker Friedhof"
  }
},
{
  "type": "way",
  "id": 31824026,
  "center": {
    "lat": 51.0998052,
    "lon": 12.6962899
  },
  "nodes": [
    356303430,
    638957450,
    2028117200,
    356303431,
    10933443202,
    356303440,
    356303432,
    356303433,
    356303434,
    1119082461,
    356303435,
    356303436,
    356303437,
    356303438,
    1119082774,
    656432405,
    356303430
  ],
  "tags": {
    "barrier": "wall",
    "landuse": "cemetery",
    "religion": "christian"
  }
},
{
  "type": "way",
  "id": 31903950,
  "center": {
    "lat": 51.4762779,
    "lon": 12.0264307
  },
  "nodes": [
    357381773,
    357381779,
    357381785,
    12067692403,
    357381792,
    9889755393,
    357381773
  ],
  "tags": {
    "landuse": "cemetery",
    "name": "Friedhof Büschdorf",
    "operator:type": "public",
    "url": "https://www.halle.de/Publications/174/sr_707-11_lesefassung_friedhofsatzung_f_r_die_komm.pdf",
    "website": "https://www.halle.de/de/Kultur/Freizeit/index.aspx?RecID=1139",
    "wheelchair": "yes"
  }
},
{
  "type": "way",
  "id": 32128283,
  "center": {
    "lat": 51.7323883,
    "lon": 12.2824596
  },
  "nodes": [
    360650302,
    9040029719,
    9040029718,
    10287927508,
    10287927507,
    360650305,
    9391933297,
    9391933310,
    360650306,
    9040029717,
    10287927528,
    360650307,
    360650302
  ],
  "tags": {
    "amenity": "grave_yard",
    "name": "Alter Friedhof"
  }
},
{
  "type": "way",
  "id": 32272118,
  "center": {
    "lat": 51.8823325,
    "lon": 12.5141479
  },
  "nodes": [
    362758290,
    362758301,
    13022932185,
    1080967357,
    362758305,
    362758290
  ],
  "tags": {
    "amenity": "grave_yard",
    "name": "Friedhof Griebo"
  }
},
{
  "type": "way",
  "id": 32345158,
  "center": {
    "lat": 51.6352407,
    "lon": 12.6402949
  },
  "nodes": [
    364110123,
    364110125,
    364110127,
    364110129,
    5339618930,
    364110131,
    3045619585,
    364110123
  ],
  "tags": {
    "denomination": "protestant",
    "landuse": "cemetery",
    "religion": "christian"
  }
},
{
  "type": "way",
  "id": 32379980,
  "center": {
    "lat": 51.8298950,
    "lon": 12.8218924
  },
  "nodes": [
    12753159722,
    364344349,
    7053988701,
    364344362,
    7053988698,
    7053988699,
    7053988700,
    364344365,
    12753159721,
    12753159722
  ],
  "tags": {
    "landuse": "cemetery",
    "name": "Friedhof"
  }
},
{
  "type": "way",
  "id": 32393587,
  "center": {
    "lat": 51.6127728,
    "lon": 12.9689074
  },
  "nodes": [
    364429552,
    364429554,
    3046915741,
    3046915740,
    3046915738,
    3046915739,
    3046915737,
    3046915736,
    364429557,
    364429561,
    364429552
  ],
  "tags": {
    "landuse": "cemetery"
  }
},
{
  "type": "way",
  "id": 32443308,
  "center": {
    "lat": 51.8819000,
    "lon": 12.5079681
  },
  "nodes": [
    364768810,
    364768811,
    364768812,
    1080965701,
    1080965428,
    364768814,
    364768810
  ],
  "tags": {
    "landuse": "cemetery"
  }
},
{
  "type": "way",
  "id": 32544748,
  "center": {
    "lat": 51.1470529,
    "lon": 12.6409851
  },
  "nodes": [
    1174070835,
    1201756320,
    2210004037,
    1174070812,
    6192800386,
    6192800385,
    1174070850,
    2210004382,
    2210004402,
    2210004400,
    2210004398,
    2210004207,
    6192800387,
    365985642,
    2210003985,
    365985643,
    1201756287,
    1210696205,
    1210695270,
    1210696313,
    1210696622,
    1210695733,
    12871473418,
    1174070835
  ],
  "tags": {
    "landuse": "cemetery"
  }
},
{
  "type": "way",
  "id": 32664428,
  "center": {
    "lat": 51.6316086,
    "lon": 12.3391982
  },
  "nodes": [
    367377301,
    8836426187,
    8836426188,
    8836426189,
    8836426190,
    8836426191,
    8836426192,
    8836426193,
    8836426194,
    8836426195,
    8836426196,
    8836426197,
    8836426198,
    8836426199,
    8836426200,
    8836426201,
    8836426202,
    1038649071,
    367377347,
    1038649235,
    1038649898,
    1038649648,
    1038649372,
    1088769435,
    1088769708,
    3533759187,
    1038649510,
    3533759189,
    367377294,
    367377295,
    367377296,
    8836426173,
    367377297,
    8836431002,
    367377298,
    367377350,
    8836426178,
    8836426177,
    8836426176,
    8836426174,
    8836426175,
    8836426179,
    8836426180,
    8836426181,
    8836426182,
    8836426185,
    8836426183,
    8836426186,
    8836426184,
    367377299,
    367377300,
    8836426172,
    367377301
  ],
  "tags": {
    "fixme": "Gelände ist deutlich größer",
    "landuse": "cemetery",
    "name": "Friedhof Bitterfeld"
  }
},
{
  "type": "way",
  "id": 33050504,
  "center": {
    "lat": 51.5216838,
    "lon": 12.0596302
  },
  "nodes": [
    372724130,
    372724166,
    9292334865,
    9292334866,
    372724169,
    9292334869,
    372724172,
    9292334867,
    9292334868,
    372724130
  ],
  "tags": {
    "amenity": "grave_yard",
    "barrier": "wall",
    "religion": "christian",
    "wall": "stone"
  }
},
{
  "type": "way",
  "id": 33295831,
  "center": {
    "lat": 51.6429093,
    "lon": 12.3701890
  },
  "nodes": [
    378545611,
    378545615,
    10677203982,
    378545619,
    378545624,
    11207866478,
    11207866477,
    378545611
  ],
  "tags": {
    "barrier": "wall",
    "landuse": "cemetery",
    "name": "Friedhof Friedersdorf"
  }
},
{
  "type": "way",
  "id": 33433777,
  "center": {
    "lat": 51.6494066,
    "lon": 12.3714498
  },
  "nodes": [
    380448319,
    380448331,
    380448332,
    380448329,
    380448319
  ],
  "tags": {
    "landuse": "cemetery"
  }
},
{
  "type": "way",
  "id": 33790339,
  "center": {
    "lat": 51.1888252,
    "lon": 12.2602319
  },
  "nodes": [
    386902008,
    386902011,
    386902014,
    386902010,
    386902013,
    386902012,
    386902015,
    386902008
  ],
  "tags": {
    "barrier": "fence",
    "landuse": "cemetery",
    "religion": "christian"
  }
},
{
  "type": "way",
  "id": 34236049,
  "center": {
    "lat": 51.7557141,
    "lon": 12.5156862
  },
  "nodes": [
    392641694,
    392641695,
    392641697,
    392641699,
    392641694
  ],
  "tags": {
    "amenity": "grave_yard",
    "landuse": "cemetery",
    "name": "Friedhof Radis"
  }
},
{
  "type": "way",
  "id": 34285769,
  "center": {
    "lat": 51.2345780,
    "lon": 12.7188338
  },
  "nodes": [
    2890835602,
    393127018,
    2890835648,
    2890835659,
    2890835692,
    393127019,
    2890835841,
    2890835846,
    8795041852,
    2890835847,
    393127020,
    2890835825,
    393127021,
    2890835685,
    2890835650,
    393127016,
    8795041844,
    8795041845,
    8795041846,
    8795041847,
    2890835479,
    8795041848,
    8795041849,
    2890835602
  ],
  "tags": {
    "landuse": "cemetery",
    "religion": "christian"
  }
},
{
  "type": "way",
  "id": 34330659,
  "center": {
    "lat": 51.0834552,
    "lon": 12.5288150
  },
  "nodes": [
    393822202,
    393822203,
    393822204,
    393822205,
    393822206,
    393822207,
    393822208,
    393822209,
    393822210,
    393822211,
    393822212,
    393822213,
    393822214,
    393822215,
    393822216,
    393822217,
    393822218,
    393822219,
    393822202
  ],
  "tags": {
    "landuse": "cemetery",
    "name": "Friedhof Neukirchen"
  }
},
{
  "type": "way",
  "id": 34415967,
  "center": {
    "lat": 51.3438117,
    "lon": 12.2565496
  },
  "nodes": [
    395337258,
    395337259,
    395337260,
    6039950537,
    395337261,
    395337258
  ],
  "tags": {
    "barrier": "wall",
    "landuse": "cemetery",
    "name": "Friedhof Rückmarsdorf"
  }
},
{
  "type": "way",
  "id": 34426555,
  "center": {
    "lat": 51.2729132,
    "lon": 12.3540299
  },
  "nodes": [
    395538515,
    395538519,
    2604379895,
    513206792,
    443666257,
    443666258,
    1445364858,
    395538515
  ],
  "tags": {
    "landuse": "cemetery",
    "name": "Waldfriedhof der Martin-Luther-Kirchgemeinde"
  }
},
{
  "type": "way",
  "id": 34591407,
  "center": {
    "lat": 51.9435062,
    "lon": 12.5486745
  },
  "nodes": [
    401565429,
    401565430,
    401565431,
    1270816276,
    401565432,
    401565433,
    401565434,
    401565429
  ],
  "tags": {
    "amenity": "grave_yard"
  }
},
{
  "type": "way",
  "id": 34591725,
  "center": {
    "lat": 51.1336652,
    "lon": 12.4564110
  },
  "nodes": [
    401568629,
    401568630,
    401568631,
    401568632,
    401568633,
    401568634,
    401568635,
    401568636,
    401568637,
    401568638,
    401568629
  ],
  "tags": {
    "landuse": "cemetery",
    "name": "Friedhof Lobstädt",
    "source": "Hochbefliegung LMBVmbH 2.Hj.2007"
  }
},
{
  "type": "way",
  "id": 34655416,
  "center": {
    "lat": 51.0126878,
    "lon": 12.5688434
  },
  "nodes": [
    403184144,
    403184147,
    403184152,
    403184156,
    403184144
  ],
  "tags": {
    "amenity": "grave_yard"
  }
},
{
  "type": "way",
  "id": 35095962,
  "center": {
    "lat": 51.8832547,
    "lon": 12.4690877
  },
  "nodes": [
    411725570,
    2902183375,
    411725571,
    411725572,
    411725573,
    1018853819,
    1018855742,
    1018856205,
    411725574,
    11389519021,
    11389519020,
    1018854729,
    411725575,
    411725576,
    411725570
  ],
  "tags": {
    "landuse": "cemetery",
    "name": "Friedhof Coswig",
    "official_name": "Friedhof Coswig (Anhalt)"
  }
},
{
  "type": "way",
  "id": 35135982,
  "center": {
    "lat": 51.3466664,
    "lon": 12.3103040
  },
  "nodes": [
    412138478,
    412138479,
    4663653157,
    5218060317,
    10716380569,
    3489251173,
    3127308409,
    412138481,
    3027527929,
    805638634,
    805638664,
    3881871134,
    412138483,
    658030546,
    6192309031,
    10237864900,
    12534198164,
    412138478
  ],
  "tags": {
    "barrier": "wall",
    "landuse": "cemetery",
    "name": "Friedhof Leutzsch",
    "operator": "Ev.-Luth. Friedhofsverband Leipzig",
    "operator:type": "religious",
    "religion": "christian"
  }
},
{
  "type": "way",
  "id": 35949268,
  "center": {
    "lat": 51.3976172,
    "lon": 12.8725397
  },
  "nodes": [
    420238539,
    1151781258,
    420238541,
    420238543,
    8987594699,
    3907328184,
    3907328186,
    3907328243,
    3907328857,
    3907328866,
    420238546,
    3907328893,
    420238547,
    420238539
  ],
  "tags": {
    "landuse": "cemetery"
  }
},
{
  "type": "way",
  "id": 37644862,
  "center": {
    "lat": 51.0972938,
    "lon": 12.3303113
  },
  "nodes": [
    441300176,
    441300177,
    441300178,
    441300179,
    441300180,
    441300181,
    441300182,
    6244593618,
    441300183,
    441300184,
    441300185,
    441300176
  ],
  "tags": {
    "barrier": "wall",
    "landuse": "cemetery",
    "name": "Friedhof Lucka",
    "source": "Hochbefliegung LMBVmbH 2.Hj.2007",
    "wikidata": "Q136455119"
  }
},
{
  "type": "way",
  "id": 37878328,
  "center": {
    "lat": 51.8385594,
    "lon": 12.1798739
  },
  "nodes": [
    444515614,
    444515624,
    444515631,
    2923825651,
    444515641,
    444515614
  ],
  "tags": {
    "denomination": "protestant",
    "landuse": "cemetery",
    "name": "Friedhof Kleinkühnau",
    "religion": "christian"
  }
},
{
  "type": "way",
  "id": 37883696,
  "center": {
    "lat": 51.6539411,
    "lon": 12.4885497
  },
  "nodes": [
    444583554,
    444583555,
    8691865686,
    444583556,
    444583557,
    444583554
  ],
  "tags": {
    "amenity": "grave_yard"
  }
},
{
  "type": "way",
  "id": 38079681,
  "center": {
    "lat": 51.4960058,
    "lon": 12.9971571
  },
  "nodes": [
    447875687,
    2687531685,
    447875688,
    2687531669,
    447875690,
    447875689,
    2687531686,
    447875687
  ],
  "tags": {
    "landuse": "cemetery"
  }
},
{
  "type": "way",
  "id": 38117746,
  "center": {
    "lat": 51.1758547,
    "lon": 12.3689493
  },
  "nodes": [
    448469608,
    448469609,
    448469610,
    448469611,
    448469612,
    448469608
  ],
  "tags": {
    "landuse": "cemetery",
    "source": "Hochbefliegung LMBVmbH 2.Hj.2007"
  }
},
{
  "type": "way",
  "id": 38144063,
  "center": {
    "lat": 51.6063270,
    "lon": 12.2812933
  },
  "nodes": [
    448927867,
    448927868,
    448919038,
    448927869,
    448927870,
    448927867
  ],
  "tags": {
    "landuse": "cemetery"
  }
},
{
  "type": "way",
  "id": 38209839,
  "center": {
    "lat": 51.6642187,
    "lon": 12.2541343
  },
  "nodes": [
    450152796,
    3785177852,
    3785168054,
    3785168055,
    450152799,
    3785177853,
    3785177854,
    450152803,
    450152806,
    450152808,
    1302741002,
    1302741037,
    450152715,
    450152709,
    450152711,
    1302741105,
    1302741077,
    1302741033,
    1302740968,
    1302741098,
    1302740986,
    1302741014,
    1302741112,
    450152736,
    450152733,
    450152731,
    450152810,
    1302741026,
    450152814,
    450152837,
    450152835,
    450152817,
    450152818,
    3785189403,
    3785169459,
    3785169458,
    3785169579,
    3785193407,
    3785169457,
    450152796
  ],
  "tags": {
    "landuse": "cemetery",
    "name": "Neuer Friedhof"
  }
},
{
  "type": "way",
  "id": 38249399,
  "center": {
    "lat": 51.3976076,
    "lon": 12.9851521
  },
  "nodes": [
    10169878470,
    10742384480,
    10742384479,
    10742384478,
    10742384481,
    1183579112,
    10169878466,
    450943271,
    450943273,
    3215544405,
    10169878469,
    10169878459,
    10169878458,
    10169878460,
    10742384475,
    10169878457,
    10169878461,
    10169878470
  ],
  "tags": {
    "landuse": "cemetery"
  }
},
{
  "type": "way",
  "id": 38966946,
  "center": {
    "lat": 51.2568865,
    "lon": 12.1324478
  },
  "nodes": [
    463283109,
    463283110,
    463283111,
    463283112,
    463283109
  ],
  "tags": {
    "denomination": "protestant",
    "landuse": "cemetery",
    "religion": "christian"
  }
},
{
  "type": "way",
  "id": 39301135,
  "center": {
    "lat": 51.1023195,
    "lon": 12.5151604
  },
  "nodes": [
    470936019,
    470936020,
    470936024,
    470936026,
    470936027,
    470936028,
    6151692292,
    470936029,
    6151692309,
    6151692287,
    470936030,
    470936031,
    6151692285,
    6151692286,
    470936033,
    470936034,
    470936019
  ],
  "tags": {
    "landuse": "cemetery",
    "name": "Friedhof Zedtlitz"
  }
},
{
  "type": "way",
  "id": 39425280,
  "center": {
    "lat": 51.1131632,
    "lon": 12.4255851
  },
  "nodes": [
    472285640,
    472285641,
    472285642,
    472285643,
    472285644,
    472285645,
    472285646,
    472285647,
    472285648,
    472285649,
    472285650,
    472285651,
    472285652,
    472285640
  ],
  "tags": {
    "landuse": "cemetery",
    "name": "Friedhof Deutzen",
    "source": "Bing"
  }
},
{
  "type": "way",
  "id": 39468521,
  "center": {
    "lat": 51.5139284,
    "lon": 12.1617027
  },
  "nodes": [
    472656569,
    472656572,
    3073842041,
    472656571,
    3200863301,
    472656570,
    472656569
  ],
  "tags": {
    "barrier": "wall",
    "landuse": "cemetery"
  }
},
{
  "type": "way",
  "id": 39634770,
  "center": {
    "lat": 51.6283037,
    "lon": 12.2035870
  },
  "nodes": [
    475106890,
    475106892,
    475106894,
    475106897,
    475106904,
    475106890
  ],
  "tags": {
    "amenity": "grave_yard"
  }
},
{
  "type": "way",
  "id": 40028118,
  "center": {
    "lat": 51.5232896,
    "lon": 12.1649607
  },
  "nodes": [
    5512775806,
    481276450,
    4570473452,
    481276475,
    3622082480,
    4570473474,
    3622082477,
    4570473466,
    5512775806
  ],
  "tags": {
    "landuse": "cemetery",
    "name": "Friedhof Landsberg",
    "religion": "christian"
  }
},
{
  "type": "way",
  "id": 41312452,
  "center": {
    "lat": 51.5336351,
    "lon": 12.1502286
  },
  "nodes": [
    505136523,
    505136530,
    631606713,
    631606711,
    631606712,
    9677826297,
    505136540,
    505136545,
    505136547,
    505136549,
    505136558,
    2659916023,
    2677159681,
    2677159709,
    12839464335,
    505136561,
    505136523
  ],
  "tags": {
    "barrier": "wall",
    "landuse": "cemetery"
  }
},
{
  "type": "way",
  "id": 41592486,
  "center": {
    "lat": 51.0616973,
    "lon": 12.2647466
  },
  "nodes": [
    510616526,
    510616527,
    510616528,
    510616529,
    510616530,
    510616526
  ],
  "tags": {
    "landuse": "cemetery",
    "source": "Hochbefliegung LMBVmbH 2.Hj.2007"
  }
},
{
  "type": "way",
  "id": 41714051,
  "center": {
    "lat": 51.5804294,
    "lon": 12.2692124
  },
  "nodes": [
    513461973,
    3754413354,
    3123758460,
    3754413353,
    3754413352,
    513461976,
    3123758579,
    513461979,
    3123758580,
    3123758581,
    1311002294,
    1311002325,
    10082926232,
    513461973
  ],
  "tags": {
    "landuse": "cemetery"
  }
},
{
  "type": "way",
  "id": 41846685,
  "center": {
    "lat": 51.1958499,
    "lon": 12.4123157
  },
  "nodes": [
    517310466,
    517310467,
    517310469,
    517310470,
    517310471,
    517310474,
    517310475,
    517310476,
    517310478,
    517310484,
    517310486,
    517310488,
    517310491,
    517310493,
    517310498,
    517310500,
    517310503,
    517310504,
    517310466
  ],
  "tags": {
    "landuse": "cemetery",
    "name": "Marienfriedhof",
    "source": "Hochbefliegung LMBVmbH 2.Hj.2007"
  }
},
{
  "type": "way",
  "id": 41847528,
  "center": {
    "lat": 51.1996367,
    "lon": 12.4232143
  },
  "nodes": [
    517329766,
    12458485562,
    517329767,
    517329768,
    517329769,
    517329770,
    517329771,
    517329772,
    12458485553,
    517329773,
    12458485568,
    12458485565,
    12458485563,
    12458485564,
    12458485566,
    12458485567,
    12458485569,
    12458485558,
    12458485557,
    12458485556,
    12458485555,
    12458485554,
    12458485559,
    12458485561,
    12458485560,
    517329766
  ],
  "tags": {
    "landuse": "cemetery",
    "name": "Städtischer Friedhof",
    "source": "Hochbefliegung LMBVmbH 2.Hj.2007"
  }
},
{
  "type": "way",
  "id": 42512234,
  "center": {
    "lat": 51.8397167,
    "lon": 12.2206153
  },
  "nodes": [
    530856359,
    530856364,
    530856366,
    530856362,
    530856359
  ],
  "tags": {
    "amenity": "grave_yard",
    "denomination": "protestant",
    "religion": "christian"
  }
},
{
  "type": "way",
  "id": 43546804,
  "center": {
    "lat": 51.1503257,
    "lon": 12.7622416
  },
  "nodes": [
    4623146957,
    4623146960,
    4623146958,
    4623146959,
    4623146954,
    549771310,
    619774737,
    4623146956,
    4623146955,
    549771311,
    549771312,
    549771313,
    549771314,
    4623146896,
    4769041116,
    549771315,
    4623146962,
    549771316,
    549771303,
    549771318,
    4623146953,
    4623146961,
    4623146957
  ],
  "tags": {
    "denomination": "protestant",
    "landuse": "cemetery",
    "name": "Friedhof Schönbach",
    "religion": "christian"
  }
},
{
  "type": "way",
  "id": 43829179,
  "center": {
    "lat": 51.2190108,
    "lon": 12.4678923
  },
  "nodes": [
    555896385,
    555896404,
    2917103031,
    555896427,
    555896444,
    2432769850,
    555896456,
    2432769846,
    354384679,
    3593360219,
    3593360217,
    555896581,
    3593360218,
    555896605,
    555896629,
    555896652,
    555896385
  ],
  "tags": {
    "amenity": "grave_yard",
    "denomination": "lutheran"
  }
},
{
  "type": "way",
  "id": 44826672,
  "center": {
    "lat": 51.5028619,
    "lon": 12.0116463
  },
  "nodes": [
    568335711,
    3285979536,
    568335712,
    568335713,
    568335708,
    568335711
  ],
  "tags": {
    "landuse": "cemetery",
    "name": "Tierfriedhof"
  }
},
{
  "type": "way",
  "id": 46554704,
  "center": {
    "lat": 51.9605335,
    "lon": 12.8863104
  },
  "nodes": [
    583395394,
    583395393,
    583402948,
    583402949,
    583395394
  ],
  "tags": {
    "landuse": "cemetery",
    "name": "Friedhof Blönsdorf"
  }
},
{
  "type": "way",
  "id": 47081268,
  "center": {
    "lat": 51.0036398,
    "lon": 12.6799885
  },
  "nodes": [
    600436160,
    600436138,
    600436145,
    600436144,
    600436162,
    600436163,
    600436165,
    600436159,
    600436156,
    600436160
  ],
  "tags": {
    "denomination": "protestant",
    "landuse": "cemetery",
    "religion": "christian"
  }
},
{
  "type": "way",
  "id": 47205644,
  "center": {
    "lat": 51.0365175,
    "lon": 12.8794457
  },
  "nodes": [
    601553357,
    601553361,
    601553354,
    601553359,
    601553366,
    601553342,
    601553347,
    601553344,
    3046857663,
    601553353,
    601553357
  ],
  "tags": {
    "denomination": "protestant",
    "landuse": "cemetery",
    "religion": "christian"
  }
},
{
  "type": "way",
  "id": 47207072,
  "center": {
    "lat": 51.0319699,
    "lon": 12.9231493
  },
  "nodes": [
    601574305,
    6982096957,
    6982096958,
    6982096959,
    601574277,
    601574278,
    601574292,
    6982096954,
    601574303,
    601574296,
    601574306,
    6982096955,
    6982096956,
    601574305
  ],
  "tags": {
    "denomination": "protestant",
    "landuse": "cemetery",
    "religion": "christian"
  }
},
{
  "type": "way",
  "id": 48925161,
  "center": {
    "lat": 51.4311886,
    "lon": 12.6844576
  },
  "nodes": [
    270478485,
    631150957,
    620892240,
    729813447,
    729813446,
    620892241,
    729813452,
    620892243,
    270478483,
    729813455,
    270478484,
    270478485
  ],
  "tags": {
    "landuse": "cemetery"
  }
},
{
  "type": "way",
  "id": 49185944,
  "center": {
    "lat": 51.6875862,
    "lon": 12.2967571
  },
  "nodes": [
    623941982,
    2567747514,
    3470241296,
    623941935,
    3470223091,
    3470223090,
    623941961,
    2567747506,
    2567747510,
    2567747520,
    2567747493,
    2567747509,
    12938400122,
    623941982
  ],
  "tags": {
    "landuse": "cemetery",
    "name": "Friedhof"
  }
},
{
  "type": "way",
  "id": 49677138,
  "center": {
    "lat": 51.7155681,
    "lon": 12.1803945
  },
  "nodes": [
    631454312,
    3736007668,
    3736007669,
    3736007666,
    1117484549,
    631454311,
    631454312
  ],
  "tags": {
    "landuse": "cemetery"
  }
},
{
  "type": "way",
  "id": 50219814,
  "center": {
    "lat": 51.7034068,
    "lon": 12.0563969
  },
  "nodes": [
    638354131,
    638354136,
    638354137,
    638354138,
    638354131
  ],
  "tags": {
    "landuse": "cemetery",
    "name": "Friedhof Prosigk"
  }
},
{
  "type": "way",
  "id": 50220304,
  "center": {
    "lat": 51.6964135,
    "lon": 12.0733054
  },
  "nodes": [
    638357951,
    638357952,
    638357953,
    638357954,
    638357951
  ],
  "tags": {
    "amenity": "grave_yard",
    "name": "Friedhof Cosa"
  }
},
{
  "type": "way",
  "id": 50220305,
  "center": {
    "lat": 51.7103251,
    "lon": 12.0854906
  },
  "nodes": [
    638357970,
    638357971,
    638357972,
    638357973,
    638357968,
    638357970
  ],
  "tags": {
    "amenity": "grave_yard",
    "name": "Friedhof Ziebigk"
  }
},
{
  "type": "way",
  "id": 50225758,
  "center": {
    "lat": 51.7189830,
    "lon": 12.0950818
  },
  "nodes": [
    638404498,
    638404509,
    10314954013,
    638404521,
    10314954014,
    10314954015,
    10314954012,
    10314954011,
    10314954010,
    638404526,
    10314954009,
    10314904208,
    638404498
  ],
  "tags": {
    "amenity": "grave_yard",
    "name": "Friedhof Meilendorf",
    "religion": "christian"
  }
},
{
  "type": "way",
  "id": 51414721,
  "center": {
    "lat": 51.0248350,
    "lon": 12.6676418
  },
  "nodes": [
    656339440,
    656339442,
    2206393344,
    656339449,
    656339438,
    656339440
  ],
  "tags": {
    "denomination": "protestant",
    "landuse": "cemetery",
    "religion": "christian"
  }
},
{
  "type": "way",
  "id": 51417388,
  "center": {
    "lat": 51.0254471,
    "lon": 12.6646176
  },
  "nodes": [
    656388413,
    2064213108,
    2064213085,
    2064213081,
    656388418,
    2064213042,
    656388426,
    656388427,
    2064213053,
    656388428,
    2064213120,
    2064213128,
    656388413
  ],
  "tags": {
    "denomination": "protestant",
    "landuse": "cemetery",
    "religion": "christian"
  }
},
{
  "type": "way",
  "id": 51421731,
  "center": {
    "lat": 51.0731998,
    "lon": 12.6278953
  },
  "nodes": [
    2601150734,
    701034152,
    701034147,
    701034120,
    701034141,
    701034113,
    2934430152,
    2934430155,
    2934430156,
    2934430157,
    2934430159,
    2601150734
  ],
  "tags": {
    "denomination": "protestant",
    "landuse": "cemetery",
    "religion": "christian"
  }
},
{
  "type": "way",
  "id": 51422144,
  "center": {
    "lat": 51.0822367,
    "lon": 12.6528534
  },
  "nodes": [
    656406690,
    656406691,
    656406692,
    2216092061,
    10675594522,
    656408863,
    2216092045,
    2216092039,
    656406682,
    656406683,
    2216092005,
    656406684,
    2216091962,
    656406686,
    656406687,
    656408880,
    2216091963,
    656408882,
    656406688,
    2216092020,
    2216092047,
    8594417704,
    2214964483,
    10675594542,
    2214964498,
    8594417703,
    656406693,
    656406694,
    656408890,
    8594417673,
    656406690
  ],
  "tags": {
    "denomination": "protestant",
    "landuse": "cemetery",
    "religion": "christian"
  }
},
{
  "type": "way",
  "id": 51423288,
  "center": {
    "lat": 51.0879600,
    "lon": 12.6889087
  },
  "nodes": [
    656419141,
    656419098,
    656419100,
    656419101,
    656419104,
    2166646350,
    2166646347,
    656419086,
    656419095,
    2166646321,
    656419135,
    656419144,
    1127993328,
    656419141
  ],
  "tags": {
    "amenity": "grave_yard",
    "denomination": "protestant",
    "religion": "christian"
  }
},
{
  "type": "way",
  "id": 51423971,
  "center": {
    "lat": 51.1015890,
    "lon": 12.6608513
  },
  "nodes": [
    656432372,
    656432376,
    656432378,
    1129552692,
    656432380,
    656432370,
    9589185240,
    656432359,
    1129552542,
    9589185241,
    9589190591,
    656432360,
    9589128071,
    656432362,
    1129553978,
    656432382,
    656435833,
    9589190592,
    656432372
  ],
  "tags": {
    "amenity": "grave_yard",
    "barrier": "wall",
    "denomination": "protestant",
    "religion": "christian"
  }
},
{
  "type": "way",
  "id": 51570525,
  "center": {
    "lat": 51.7183542,
    "lon": 12.2198047
  },
  "nodes": [
    9741096479,
    9741078685,
    659535346,
    659535348,
    9741096474,
    9741096479
  ],
  "tags": {
    "landuse": "cemetery",
    "religion": "christian"
  }
},
{
  "type": "way",
  "id": 51900195,
  "center": {
    "lat": 51.9699804,
    "lon": 12.8635453
  },
  "nodes": [
    662259894,
    662259895,
    662259896,
    662259897,
    662259894
  ],
  "tags": {
    "amenity": "grave_yard"
  }
},
{
  "type": "way",
  "id": 52286145,
  "center": {
    "lat": 51.6749757,
    "lon": 12.1287530
  },
  "nodes": [
    665383168,
    665383163,
    665383165,
    665383170,
    2954773454,
    2954773453,
    2954773451,
    2954773450,
    665383168
  ],
  "tags": {
    "amenity": "grave_yard"
  }
},
{
  "type": "way",
  "id": 52286146,
  "center": {
    "lat": 51.6565012,
    "lon": 12.0918786
  },
  "nodes": [
    12188682651,
    5387140753,
    12188682658,
    12188682657,
    12188682656,
    12188682659,
    5387140752,
    12188682650,
    665383155,
    665383147,
    12188682649,
    1356943503,
    665383150,
    12188682646,
    1356943500,
    12188682651
  ],
  "tags": {
    "amenity": "grave_yard",
    "barrier": "fence"
  }
},
{
  "type": "way",
  "id": 52287267,
  "center": {
    "lat": 51.6366522,
    "lon": 12.0269833
  },
  "nodes": [
    665409658,
    2956204836,
    665409660,
    665409661,
    665409662,
    665409658
  ],
  "tags": {
    "amenity": "grave_yard"
  }
},
{
  "type": "way",
  "id": 52935377,
  "center": {
    "lat": 51.2413981,
    "lon": 12.1210040
  },
  "nodes": [
    670801903,
    670801904,
    670801905,
    670801906,
    10700393230,
    670801903
  ],
  "tags": {
    "denomination": "protestant",
    "landuse": "cemetery",
    "religion": "christian"
  }
},
{
  "type": "way",
  "id": 53786039,
  "center": {
    "lat": 51.1598810,
    "lon": 12.2768330
  },
  "nodes": [
    678978898,
    6712088920,
    678978780,
    678978992,
    678978860,
    679646192,
    679646203,
    678978898
  ],
  "tags": {
    "landuse": "cemetery",
    "name": "Friedhof",
    "religion": "christian",
    "source": "yahoo"
  }
},
{
  "type": "way",
  "id": 53863154,
  "center": {
    "lat": 51.4920024,
    "lon": 12.0108543
  },
  "nodes": [
    680037253,
    680037250,
    680037259,
    680037262,
    680037253
  ],
  "tags": {
    "landuse": "cemetery",
    "name": "Friedhof Diemitz",
    "operator:type": "public",
    "url": "https://www.halle.de/Publications/174/sr_707-11_lesefassung_friedhofsatzung_f_r_die_komm.pdf",
    "website": "https://www.halle.de/de/Kultur/Freizeit/index.aspx?RecID=1140",
    "wikidata": "Q23785840"
  }
},
{
  "type": "way",
  "id": 54170545,
  "center": {
    "lat": 51.5994880,
    "lon": 12.0630210
  },
  "nodes": [
    683274791,
    683274793,
    683274794,
    683274795,
    683274770,
    683274767,
    683274774,
    683274796,
    683274791
  ],
  "tags": {
    "landuse": "cemetery"
  }
},
{
  "type": "way",
  "id": 54186351,
  "center": {
    "lat": 51.7280614,
    "lon": 12.2850329
  },
  "nodes": [
    683479422,
    683479424,
    683479425,
    683479427,
    683479422
  ],
  "tags": {
    "landuse": "cemetery",
    "name:signed": "no",
    "religion": "christian"
  }
},
{
  "type": "way",
  "id": 54190072,
  "center": {
    "lat": 51.7146492,
    "lon": 12.2897740
  },
  "nodes": [
    683549483,
    2925900330,
    683549481,
    2925900341,
    683549492,
    2925900334,
    683549482,
    683549483
  ],
  "tags": {
    "amenity": "grave_yard",
    "religion": "christian"
  }
},
{
  "type": "way",
  "id": 54237676,
  "center": {
    "lat": 51.2571626,
    "lon": 12.0605879
  },
  "nodes": [
    683910772,
    683910773,
    683910774,
    683910775,
    683910776,
    683910772
  ],
  "tags": {
    "amenity": "grave_yard"
  }
},
{
  "type": "way",
  "id": 54370890,
  "center": {
    "lat": 51.7924484,
    "lon": 12.2607306
  },
  "nodes": [
    685176368,
    1366568116,
    685176371,
    685176376,
    685176373,
    1366568101,
    11771877779,
    1366568105,
    1366568117,
    2211008755,
    1366568099,
    1366568115,
    685176368
  ],
  "tags": {
    "amenity": "grave_yard",
    "name": "Friedhof Törten",
    "religion": "christian"
  }
},
{
  "type": "way",
  "id": 54630693,
  "center": {
    "lat": 51.5019247,
    "lon": 12.0577927
  },
  "nodes": [
    687714682,
    687714770,
    4919883149,
    4919883150,
    687714771,
    687714772,
    687714773,
    8869524475,
    687714694,
    9292242927,
    9292242928,
    687714684,
    687714682
  ],
  "tags": {
    "barrier": "fence",
    "landuse": "cemetery"
  }
},
{
  "type": "way",
  "id": 54639103,
  "center": {
    "lat": 51.5870746,
    "lon": 12.0703019
  },
  "nodes": [
    687798476,
    687798477,
    332510763,
    10149022644,
    687798479,
    687798480,
    10149022625,
    10149022626,
    687798476
  ],
  "tags": {
    "landuse": "cemetery"
  }
},
{
  "type": "way",
  "id": 54640517,
  "center": {
    "lat": 51.5711965,
    "lon": 12.0499244
  },
  "nodes": [
    687825842,
    9951384233,
    9951384234,
    687825847,
    9951384235,
    687825849,
    9951384236,
    687825845,
    9989063739,
    687825842
  ],
  "tags": {
    "landuse": "cemetery"
  }
},
{
  "type": "way",
  "id": 54643648,
  "center": {
    "lat": 51.5520120,
    "lon": 12.0337608
  },
  "nodes": [
    687874309,
    687874313,
    687874312,
    687874302,
    9067705831,
    9067705832,
    9067705830,
    2966746035,
    687874300,
    687874309
  ],
  "tags": {
    "landuse": "cemetery"
  }
},
{
  "type": "way",
  "id": 54644004,
  "center": {
    "lat": 51.3648251,
    "lon": 13.0006719
  },
  "nodes": [
    687884482,
    5955249431,
    5955249434,
    5955249443,
    5955249441,
    5955249439,
    1260642025,
    1225982453,
    5955249447,
    5940033511,
    5955249419,
    5955249423,
    1260642017,
    5955249422,
    1260642023,
    687884482
  ],
  "tags": {
    "landuse": "cemetery",
    "name": "Friedhof Dahlen"
  }
},
{
  "type": "way",
  "id": 56872006,
  "center": {
    "lat": 51.4847348,
    "lon": 12.0457542
  },
  "nodes": [
    710779190,
    710779188,
    710779189,
    710779193,
    710779194,
    710779195,
    710779196,
    710779191,
    710779190
  ],
  "tags": {
    "landuse": "cemetery"
  }
},
{
  "type": "way",
  "id": 56872964,
  "center": {
    "lat": 51.4858286,
    "lon": 12.0513844
  },
  "nodes": [
    710781719,
    710781725,
    710781732,
    710781735,
    1067780759,
    710781728,
    710781730,
    710781719
  ],
  "tags": {
    "denomination": "protestant",
    "landuse": "cemetery",
    "name": "Friedhof Reideburg",
    "religion": "christian"
  }
},
{
  "type": "way",
  "id": 56892995,
  "center": {
    "lat": 51.5002562,
    "lon": 12.0960521
  },
  "nodes": [
    710816743,
    710816748,
    710816726,
    710816730,
    710816733,
    710816746,
    710816743
  ],
  "tags": {
    "landuse": "cemetery"
  }
},
{
  "type": "way",
  "id": 56908276,
  "center": {
    "lat": 51.6148721,
    "lon": 12.0617732
  },
  "nodes": [
    710854783,
    710854787,
    10149021496,
    710854788,
    710854800,
    10149021452,
    710854802,
    710854794,
    710854795,
    10149021486,
    10149021487,
    5353958523,
    710854783
  ],
  "tags": {
    "landuse": "cemetery"
  }
},
{
  "type": "way",
  "id": 56911429,
  "center": {
    "lat": 51.6194113,
    "lon": 12.0369519
  },
  "nodes": [
    710868104,
    710868114,
    710868116,
    710868117,
    710868119,
    710868104
  ],
  "tags": {
    "landuse": "cemetery"
  }
},
{
  "type": "way",
  "id": 59294885,
  "center": {
    "lat": 51.9562937,
    "lon": 12.2983692
  },
  "nodes": [
    735256038,
    1274546782,
    1278549895,
    735255748,
    735255562,
    735255743,
    735255948,
    735256038
  ],
  "tags": {
    "amenity": "grave_yard"
  }
},
{
  "type": "way",
  "id": 59428161,
  "center": {
    "lat": 51.0270849,
    "lon": 12.2600134
  },
  "nodes": [
    736935167,
    736935740,
    736935229,
    736935612,
    736935007,
    736935299,
    736935646,
    736935097,
    736935570,
    736935027,
    736935352,
    736935193,
    736935542,
    736935111,
    736935522,
    736935750,
    736935167
  ],
  "tags": {
    "landuse": "cemetery",
    "source": "Hochbefliegung LMBVmbH 2.Hj.2007"
  }
},
{
  "type": "way",
  "id": 59966163,
  "center": {
    "lat": 51.0457743,
    "lon": 12.1907322
  },
  "nodes": [
    745584453,
    745584827,
    745584759,
    745584404,
    745584878,
    745584535,
    745584448,
    745584453
  ],
  "tags": {
    "barrier": "wall",
    "landuse": "cemetery",
    "source": "Hochbefliegung LMBVmbH 2.Hj.2007"
  }
},
{
  "type": "way",
  "id": 59985140,
  "center": {
    "lat": 51.5744620,
    "lon": 12.1299446
  },
  "nodes": [
    8251455365,
    745734716,
    745734713,
    745734714,
    745734706,
    8251455370,
    8251455365
  ],
  "tags": {
    "landuse": "cemetery"
  }
},
{
  "type": "way",
  "id": 61744240,
  "center": {
    "lat": 51.4127606,
    "lon": 12.8063133
  },
  "nodes": [
    769330728,
    769330743,
    6562735615,
    6562735616,
    6562735617,
    6562735618,
    6562735619,
    769330722,
    769330731,
    769330728
  ],
  "tags": {
    "landuse": "cemetery",
    "name": "Friedhof Hohburg",
    "religion": "christian"
  }
},
{
  "type": "way",
  "id": 64047798,
  "center": {
    "lat": 51.0653703,
    "lon": 12.1336883
  },
  "nodes": [
    2076488455,
    790042219,
    790041980,
    790042118,
    790042182,
    790042137,
    2076488455
  ],
  "tags": {
    "landuse": "cemetery",
    "name": "Friedhof Aue-Aylsdorf"
  }
},
{
  "type": "way",
  "id": 64234408,
  "center": {
    "lat": 51.0709774,
    "lon": 12.1847425
  },
  "nodes": [
    791241919,
    791242000,
    791241982,
    791241902,
    791241919
  ],
  "tags": {
    "amenity": "grave_yard",
    "source": "Hochbefliegung LMBVmbH 2.Hj.2007"
  }
},
{
  "type": "way",
  "id": 65011746,
  "center": {
    "lat": 51.8904289,
    "lon": 12.2403662
  },
  "nodes": [
    796253709,
    3366502273,
    6020199985,
    3366502271,
    796253705,
    796252747,
    796253707,
    796253711,
    796253709
  ],
  "tags": {
    "landuse": "cemetery",
    "name": "Friedhof II",
    "operator": "Stadt Dessau-Roßlau",
    "website": "https://stadtpflege.dessau-rosslau.de/friedhofswesen/"
  }
},
{
  "type": "way",
  "id": 65413568,
  "center": {
    "lat": 51.7414615,
    "lon": 12.2012042
  },
  "nodes": [
    798820846,
    798820841,
    798820848,
    798820844,
    10266306786,
    10266306785,
    798820846
  ],
  "tags": {
    "amenity": "grave_yard",
    "religion": "christian"
  }
},
{
  "type": "way",
  "id": 66759476,
  "center": {
    "lat": 51.7587958,
    "lon": 12.2939378
  },
  "nodes": [
    807107265,
    807107268,
    807107250,
    12291992686,
    12291992685,
    807107271,
    807107252,
    807107265
  ],
  "tags": {
    "amenity": "grave_yard",
    "name": "Friedhof Niesau",
    "religion": "christian"
  }
},
{
  "type": "way",
  "id": 67232082,
  "center": {
    "lat": 51.3661271,
    "lon": 12.7515517
  },
  "nodes": [
    811837686,
    960894438,
    1251411025,
    1254058777,
    9384760885,
    811837691,
    9384760880,
    9384760881,
    811837692,
    811837694,
    811837688,
    1254058725,
    1254058801,
    811837689,
    811837686
  ],
  "tags": {
    "landuse": "cemetery",
    "name": "Friedhof Wurzen",
    "opening_hours": "Jan,Feb,Nov,Dec: 07:30-17:00; Mar,Oct: 07:30-18:00; Apr,Sep: 07:30-19:00; May-Aug: 07:30-20:00",
    "wikidata": "Q49562423"
  }
},
{
  "type": "way",
  "id": 69104153,
  "center": {
    "lat": 51.3452235,
    "lon": 12.7627295
  },
  "nodes": [
    834026471,
    1096664280,
    834026404,
    1096664434,
    829065824,
    834026497,
    846373457,
    846373437,
    829260329,
    846373452,
    1006165420,
    1006164961,
    843148903,
    829065826,
    846373461,
    834026512,
    834026471
  ],
  "tags": {
    "amenity": "grave_yard"
  }
},
{
  "type": "way",
  "id": 71836436,
  "center": {
    "lat": 51.6818592,
    "lon": 12.5378038
  },
  "nodes": [
    853724054,
    7035940436,
    7035940437,
    853724060,
    853724063,
    853724066,
    853724054
  ],
  "tags": {
    "amenity": "grave_yard"
  }
},
{
  "type": "way",
  "id": 71904022,
  "center": {
    "lat": 51.6304346,
    "lon": 12.2689809
  },
  "nodes": [
    854697205,
    279671660,
    854697255,
    348097869,
    279671662,
    348097866,
    279671666,
    6205730365,
    854697274,
    6205393966,
    6205393968,
    279671672,
    349085579,
    279671658,
    854697238,
    331268400,
    854697302,
    854697205
  ],
  "tags": {
    "landuse": "cemetery"
  }
},
{
  "type": "way",
  "id": 75685532,
  "center": {
    "lat": 51.3204849,
    "lon": 12.1205182
  },
  "nodes": [
    893481400,
    893481428,
    893481436,
    2079500930,
    893481403,
    893481400
  ],
  "tags": {
    "landuse": "cemetery"
  }
},
{
  "type": "way",
  "id": 76071246,
  "center": {
    "lat": 51.3485258,
    "lon": 12.5390311
  },
  "nodes": [
    897468125,
    897468126,
    897468127,
    897468129,
    897468125
  ],
  "tags": {
    "amenity": "grave_yard",
    "landuse": "cemetery"
  }
},
{
  "type": "way",
  "id": 76074953,
  "center": {
    "lat": 51.3320977,
    "lon": 12.5439301
  },
  "nodes": [
    897520069,
    2180090096,
    2180090098,
    897520065,
    2180090097,
    2180090095,
    897520070,
    897520073,
    897520074,
    897520069
  ],
  "tags": {
    "landuse": "cemetery"
  }
},
{
  "type": "way",
  "id": 76236112,
  "center": {
    "lat": 51.4645639,
    "lon": 12.7192846
  },
  "nodes": [
    4211195672,
    4211195648,
    4211195646,
    4211195645,
    4211195643,
    4211195642,
    899357279,
    4209630840,
    331303349,
    4211195626,
    4211195638,
    4211195672
  ],
  "tags": {
    "landuse": "cemetery"
  }
},
{
  "type": "way",
  "id": 76379795,
  "center": {
    "lat": 51.4212632,
    "lon": 12.4212515
  },
  "nodes": [
    900889997,
    922570589,
    922081454,
    922081222,
    900890000,
    922081422,
    900890003,
    922081341,
    922081193,
    922081232,
    900890005,
    900890009,
    922081359,
    900890011,
    900889997
  ],
  "tags": {
    "denomination": "protestant",
    "landuse": "cemetery",
    "religion": "christian"
  }
},
{
  "type": "way",
  "id": 76924789,
  "center": {
    "lat": 51.0777742,
    "lon": 12.8981524
  },
  "nodes": [
    3420645061,
    8163621527,
    906041642,
    906041313,
    906041601,
    8142406065,
    906041159,
    8142406025,
    2013013491,
    8142406064,
    8142406084,
    3420645062,
    8142406066,
    8142406027,
    8142406028,
    3420645061
  ],
  "tags": {
    "landuse": "cemetery",
    "name": "Friedhof Geringswalde"
  }
},
{
  "type": "way",
  "id": 77107758,
  "center": {
    "lat": 51.0056419,
    "lon": 12.6003311
  },
  "nodes": [
    907934230,
    9401087033,
    907934140,
    907934405,
    3125475298,
    907934207,
    907934157,
    907934230
  ],
  "tags": {
    "amenity": "grave_yard"
  }
},
{
  "type": "way",
  "id": 80746669,
  "center": {
    "lat": 51.3262799,
    "lon": 12.8048083
  },
  "nodes": [
    941641190,
    9021379968,
    1458835916,
    1458835919,
    1458835921,
    941641122,
    941640913,
    1458835931,
    941641045,
    941641190
  ],
  "tags": {
    "landuse": "cemetery"
  }
},
{
  "type": "way",
  "id": 81932549,
  "center": {
    "lat": 51.2705182,
    "lon": 12.5003166
  },
  "nodes": [
    954762361,
    954762469,
    6080905781,
    6080905780,
    6080905784,
    6080906085,
    954762414,
    954762385,
    6080906086,
    954762475,
    954762361
  ],
  "tags": {
    "denomination": "lutheran",
    "landuse": "cemetery",
    "religion": "christian"
  }
},
{
  "type": "way",
  "id": 83696376,
  "center": {
    "lat": 51.2098343,
    "lon": 12.4790244
  },
  "nodes": [
    974563379,
    974583980,
    974583931,
    974584021,
    974583978,
    974583929,
    9714206797,
    974583875,
    3595034610,
    974584035,
    3595034611,
    974584071,
    974563379
  ],
  "tags": {
    "amenity": "grave_yard",
    "source": "Hochbefliegung LMBVmbH 07/2010"
  }
},
{
  "type": "way",
  "id": 85253272,
  "center": {
    "lat": 51.9751275,
    "lon": 12.9207680
  },
  "nodes": [
    988612240,
    988612206,
    988612242,
    3175343186,
    988612184,
    988612235,
    3175343187,
    988612169,
    988612240
  ],
  "tags": {
    "amenity": "grave_yard",
    "name": "Dalichow"
  }
},
{
  "type": "way",
  "id": 85987625,
  "center": {
    "lat": 51.0165447,
    "lon": 12.5724880
  },
  "nodes": [
    998041936,
    3046800131,
    1011110041,
    3046800130,
    998042013,
    998041926,
    3046800118,
    998041930,
    998041963,
    1011110052,
    998041936
  ],
  "tags": {
    "denomination": "protestant",
    "landuse": "cemetery",
    "religion": "christian"
  }
},
{
  "type": "way",
  "id": 88700684,
  "center": {
    "lat": 51.0462280,
    "lon": 12.1517568
  },
  "nodes": [
    10805096076,
    10805096075,
    10805096074,
    10805096073,
    10805096072,
    1029756110,
    1029756114,
    1029756119,
    1029756093,
    5299741996,
    1029756096,
    1029756099,
    1029756112,
    1029804630,
    1029756116,
    1029756122,
    1029804596,
    1029756102,
    10805096076
  ],
  "tags": {
    "denomination": "lutheran",
    "landuse": "cemetery",
    "name": "Michaelisfriedhof",
    "religion": "christian"
  }
},
{
  "type": "way",
  "id": 88742231,
  "center": {
    "lat": 51.3425439,
    "lon": 12.8410737
  },
  "nodes": [
    1030090625,
    1296189338,
    1030090782,
    1033645886,
    1033639082,
    846272376,
    8952270398,
    1033644770,
    1033640813,
    1030089900,
    1296189361,
    1030090329,
    8952149926,
    1033639883,
    1030090625
  ],
  "tags": {
    "amenity": "grave_yard"
  }
},
{
  "type": "way",
  "id": 88908353,
  "center": {
    "lat": 51.2965835,
    "lon": 12.8444581
  },
  "nodes": [
    1032026228,
    2484168275,
    1032028612,
    951851732,
    951852050,
    1032026228
  ],
  "tags": {
    "amenity": "grave_yard"
  }
},
{
  "type": "way",
  "id": 89045791,
  "center": {
    "lat": 51.0986393,
    "lon": 12.9795834
  },
  "nodes": [
    1033256852,
    1033256905,
    1033256847,
    5228085630,
    1033256934,
    1033256878,
    5229898156,
    10201702567,
    5229898173,
    10201702565,
    10201702563,
    10201702564,
    10201702566,
    5229898172,
    5229898175,
    6854696018,
    6854696019,
    6854696020,
    6854696021,
    5228085411,
    6854696022,
    6854696023,
    6854696024,
    1033256919,
    6854696025,
    6854696026,
    6854696027,
    4010141859,
    1057620802,
    6854696017,
    5206721559,
    6854696028,
    1033256864,
    1033256852
  ],
  "tags": {
    "landuse": "cemetery"
  }
},
{
  "type": "way",
  "id": 90151306,
  "center": {
    "lat": 51.5666157,
    "lon": 12.9308929
  },
  "nodes": [
    980093951,
    2086954591,
    4976705098,
    2086954604,
    4976705105,
    1045143861,
    980093944,
    980093951
  ],
  "tags": {
    "barrier": "wall",
    "landuse": "cemetery"
  }
},
{
  "type": "way",
  "id": 90193257,
  "center": {
    "lat": 51.3171049,
    "lon": 12.8585902
  },
  "nodes": [
    1045698557,
    12915119494,
    1045703852,
    1045701140,
    1045702976,
    1045700322,
    1045702473,
    1045698681,
    1045701220,
    12914843029,
    12915119495,
    1045698557
  ],
  "tags": {
    "amenity": "grave_yard",
    "barrier": "wall"
  }
},
{
  "type": "way",
  "id": 93890913,
  "center": {
    "lat": 51.9783642,
    "lon": 12.8302128
  },
  "nodes": [
    1091479072,
    1091479060,
    3554673767,
    1091479063,
    3533940142,
    3533940140,
    3533940139,
    3533940137,
    3533940133,
    3533940135,
    1091479057,
    1096396760,
    1091479072
  ],
  "tags": {
    "landuse": "cemetery",
    "religion": "christian"
  }
},
{
  "type": "way",
  "id": 94171047,
  "center": {
    "lat": 51.9710149,
    "lon": 12.5727123
  },
  "nodes": [
    1094576151,
    1094578259,
    1094578754,
    1094576590,
    1094576151
  ],
  "tags": {
    "amenity": "grave_yard",
    "name": "Friedhof von Senst"
  }
},
{
  "type": "way",
  "id": 94436578,
  "center": {
    "lat": 51.2672145,
    "lon": 12.7850998
  },
  "nodes": [
    1096970272,
    1096970639,
    9445956699,
    9445956700,
    9445956702,
    1096970212,
    9445956703,
    9445956704,
    9445956705,
    944135777,
    9445956706,
    1096969894,
    9445956698,
    944135361,
    1096970556,
    1096970018,
    1096970272
  ],
  "tags": {
    "amenity": "grave_yard"
  }
},
{
  "type": "way",
  "id": 94710003,
  "center": {
    "lat": 51.6193699,
    "lon": 12.8231441
  },
  "nodes": [
    1099632089,
    3431371189,
    1099632031,
    1099632136,
    1099632144,
    1099632089
  ],
  "tags": {
    "denomination": "protestant",
    "landuse": "cemetery",
    "religion": "christian"
  }
},
{
  "type": "way",
  "id": 95392538,
  "center": {
    "lat": 51.8875583,
    "lon": 12.3756283
  },
  "nodes": [
    1106163232,
    1106163811,
    1106162133,
    1106163259,
    1106163232
  ],
  "tags": {
    "amenity": "grave_yard",
    "religion": "christian"
  }
},
{
  "type": "way",
  "id": 95401211,
  "center": {
    "lat": 51.9424069,
    "lon": 12.4074978
  },
  "nodes": [
    1106249299,
    1106249543,
    13056220604,
    2589567743,
    1106249930,
    13056204483,
    13056204482,
    13056220603,
    1106248979,
    1106249666,
    2589567685,
    1106249402,
    1106249299
  ],
  "tags": {
    "amenity": "grave_yard"
  }
},
{
  "type": "way",
  "id": 95794338,
  "center": {
    "lat": 51.6878559,
    "lon": 12.7085362
  },
  "nodes": [
    1110276743,
    1110276877,
    1110276956,
    1110276582,
    1110276743
  ],
  "tags": {
    "landuse": "cemetery"
  }
},
{
  "type": "way",
  "id": 96001302,
  "center": {
    "lat": 51.8541697,
    "lon": 12.0669736
  },
  "nodes": [
    1112273935,
    1112274227,
    2258631751,
    1112274089,
    1112273643,
    1112273598,
    11881335561,
    1112273887,
    3306319513,
    11881377673,
    11881377672,
    1112273554,
    7144899961,
    11881335547,
    1112273935
  ],
  "tags": {
    "landuse": "cemetery"
  }
},
{
  "type": "way",
  "id": 96717219,
  "center": {
    "lat": 51.3784951,
    "lon": 12.9274768
  },
  "nodes": [
    1120049856,
    1120049857,
    1120049854,
    1120049858,
    1120049859,
    1120049853,
    1120049855,
    4079785127,
    4079785132,
    560145986,
    1120049856
  ],
  "tags": {
    "denomination": "protestant",
    "landuse": "cemetery",
    "religion": "christian"
  }
},
{
  "type": "way",
  "id": 96751511,
  "center": {
    "lat": 51.5302873,
    "lon": 12.8618571
  },
  "nodes": [
    1120363940,
    1120364078,
    1086833331,
    1120363911,
    12098335378,
    1120363940
  ],
  "tags": {
    "amenity": "grave_yard"
  }
},
{
  "type": "way",
  "id": 97094713,
  "center": {
    "lat": 51.3816537,
    "lon": 12.2840368
  },
  "nodes": [
    1124867597,
    4903273189,
    4903273188,
    1124867586,
    1124867576,
    1124867573,
    1129210689,
    6132820006,
    1129210709,
    1124867594,
    1124867575,
    1124867597
  ],
  "tags": {
    "landuse": "cemetery",
    "name": "Friedhof Lützschena Am Bildersaal"
  }
},
{
  "type": "way",
  "id": 97244348,
  "center": {
    "lat": 51.4197471,
    "lon": 12.2303574
  },
  "nodes": [
    1126458506,
    1114979008,
    1114976568,
    1114978508,
    1114975896,
    1114977229,
    1114977572,
    1126458226,
    1126458456,
    1126458398,
    1126458238,
    1126458327,
    1126458189,
    1126458550,
    1126458380,
    1126458506
  ],
  "tags": {
    "landuse": "cemetery"
  }
},
{
  "type": "way",
  "id": 97286290,
  "center": {
    "lat": 51.1868313,
    "lon": 12.7853219
  },
  "nodes": [
    1126861980,
    1126861871,
    1126862009,
    1126861910,
    1126861923,
    1126861980
  ],
  "tags": {
    "landuse": "cemetery"
  }
},
{
  "type": "way",
  "id": 97293015,
  "center": {
    "lat": 51.9470057,
    "lon": 12.8695633
  },
  "nodes": [
    1126924919,
    1126924454,
    1126924925,
    1126924654,
    1126924919
  ],
  "tags": {
    "amenity": "grave_yard"
  }
},
{
  "type": "way",
  "id": 97342522,
  "center": {
    "lat": 51.0894646,
    "lon": 12.7350813
  },
  "nodes": [
    1127458164,
    2835225015,
    2835225012,
    1127458130,
    2835224885,
    1127458147,
    2835224880,
    1127458217,
    1127458140,
    2835224877,
    2835224878,
    2835224881,
    1127458235,
    1127458157,
    2835225010,
    2835225013,
    2835225014,
    1127458249,
    1127458176,
    1127458164
  ],
  "tags": {
    "amenity": "grave_yard",
    "religion": "christian"
  }
},
{
  "type": "way",
  "id": 97767500,
  "center": {
    "lat": 51.0191238,
    "lon": 12.3702438
  },
  "nodes": [
    1131665523,
    1679590483,
    1131665335,
    2097173525,
    1708653587,
    1131665506,
    1131665431,
    1131665312,
    1131665250,
    1131665468,
    1131665401,
    1131665523
  ],
  "tags": {
    "denomination": "protestant",
    "landuse": "cemetery",
    "religion": "christian",
    "wikidata": "Q136453024"
  }
},
{
  "type": "way",
  "id": 97770440,
  "center": {
    "lat": 51.2060384,
    "lon": 12.8627168
  },
  "nodes": [
    1131675840,
    3045775630,
    1131675832,
    1131675854,
    6832904740,
    1131675844,
    1131675851,
    1131675837,
    1131675833,
    1131675840
  ],
  "tags": {
    "denomination": "lutheran",
    "landuse": "cemetery",
    "religion": "christian"
  }
},
{
  "type": "way",
  "id": 98004352,
  "center": {
    "lat": 51.0468035,
    "lon": 12.1205121
  },
  "nodes": [
    1134147070,
    1134146588,
    1134146578,
    1134146983,
    1134146955,
    1134147088,
    1134147070
  ],
  "tags": {
    "landuse": "cemetery",
    "name": "Stephansfriedhof",
    "religion": "christian"
  }
},
{
  "type": "way",
  "id": 98154267,
  "center": {
    "lat": 51.1038468,
    "lon": 12.6367334
  },
  "nodes": [
    1135695005,
    1135695082,
    1135694846,
    1135694607,
    1135694917,
    1135695020,
    1135694773,
    1135694824,
    1135695014,
    1135694928,
    1135694972,
    1135694567,
    1135694685,
    1135694994,
    1135695005
  ],
  "tags": {
    "amenity": "grave_yard",
    "barrier": "wall"
  }
},
{
  "type": "way",
  "id": 98424091,
  "center": {
    "lat": 51.1033417,
    "lon": 12.6075722
  },
  "nodes": [
    1138818126,
    1138817959,
    1138818327,
    1138818034,
    1138818210,
    1138818049,
    1138818283,
    3306011600,
    2736129931,
    1138818126
  ],
  "tags": {
    "amenity": "grave_yard"
  }
},
{
  "type": "way",
  "id": 100857709,
  "center": {
    "lat": 51.5706648,
    "lon": 12.8481841
  },
  "nodes": [
    1165562419,
    1165562420,
    1165562300,
    1165561992,
    1165562419
  ],
  "tags": {
    "landuse": "cemetery"
  }
},
{
  "type": "way",
  "id": 104285455,
  "center": {
    "lat": 51.5316755,
    "lon": 12.0329800
  },
  "nodes": [
    1203290521,
    1203290543,
    1203290508,
    1203290539,
    1203290502,
    1203290519,
    6188040784,
    1203290560,
    1203290521
  ],
  "tags": {
    "landuse": "cemetery"
  }
},
{
  "type": "way",
  "id": 104364732,
  "center": {
    "lat": 51.5222960,
    "lon": 12.0987332
  },
  "nodes": [
    1204067315,
    1204067363,
    1204067345,
    1204067374,
    2337264324,
    1204067310,
    1204067315
  ],
  "tags": {
    "denomination": "protestant",
    "landuse": "cemetery",
    "religion": "christian"
  }
},
{
  "type": "way",
  "id": 106202891,
  "center": {
    "lat": 51.9142759,
    "lon": 12.2508782
  },
  "nodes": [
    1222578259,
    1222578262,
    1125322524,
    1125322638,
    1125322632,
    1222578259
  ],
  "tags": {
    "amenity": "grave_yard"
  }
},
{
  "type": "way",
  "id": 106556076,
  "center": {
    "lat": 51.5642089,
    "lon": 12.1359252
  },
  "nodes": [
    1225737445,
    1225737455,
    1225737441,
    1225737448,
    1225737445
  ],
  "tags": {
    "amenity": "grave_yard"
  }
},
{
  "type": "way",
  "id": 107616639,
  "center": {
    "lat": 51.7479908,
    "lon": 12.7475057
  },
  "nodes": [
    1236518851,
    13108407968,
    13108407969,
    1052563017,
    1236518850,
    1503945021,
    1503945023,
    1236518851
  ],
  "tags": {
    "landuse": "cemetery"
  }
},
{
  "type": "way",
  "id": 108262442,
  "center": {
    "lat": 51.3356218,
    "lon": 12.2510888
  },
  "nodes": [
    1242468881,
    1242468871,
    1242468875,
    2385900791,
    2385900794,
    1242468869,
    1242468881
  ],
  "tags": {
    "landuse": "cemetery"
  }
},
{
  "type": "way",
  "id": 108447067,
  "center": {
    "lat": 51.4623904,
    "lon": 12.6394838
  },
  "nodes": [
    4815893077,
    4726022729,
    6182793725,
    6182793750,
    4726022730,
    1157471192,
    4815893067,
    4815893068,
    6182793749,
    6182793709,
    4815893079,
    4815893077
  ],
  "tags": {
    "landuse": "cemetery",
    "name": "Stadtfriedhof"
  }
},
{
  "type": "way",
  "id": 110522658,
  "center": {
    "lat": 51.3320788,
    "lon": 12.9905212
  },
  "nodes": [
    1261958896,
    3495413801,
    3495403880,
    1261958961,
    1261958780,
    2592831559,
    1261958831,
    2592831583,
    4830793914,
    1261958896
  ],
  "tags": {
    "amenity": "grave_yard"
  }
},
{
  "type": "way",
  "id": 110889997,
  "center": {
    "lat": 51.4307817,
    "lon": 12.3105614
  },
  "nodes": [
    1264747029,
    1264747030,
    3110168379,
    1264747031,
    1264747036,
    1264747034,
    4382527826,
    1264747033,
    1264747032,
    4382527815,
    1264747022,
    1264747027,
    1264747029
  ],
  "tags": {
    "amenity": "grave_yard"
  }
},
{
  "type": "way",
  "id": 110995692,
  "center": {
    "lat": 51.4241598,
    "lon": 12.2972184
  },
  "nodes": [
    1265632035,
    12620870227,
    12620870230,
    1265632061,
    1265632071,
    1265632030,
    6871870839,
    1265632022,
    1265632054,
    1265632016,
    6871870837,
    1265632033,
    6871207539,
    6871207540,
    1265632035
  ],
  "tags": {
    "amenity": "grave_yard"
  }
},
{
  "type": "way",
  "id": 111656085,
  "center": {
    "lat": 51.3816357,
    "lon": 12.9305847
  },
  "nodes": [
    1271556836,
    1271556863,
    4081106406,
    1271556848,
    4081106404,
    4081106400,
    1271556859,
    1271556836
  ],
  "tags": {
    "denomination": "protestant",
    "landuse": "cemetery",
    "religion": "christian"
  }
},
{
  "type": "way",
  "id": 112036636,
  "center": {
    "lat": 51.6025915,
    "lon": 12.1216614
  },
  "nodes": [
    1274626822,
    6848833144,
    4377717766,
    4377717768,
    4377717767,
    6848833145,
    1274626805,
    1274626789,
    6848833142,
    1274626823,
    1274626795,
    1274626825,
    6848833143,
    1274626804,
    1274626827,
    1274626806,
    6850238987,
    1274626822
  ],
  "tags": {
    "landuse": "cemetery"
  }
},
{
  "type": "way",
  "id": 112044169,
  "center": {
    "lat": 51.6517054,
    "lon": 12.0251380
  },
  "nodes": [
    1274638558,
    1274638619,
    1274638588,
    1274638568,
    1274638617,
    1274638608,
    1274638566,
    1274638627,
    1274638558
  ],
  "tags": {
    "amenity": "grave_yard"
  }
},
{
  "type": "way",
  "id": 112668925,
  "center": {
    "lat": 51.2874213,
    "lon": 12.7474799
  },
  "nodes": [
    1280162921,
    1280162995,
    1280163003,
    1317269138,
    1280162909,
    1020885014,
    1280162927,
    2302653470,
    2271549675,
    1280162921
  ],
  "tags": {
    "barrier": "wall",
    "denomination": "protestant",
    "landuse": "cemetery",
    "name": "Friedhof Trebsen",
    "religion": "christian"
  }
},
{
  "type": "way",
  "id": 113131248,
  "center": {
    "lat": 51.2921544,
    "lon": 12.6979486
  },
  "nodes": [
    1283841625,
    12554861709,
    1283841634,
    1283841666,
    1283841646,
    1283841659,
    1283841661,
    1283841625
  ],
  "tags": {
    "amenity": "grave_yard",
    "religion": "christian"
  }
},
{
  "type": "way",
  "id": 113599737,
  "center": {
    "lat": 51.3082193,
    "lon": 12.4116646
  },
  "nodes": [
    1288041744,
    1288041792,
    313747494,
    5616584209,
    313747495,
    1288041756,
    1288041772,
    313747497,
    4990038186,
    313747501,
    1288041744
  ],
  "tags": {
    "building": "yes",
    "cemetery": "columbarium",
    "historic": "tomb",
    "name": "Kolumbarium",
    "tomb": "columbarium"
  }
},
{
  "type": "way",
  "id": 114515387,
  "center": {
    "lat": 51.2870809,
    "lon": 12.6022789
  },
  "nodes": [
    1297068546,
    4663505582,
    2476669734,
    4663505583,
    1297068552,
    10093521486,
    1297068544,
    1297068549,
    1297068546
  ],
  "tags": {
    "landuse": "cemetery",
    "name": "Neuer Friedhof Naunhof",
    "religion": "christian"
  }
},
{
  "type": "way",
  "id": 114553993,
  "center": {
    "lat": 51.3181535,
    "lon": 12.6431988
  },
  "nodes": [
    1297392644,
    1297392840,
    1297392639,
    1297392589,
    7468133250,
    1297392644
  ],
  "tags": {
    "amenity": "grave_yard",
    "religion": "christian"
  }
},
{
  "type": "way",
  "id": 116859960,
  "center": {
    "lat": 51.2944100,
    "lon": 12.6356031
  },
  "nodes": [
    1316421052,
    1316420860,
    1316420705,
    12211322946,
    12211322947,
    1316420508,
    12216379025,
    1316421035,
    1316420723,
    12211322950,
    12211322944,
    12211322945,
    1316421052
  ],
  "tags": {
    "amenity": "grave_yard",
    "religion": "christian"
  }
},
{
  "type": "way",
  "id": 117335457,
  "center": {
    "lat": 51.0871913,
    "lon": 12.7675773
  },
  "nodes": [
    10995087371,
    10995087372,
    10995087373,
    10995087370,
    10995087368,
    10995087369,
    10995087367,
    10995087366,
    10995087365,
    1323254010,
    1321462037,
    1321462024,
    10995087374,
    1321462033,
    10995087375,
    1321462027,
    1321462030,
    1321462039,
    1323254012,
    1323254019,
    10995087371
  ],
  "tags": {
    "amenity": "grave_yard"
  }
},
{
  "type": "way",
  "id": 117699695,
  "center": {
    "lat": 51.3366044,
    "lon": 12.6094749
  },
  "nodes": [
    1325483400,
    6242564258,
    1325483417,
    6242564265,
    1325483375,
    1325483426,
    1325483343,
    1325483382,
    6242564257,
    1325483400
  ],
  "tags": {
    "landuse": "cemetery",
    "name": "Alter Friedhof"
  }
},
{
  "type": "way",
  "id": 118219166,
  "center": {
    "lat": 51.6774045,
    "lon": 12.7679342
  },
  "nodes": [
    1329964065,
    1329964067,
    1094366867,
    1329964068,
    1329964065
  ],
  "tags": {
    "landuse": "cemetery",
    "name": "Friedhof von Klein-Korgau"
  }
},
{
  "type": "way",
  "id": 118390972,
  "center": {
    "lat": 51.3282900,
    "lon": 12.8050324
  },
  "nodes": [
    1331496789,
    1331496877,
    1331496901,
    1331496952,
    1331496769,
    1331496955,
    12914843024,
    1209308457,
    12914843054,
    12914843007,
    12914843008,
    1331496789
  ],
  "tags": {
    "amenity": "grave_yard",
    "religion": "christian"
  }
},
{
  "type": "way",
  "id": 119392765,
  "center": {
    "lat": 51.3836441,
    "lon": 12.5031369
  },
  "nodes": [
    1341695280,
    1529820757,
    1341695323,
    1341695171,
    1502235095,
    1341695358,
    1341695201,
    1341695325,
    1341695204,
    1341695327,
    1529820741,
    1341695264,
    1529820743,
    1529820748,
    1529820746,
    1341695345,
    1341695303,
    1341695371,
    1529820754,
    1341695224,
    1529820755,
    1341695280
  ],
  "tags": {
    "denomination": "lutheran",
    "landuse": "cemetery",
    "name": "Friedhof Taucha",
    "religion": "christian"
  }
},
{
  "type": "way",
  "id": 119509892,
  "center": {
    "lat": 51.5619035,
    "lon": 12.7371455
  },
  "nodes": [
    1342636521,
    1342636509,
    1342636540,
    1342636535,
    1342636521
  ],
  "tags": {
    "denomination": "lutheran",
    "landuse": "cemetery",
    "name": "Waldfriedhof",
    "note": "Kleinster, öffentlicher Friedhof Europas (2011; Angabe vorort)",
    "religion": "christian"
  }
},
{
  "type": "way",
  "id": 120974043,
  "center": {
    "lat": 51.6174824,
    "lon": 12.5955281
  },
  "nodes": [
    1355235999,
    1355236002,
    1355236004,
    5212815349,
    1355235999
  ],
  "tags": {
    "landuse": "cemetery",
    "name": "Waldfriedhof"
  }
},
{
  "type": "way",
  "id": 121989041,
  "center": {
    "lat": 51.2834414,
    "lon": 12.9430670
  },
  "nodes": [
    4095751047,
    4119657606,
    4119657600,
    4119657595,
    4119657480,
    4119657478,
    4119657481,
    4119657485,
    4119657486,
    5728620918,
    4095752872,
    4119657731,
    4119657755,
    4119657776,
    4119657784,
    4095751047
  ],
  "tags": {
    "landuse": "cemetery"
  }
},
{
  "type": "way",
  "id": 128052450,
  "center": {
    "lat": 51.9494604,
    "lon": 12.6458264
  },
  "nodes": [
    1415940963,
    1415940952,
    2039641301,
    2039641313,
    1415940961,
    1415940956,
    1415940965,
    1415940955,
    1415940963
  ],
  "tags": {
    "amenity": "grave_yard",
    "religion": "christian"
  }
},
{
  "type": "way",
  "id": 128979140,
  "center": {
    "lat": 51.9847499,
    "lon": 12.1968240
  },
  "nodes": [
    1423933625,
    1423933627,
    1423933615,
    4900337703,
    1423933614,
    1423933625
  ],
  "tags": {
    "amenity": "grave_yard",
    "denomination": "lutheran",
    "religion": "christian"
  }
},
{
  "type": "way",
  "id": 129199753,
  "center": {
    "lat": 51.9256848,
    "lon": 12.3259206
  },
  "nodes": [
    1425945049,
    1425945093,
    1425945027,
    1425944970,
    1425945008,
    1425945022,
    1425945040,
    1425945049
  ],
  "tags": {
    "amenity": "grave_yard",
    "barrier": "wall"
  }
},
{
  "type": "way",
  "id": 129476502,
  "center": {
    "lat": 51.3235634,
    "lon": 12.4347351
  },
  "nodes": [
    1428421976,
    1428421975,
    1481605422,
    1428421979,
    9681374078,
    1475331276,
    9681374079,
    1428421971,
    1428421978,
    268733005,
    1428421974,
    1428424574,
    1428421977,
    1428421972,
    1428421973,
    1428423802,
    1428421970,
    1428421969,
    1428421976
  ],
  "tags": {
    "landuse": "cemetery",
    "name": "Friedhof Stötteritz",
    "opening_hours": "Mar-Oct: Mo-Fr 08:00-19:00, Sa,Su,PH 09:00-19:00; Nov-Feb: Mo-Fr 08:00-16:00, Sa,Su,PH 09:00-16:00",
    "operator": "Ev.- Luth. Marienkirchgemeinde zu Leipzig-Stötteritz",
    "wikidata": "Q123910299"
  }
},
{
  "type": "way",
  "id": 129794229,
  "center": {
    "lat": 51.1748173,
    "lon": 12.0732305
  },
  "nodes": [
    1431259417,
    4303934053,
    1431259414,
    4303934054,
    1431259415,
    1431259416,
    3743442740,
    1431259417
  ],
  "tags": {
    "landuse": "cemetery"
  }
},
{
  "type": "way",
  "id": 132766026,
  "center": {
    "lat": 51.5724088,
    "lon": 12.2648718
  },
  "nodes": [
    1460561060,
    1460561063,
    9608116163,
    9608116162,
    1460561071,
    9608116161,
    1460561075,
    1460561067,
    1460561060
  ],
  "tags": {
    "landuse": "cemetery",
    "name": "Friedhof"
  }
},
{
  "type": "way",
  "id": 133151507,
  "center": {
    "lat": 51.4528272,
    "lon": 12.9224084
  },
  "nodes": [
    6316374479,
    307978359,
    307978360,
    6049165062,
    312617112,
    312617111,
    6316374480,
    6316374479
  ],
  "tags": {
    "boundary": "protected_area",
    "heritage": "4",
    "heritage:operator": "lfd",
    "image": "https://commons.wikimedia.org/wiki/File:Schildau_Friedhofskapelle-04.jpg",
    "landuse": "cemetery",
    "lfd:criteria": "Ensemble",
    "name": "Friedhof Schildau",
    "protect_class": "22",
    "ref:lfd": "09304691",
    "start_date": "19. Jahrhundert",
    "wikidata": "Q49468973",
    "wikimedia_commons": "Category:Friedhof Schildau"
  }
},
{
  "type": "way",
  "id": 133382783,
  "center": {
    "lat": 51.2080101,
    "lon": 12.6028236
  },
  "nodes": [
    1468323498,
    1468323503,
    1468323502,
    1468323500,
    1468323498
  ],
  "tags": {
    "landuse": "cemetery",
    "source": "Hochbefliegung LMBVmbH 07/2010"
  }
},
{
  "type": "way",
  "id": 134171259,
  "center": {
    "lat": 51.0037146,
    "lon": 12.7808278
  },
  "nodes": [
    1475481765,
    1475481755,
    1475481751,
    3134035757,
    1475481741,
    1475481745,
    2343113972,
    2343113984,
    1475481765
  ],
  "tags": {
    "barrier": "wall",
    "landuse": "cemetery"
  }
},
{
  "type": "way",
  "id": 137107259,
  "center": {
    "lat": 51.6171688,
    "lon": 12.4842776
  },