{
  "version": 0.6,
  "generator": "Overpass API 0.7.62.8 e802775f",
  "osm3s": {
    "timestamp_osm_base": "2025-11-09T13:06:00Z",
    "copyright": "The data included in this document is from www.openstreetmap.org. The data is made available under ODbL."
  },
  "elements": [

{
  "type": "way",
  "id": 22566428,
  "center": {
    "lat": 48.5001862,
    "lon": 15.9633034
  },
  "nodes": [
    241891089,
    1012152323,
    241891090,
    241891091,
    1228165488,
    1228165502,
    241891092,
    241891089
  ],
  "tags": {
    "landuse": "cemetery"
  }
},
{
  "type": "way",
  "id": 22566436,
  "center": {
    "lat": 48.5081851,
    "lon": 15.9391358
  },
  "nodes": [
    241891316,
    7087622295,
    241891317,
    241891318,
    1179324818,
    241891319,
    1179324835,
    7087622294,
    241891316
  ],
  "tags": {
    "landuse": "cemetery",
    "start_date": "1817",
    "wikidata": "Q128257478"
  }
},
{
  "type": "way",
  "id": 22822330,
  "center": {
    "lat": 48.5304651,
    "lon": 15.9269593
  },
  "nodes": [
    245566772,
    1299525673,
    1299525668,
    245566773,
    245566774,
    245566775,
    245566772
  ],
  "tags": {
    "landuse": "cemetery",
    "name": "Friedhof Ziersdorf",
    "religion": "christian"
  }
},
{
  "type": "way",
  "id": 23103471,
  "center": {
    "lat": 48.0346412,
    "lon": 15.7665365
  },
  "nodes": [
    249428900,
    986802540,
    249428904,
    986802535,
    986802532,
    249428906,
    249428908,
    986802574,
    6416341044,
    6416341045,
    249428900
  ],
  "tags": {
    "landuse": "cemetery",
    "name": "Friedhof Hainfeld",
    "wikidata": "Q129254066"
  }
},
{
  "type": "way",
  "id": 23737767,
  "center": {
    "lat": 48.8020636,
    "lon": 15.6738767
  },
  "nodes": [
    257083374,
    257083376,
    3319016949,
    257083379,
    3319016940,
    3319016941,
    3319016942,
    257083381,
    3319016953,
    3319016954,
    257083374
  ],
  "tags": {
    "landuse": "cemetery",
    "religion": "christian"
  }
},
{
  "type": "way",
  "id": 24778549,
  "center": {
    "lat": 48.4055443,
    "lon": 15.5846855
  },
  "nodes": [
    269242880,
    993599028,
    6709629292,
    6709629293,
    6709629246,
    269242885,
    1210586882,
    6709629294,
    1037231297,
    1037230448,
    6709629274,
    1037231949,
    269242891,
    1210586886,
    4271769886,
    4271769888,
    6709629281,
    269242902,
    269242913,
    1141919693,
    6709629291,
    269242880
  ],
  "tags": {
    "barrier": "wall",
    "denomination": "roman_catholic",
    "landuse": "cemetery",
    "name": "Friedhof Stein an der Donau",
    "religion": "christian"
  }
},
{
  "type": "way",
  "id": 25038100,
  "center": {
    "lat": 48.3520486,
    "lon": 15.7447988
  },
  "nodes": [
    272388687,
    272388689,
    272388690,
    272388692,
    334356390,
    1658823630,
    1658823634,
    272388695,
    334356384,
    272388687
  ],
  "tags": {
    "landuse": "cemetery",
    "wikidata": "Q38095420"
  }
},
{
  "type": "way",
  "id": 25147817,
  "center": {
    "lat": 48.3562828,
    "lon": 15.7623629
  },
  "nodes": [
    274070624,
    359940248,
    274070629,
    1705450641,
    1705450617,
    274070631,
    274070624
  ],
  "tags": {
    "landuse": "cemetery"
  }
},
{
  "type": "way",
  "id": 25440434,
  "center": {
    "lat": 48.3635396,
    "lon": 15.7177166
  },
  "nodes": [
    277255631,
    294077741,
    6018284248,
    294077736,
    277255632,
    277255634,
    6018284166,
    1225610878,
    1225610893,
    6018284242,
    6018284245,
    277255636,
    277255631
  ],
  "tags": {
    "amenity": "grave_yard",
    "barrier": "wall",
    "name": "Friedhof Wagram ob der Traisen",
    "religion": "christian"
  }
},
{
  "type": "way",
  "id": 25446621,
  "center": {
    "lat": 48.9950958,
    "lon": 15.3502646
  },
  "nodes": [
    277316174,
    2273269830,
    2273269834,
    2273269837,
    5030161889,
    5030161890,
    5030161891,
    5030161892,
    5030161893,
    277316175,
    2273269841,
    277316176,
    5030161880,
    2273269832,
    277316177,
    2273269816,
    277316178,
    277316180,
    277316181,
    277316182,
    277316183,
    277316174
  ],
  "tags": {
    "denomination": "roman_catholic",
    "landuse": "cemetery",
    "religion": "christian"
  }
},
{
  "type": "way",
  "id": 25808570,
  "center": {
    "lat": 48.5353623,
    "lon": 15.9738182
  },
  "nodes": [
    281504576,
    281504577,
    281504578,
    281504579,
    281504576
  ],
  "tags": {
    "landuse": "cemetery",
    "source": "geoimage.at"
  }
},
{
  "type": "way",
  "id": 25977237,
  "center": {
    "lat": 48.3414912,
    "lon": 15.6992949
  },
  "nodes": [
    283383064,
    6782426996,
    6782426993,
    283383065,
    6782426997,
    327227762,
    327227758,
    327227754,
    283383066,
    283383064
  ],
  "tags": {
    "barrier": "wall",
    "denomination": "catholic",
    "landuse": "cemetery",
    "religion": "christian"
  }
},
{
  "type": "way",
  "id": 25978593,
  "center": {
    "lat": 48.3268552,
    "lon": 15.6944662
  },
  "nodes": [
    283400806,
    283400807,
    6797397074,
    536415732,
    536415733,
    536415735,
    536415730,
    536415738,
    283400809,
    588364535,
    283400812,
    6797388213,
    283400814,
    283400806
  ],
  "tags": {
    "denomination": "catholic",
    "landuse": "cemetery",
    "religion": "christian"
  }
},
{
  "type": "way",
  "id": 26179085,
  "center": {
    "lat": 48.3551924,
    "lon": 15.6938215
  },
  "nodes": [
    286678734,
    1596109585,
    1596109576,
    1596109579,
    1596109573,
    961784478,
    961784474,
    5995928750,
    1596115635,
    959737675,
    5981260220,
    5995928746,
    2747231274,
    2747231271,
    5981260219,
    959560605,
    5981260227,
    1596115653,
    1596115651,
    959469530,
    286678736,
    286678737,
    961784497,
    286678734
  ],
  "tags": {
    "denomination": "roman_catholic",
    "landuse": "cemetery",
    "religion": "christian"
  }
},
{
  "type": "way",
  "id": 26310268,
  "center": {
    "lat": 48.5546655,
    "lon": 15.9205489
  },
  "nodes": [
    288239595,
    3828865499,
    6276872616,
    6276872623,
    6276872624,
    6276872626,
    6276872625,
    288239598,
    288239599,
    3828865517,
    3828865518,
    288239595
  ],
  "tags": {
    "denomination": "catholic",
    "landuse": "cemetery",
    "name": "Friedhof Gettsdorf",
    "religion": "christian",
    "wikidata": "Q37899116"
  }
},
{
  "type": "way",
  "id": 26417731,
  "center": {
    "lat": 48.6483537,
    "lon": 15.8209830
  },
  "nodes": [
    289443827,
    8143797359,
    8143797371,
    1797439037,
    8143797362,
    8143797364,
    8143797368,
    289443828,
    8143797356,
    289443830,
    8143797365,
    8143797363,
    8143797360,
    986571769,
    2015710012,
    8143797369,
    8143797357,
    289443831,
    289443827
  ],
  "tags": {
    "landuse": "cemetery",
    "website": "https://www.eggenburg.gv.at/Friedhof_Eggenburg"
  }
},
{
  "type": "way",
  "id": 26527514,
  "center": {
    "lat": 48.1271118,
    "lon": 15.1357051
  },
  "nodes": [
    426878715,
    2171843836,
    3081154481,
    5343988421,
    290755509,
    9016063167,
    290755511,
    9562200107,
    290755513,
    3149145990,
    1866392179,
    290755507,
    426878716,
    2171843904,
    2171843871,
    426878715
  ],
  "tags": {
    "landuse": "cemetery",
    "name": "Friedhof Wieselburg",
    "religion": "christian"
  }
},
{
  "type": "way",
  "id": 26789822,
  "center": {
    "lat": 48.3918080,
    "lon": 15.4646015
  },
  "nodes": [
    293874554,
    6515195580,
    293874555,
    1834200419,
    6515195584,
    293874557,
    1035613169,
    1035612357,
    293874558,
    293874559,
    1021215893,
    2337418537,
    293874554
  ],
  "tags": {
    "barrier": "wall",
    "heritage": "2",
    "heritage:operator": "bda",
    "landuse": "cemetery",
    "name": "Friedhof Weißenkirchen",
    "ref:at:bda": "86851",
    "start_date": "1665",
    "wikidata": "Q38132980"
  }
},
{
  "type": "way",
  "id": 27182236,
  "center": {
    "lat": 48.0953834,
    "lon": 15.5027424
  },
  "nodes": [
    298258888,
    6180335683,
    298258889,
    298258890,
    298258891,
    298258888
  ],
  "tags": {
    "denomination": "roman_catholic",
    "landuse": "cemetery",
    "name": "Friedhof Hofstetten-Grünau",
    "religion": "christian"
  }
},
{
  "type": "way",
  "id": 27373431,
  "center": {
    "lat": 48.8704063,
    "lon": 15.1189358
  },
  "nodes": [
    300502042,
    300502043,
    300502044,
    300502045,
    300502042
  ],
  "tags": {
    "landuse": "cemetery",
    "name": "Friedhof Heidenreichstein",
    "religion": "christian"
  }
},
{
  "type": "way",
  "id": 28216576,
  "center": {
    "lat": 48.8565622,
    "lon": 15.2929954
  },
  "nodes": [
    309914361,
    11530908881,
    11530811225,
    11530908979,
    309914362,
    1062945409,
    1062945469,
    9354255519,
    309914363,
    9354255517,
    9354255521,
    11530811218,
    11530811219,
    9354255520,
    11530811220,
    11530811217,
    309914364,
    11530811216,
    11530811215,
    1077645974,
    11530837878,
    11530811228,
    11530835668,
    309914361
  ],
  "tags": {
    "heritage": "2",
    "heritage:operator": "bda",
    "landuse": "cemetery",
    "name": "Friedhof Thaya",
    "ref:at:bda": "22471",
    "religion": "christian",
    "wikidata": "Q37898518"
  }
},
{
  "type": "way",
  "id": 28335472,
  "center": {
    "lat": 48.8923414,
    "lon": 15.2204376
  },
  "nodes": [
    311180344,
    11972063413,
    11972063412,
    11972063411,
    11972063410,
    11972063409,
    11972063408,
    311180347,
    3252581690,
    11972063407,
    11972063406,
    11972063405,
    3252581697,
    11972063404,
    11972063403,
    3252581699,
    11972063402,
    11972063401,
    11972063400,
    311180348,
    3252581689,
    11972063513,
    3252581694,
    11972063499,
    3252581693,
    11972063420,
    3252581692,
    11972063475,
    11972063419,
    11972063503,
    311180349,
    3252581691,
    11972063418,
    11972063417,
    11972063416,
    311180344
  ],
  "tags": {
    "landuse": "cemetery",
    "name": "Friedhof Gastern"
  }
},
{
  "type": "way",
  "id": 28708347,
  "center": {
    "lat": 48.4508179,
    "lon": 15.5997702
  },
  "nodes": [
    6051550527,
    6051550504,
    5147951974,
    6051550528,
    6051550530,
    6051550529,
    6051550532,
    6051550531,
    6051550533,
    315575147,
    6051550526,
    6051550525,
    6051550524,
    6060899019,
    6051550467,
    6051550527
  ],
  "tags": {
    "denomination": "roman_catholic",
    "landuse": "cemetery",
    "name": "Friedhof Stratzing",
    "religion": "christian"
  }
},
{
  "type": "way",
  "id": 29295701,
  "center": {
    "lat": 48.1887136,
    "lon": 15.9779957
  },
  "nodes": [
    322162369,
    322162370,
    322162372,
    322162373,
    4536401545,
    322162369
  ],
  "tags": {
    "landuse": "cemetery",
    "source": "plan.at 2008"
  }
},
{
  "type": "way",
  "id": 29296132,
  "center": {
    "lat": 48.3006571,
    "lon": 15.7218060
  },
  "nodes": [
    322171740,
    9810633881,
    322171742,
    322171743,
    322171745,
    1627860718,
    1627860717,
    1627860721,
    1627860729,
    322171750,
    322171740
  ],
  "tags": {
    "landuse": "cemetery",
    "source": "plan.at 2008"
  }
},
{
  "type": "way",
  "id": 29296458,
  "center": {
    "lat": 48.2901675,
    "lon": 15.7825458
  },
  "nodes": [
    322177619,
    321789084,
    322177615,
    322177617,
    12859246276,
    12859246277,
    322177619
  ],
  "tags": {
    "landuse": "cemetery",
    "source": "plan.at 2008",
    "wikidata": "Q126916766"
  }
},
{
  "type": "way",
  "id": 29297824,
  "center": {
    "lat": 48.1502805,
    "lon": 15.5411441
  },
  "nodes": [
    303966251,
    322200220,
    9141349637,
    322200223,
    322200224,
    322200227,
    4727453977,
    4727453974,
    322200228,
    2239250907,
    2239250909,
    303966251
  ],
  "tags": {
    "addr:postcode": "3200",
    "landuse": "cemetery",
    "name": "Friedhof Ober-Grafendorf",
    "source": "bing sat",
    "wikidata": "Q125747696"
  }
},
{
  "type": "way",
  "id": 29300641,
  "center": {
    "lat": 48.1592588,
    "lon": 15.4864590
  },
  "nodes": [
    322240787,
    322240797,
    322240813,
    322240837,
    322240840,
    322240787
  ],
  "tags": {
    "landuse": "cemetery"
  }
},
{
  "type": "way",
  "id": 29301373,
  "center": {
    "lat": 48.1111296,
    "lon": 15.6094879
  },
  "nodes": [
    322256464,
    12108267240,
    322256465,
    1082831346,
    322256467,
    12108267238,
    322750267,
    12116605814,
    322256471,
    322256472,
    322256464
  ],
  "tags": {
    "landuse": "cemetery",
    "religion": "christian"
  }
},
{
  "type": "way",
  "id": 29304663,
  "center": {
    "lat": 48.1947677,
    "lon": 15.7612029
  },
  "nodes": [
    322316770,
    322316764,
    511980324,
    322316767,
    12921410003,
    322316770
  ],
  "tags": {
    "denomination": "catholic",
    "landuse": "cemetery",
    "name": "Neuer Friedhof",
    "religion": "christian"
  }
},
{
  "type": "way",
  "id": 29304738,
  "center": {
    "lat": 48.1969305,
    "lon": 15.7624290
  },
  "nodes": [
    322318301,
    322318304,
    322291097,
    322291095,
    322291174,
    322291173,
    1447684275,
    8437337876,
    1447684274,
    8437337875,
    418507942,
    418507940,
    322318320,
    1447684272,
    1447684273,
    322318301
  ],
  "tags": {
    "landuse": "cemetery",
    "religion": "christian",
    "source": "plan.at 2008"
  }
},
{
  "type": "way",
  "id": 29305526,
  "center": {
    "lat": 48.3205219,
    "lon": 15.6737120
  },
  "nodes": [
    322345532,
    322345533,
    322345537,
    322345539,
    6843746383,
    322345540,
    322345542,
    322345543,
    6843746399,
    516071620,
    6843746407,
    6843746406,
    6843746405,
    322345532
  ],
  "tags": {
    "landuse": "cemetery",
    "name": "Friedhof Inzersdorf",
    "wikidata": "Q37946744"
  }
},
{
  "type": "way",
  "id": 29305793,
  "center": {
    "lat": 48.1788179,
    "lon": 15.4749465
  },
  "nodes": [
    322348632,
    9025210888,
    322348655,
    9021007751,
    322348656,
    322348658,
    322348659,
    322348661,
    322348662,
    322348663,
    322348665,
    322348668,
    322348630,
    322348632
  ],
  "tags": {
    "landuse": "cemetery"
  }
},
{
  "type": "way",
  "id": 29305986,
  "center": {
    "lat": 48.1886138,
    "lon": 15.9356578
  },
  "nodes": [
    322350848,
    322350849,
    322350851,
    7228501116,
    7228501106,
    7228501107,
    322350852,
    322350853,
    3093507615,
    322350848
  ],
  "tags": {
    "barrier": "wall",
    "landuse": "cemetery",
    "name": "Friedhof Maria Anzbach",
    "source": "plan.at 2008,geoimage.at"
  }
},
{
  "type": "way",
  "id": 29306056,
  "center": {
    "lat": 48.1952007,
    "lon": 15.9131491
  },
  "nodes": [
    468748933,
    322351453,
    322351444,
    8579493932,
    322351445,
    322351447,
    7504445706,
    7504445701,
    7504445702,
    7504445703,
    7504445704,
    7504445688,
    7504445705,
    468748933
  ],
  "tags": {
    "landuse": "cemetery",
    "wikidata": "Q128829696"
  }
},
{
  "type": "way",
  "id": 29306076,
  "center": {
    "lat": 48.2029042,
    "lon": 15.9151097
  },
  "nodes": [
    322351644,
    10201725912,
    10201725911,
    10201725910,
    10201725909,
    34980653,
    322351645,
    322351647,
    322351644
  ],
  "tags": {
    "heritage": "2",
    "heritage:operator": "bda",
    "historic": "cemetery",
    "landuse": "cemetery",
    "name": "Israelitischer Friedhof",
    "ref:at:bda": "73519",
    "religion": "jewish",
    "source": "plan.at 2008",
    "start_date": "1871",
    "wikidata": "Q38094454",
    "wikimedia_commons": "Category:Jüdischer Friedhof, Neulengbach",
    "wikipedia": "de:Jüdischer Friedhof Neulengbach"
  }
},
{
  "type": "way",
  "id": 29306618,
  "center": {
    "lat": 48.2270721,
    "lon": 15.6445967
  },
  "nodes": [
    322360617,
    322360605,
    322360606,
    9649644618,
    9649644619,
    9649644617,
    322360612,
    9649644638,
    322360617
  ],
  "tags": {
    "landuse": "cemetery",
    "name": "Friedhof Viehofen",
    "religion": "christian"
  }
},
{
  "type": "way",
  "id": 29306619,
  "center": {
    "lat": 48.2163441,
    "lon": 15.6106438
  },
  "nodes": [
    322360623,
    322360625,
    322360626,
    322360627,
    9450098731,
    322360629,
    322360630,
    9450098732,
    9602848468,
    9450098733,
    9602848465,
    2583385343,
    2583383316,
    322360632,
    2583383335,
    1532665293,
    2583383324,
    2583383330,
    2583383325,
    2583383338,
    2583383318,
    2583383326,
    1363699729,
    2585754986,
    2585754987,
    9296891194,
    9296891190,
    322360635,
    322360636,
    322360637,
    322360642,
    322360643,
    322360623
  ],
  "tags": {
    "alt_name": "Hauptfriedhof St. Pölten",
    "landuse": "cemetery",
    "name": "Städtischer Hauptfriedhof",
    "religion": "christian",
    "wikidata": "Q37927090",
    "wikipedia": "de:Hauptfriedhof St. Pölten"
  }
},
{
  "type": "way",
  "id": 29306620,
  "center": {
    "lat": 48.2139917,
    "lon": 15.6123198
  },
  "nodes": [
    322360649,
    1363699740,
    322360651,
    5154089234,
    5154089237,
    322360652,
    322360654,
    322360655,
    5154089233,
    322360657,
    322360658,
    322360649
  ],
  "tags": {
    "alt_name": "Soldatenfriedhof",
    "heritage": "2",
    "heritage:operator": "bda",
    "landuse": "cemetery",
    "name": "Russenfriedhof",
    "wikidata": "Q37927105"
  }
},
{
  "type": "way",
  "id": 29306621,
  "center": {
    "lat": 48.2406888,
    "lon": 15.7059828
  },
  "nodes": [
    322360662,
    10942890621,
    10942890633,
    322360664,
    322360665,
    322360666,
    10942890625,
    10942890622,
    322360662
  ],
  "tags": {
    "landuse": "cemetery",
    "name": "Friedhof Pottenbrunn",
    "religion": "christian",
    "source": "plan.at 2008,geoimage.at",
    "website": "https://www.bestattung-stpoelten.at/im-trauerfall/friedhoefe-in-st-poelten/"
  }
},
{
  "type": "way",
  "id": 29306622,
  "center": {
    "lat": 48.2553747,
    "lon": 15.6773388
  },
  "nodes": [
    322360672,
    322360673,
    322360675,
    9836671002,
    322360676,
    8492035702,
    839216398,
    839216064,
    839216305,
    839216183,
    839216091,
    839216130,
    839216037,
    839216189,
    322360682,
    322360683,
    9836971491,
    9836670976,
    9836971490,
    322370359,
    1918625078,
    9836670979,
    322360680,
    9394022781,
    9706692649,
    322360672
  ],
  "tags": {
    "landuse": "cemetery",
    "name": "Friedhof Unterradlberg",
    "operator": "Stadt St. Pölten",
    "religion": "christian"
  }
},
{
  "type": "way",
  "id": 29365418,
  "center": {
    "lat": 48.8118729,
    "lon": 15.2941029
  },
  "nodes": [
    323020153,
    323020155,
    323020158,
    7215068203,
    323020160,
    7215068202,
    747171190,
    7215068204,
    323020153
  ],
  "tags": {
    "cemetery": "war_cemetery",
    "landuse": "cemetery",
    "name": "Sowjetischer Heldenfriedhof",
    "religion": "christian",
    "wikidata": "Q80984257"
  }
},
{
  "type": "way",
  "id": 29365428,
  "center": {
    "lat": 48.8099842,
    "lon": 15.2866247
  },
  "nodes": [
    323020219,
    323020221,
    323020224,
    323020226,
    323020219
  ],
  "tags": {
    "heritage:operator": "bda",
    "landuse": "cemetery",
    "name": "Jüdischer Friedhof",
    "ref:at:bda": "115077",
    "religion": "jewish",
    "start_date": "late C19",
    "wikidata": "Q37773363",
    "wikimedia_commons": "Category:Jüdischer Friedhof Waidhofen an der Thaya",
    "wikipedia": "de:Jüdischer Friedhof Waidhofen an der Thaya"
  }
},
{
  "type": "way",
  "id": 29365517,
  "center": {
    "lat": 48.8479369,
    "lon": 15.3569432
  },
  "nodes": [
    323020726,
    323020728,
    323020730,
    11672448386,
    11672495470,
    11672448385,
    323020732,
    323020726
  ],
  "tags": {
    "landuse": "cemetery",
    "source": "plan.at 2008"
  }
},
{
  "type": "way",
  "id": 29365518,
  "center": {
    "lat": 48.8096721,
    "lon": 15.2844812
  },
  "nodes": [
    313846968,
    323020734,
    323020736,
    1025580764,
    6819220944,
    323020738,
    6819220945,
    323020740,
    313846968
  ],
  "tags": {
    "landuse": "cemetery",
    "name": "Städtischer Friedhof"
  }
},
{
  "type": "way",
  "id": 29394607,
  "center": {
    "lat": 48.6572774,
    "lon": 15.6660601
  },
  "nodes": [
    323386161,
    323386164,
    323386167,
    323386170,
    323386161
  ],
  "tags": {
    "alt_name": "Friedhof israelitisch",
    "heritage": "2",
    "heritage:operator": "bda",
    "landuse": "cemetery",
    "name": "Judenfriedhof",
    "ref:at:bda": "115001",
    "religion": "jewish",
    "source": "plan.at 2008,geoimage.at",
    "start_date": "1873",
    "wikidata": "Q37773151",
    "wikimedia_commons": "Category:Israelitischer Friedhof Horn",
    "wikipedia": "de:Jüdischer Friedhof Horn (Niederösterreich)"
  }
},
{
  "type": "way",
  "id": 29394608,
  "center": {
    "lat": 48.6622415,
    "lon": 15.6520460
  },
  "nodes": [
    323386176,
    323386177,
    323386180,
    323386183,
    2281297329,
    3318996562,
    323386186,
    2071981603,
    323386189,
    3318996569,
    323386176
  ],
  "tags": {
    "landuse": "cemetery",
    "name": "Friedhof Horn"
  }
},
{
  "type": "way",
  "id": 29439342,
  "center": {
    "lat": 48.7715390,
    "lon": 15.0205528
  },
  "nodes": [
    324468211,
    4800670811,
    4800674344,
    324468215,
    324468219,
    4635825934,
    4635825933,
    3166558383,
    324468222,
    324468224,
    4800670760,
    4348498818,
    324468227,
    324468230,
    324468211
  ],
  "tags": {
    "dog": "no",
    "landuse": "cemetery",
    "wikidata": "Q126917391"
  }
},
{
  "type": "way",
  "id": 29474149,
  "center": {
    "lat": 48.6028544,
    "lon": 15.1729532
  },
  "nodes": [
    324842697,
    3212571716,
    9261081222,
    1832213484,
    1832213492,
    3212571686,
    1832213496,
    3212571670,
    324842707,
    324842706,
    1832213477,
    3212482067,
    3212571702,
    3212571700,
    324842705,
    3212571713,
    3212571711,
    3212571725,
    324842703,
    324842702,
    3212571895,
    324842701,
    324842700,
    324842699,
    3212571753,
    3212571748,
    324842698,
    3212571728,
    324842697
  ],
  "tags": {
    "landuse": "cemetery",
    "name": "Syrnauer Friedhof",
    "religion": "christian",
    "source": "geoimage.at"
  }
},
{
  "type": "way",
  "id": 29474179,
  "center": {
    "lat": 48.5997485,
    "lon": 15.1660555
  },
  "nodes": [
    3633006425,
    5105518928,
    5105518929,
    5105518930,
    3633008047,
    3633008041,
    3633009357,
    3633009358,
    3633008040,
    3633009359,
    3633009360,
    3633009361,
    3633009362,
    2327237388,
    3633008039,
    3633008014,
    324842894,
    2329265265,
    1856842364,
    324842893,
    5225296909,
    5225296910,
    2327240338,
    1832213481,
    2327240330,
    1832213486,
    2327240345,
    1832213469,
    2327240343,
    1832213510,
    1832213511,
    2327240328,
    5225296911,
    1832213523,
    2327240334,
    5225296912,
    1832213470,
    324842892,
    1832213498,
    2327240336,
    324842887,
    324842888,
    324842881,
    324842882,
    9494867909,
    9494867910,
    9494867911,
    5181374877,
    9494867906,
    9494867907,
    5181374876,
    9494867905,
    9494840595,
    9494867904,
    3633006425
  ],
  "tags": {
    "heritage": "2",
    "heritage:operator": "bda",
    "landuse": "cemetery",
    "name": "Propsteifriedhof",
    "ref:at:bda": "128769",
    "religion": "christian",
    "source": "geoimage.at",
    "wikidata": "Q2113133",
    "wikimedia_commons": "Category:Propstei Zwettl"
  }
},
{
  "type": "way",
  "id": 29644987,
  "center": {
    "lat": 48.5190136,
    "lon": 15.6988489
  },
  "nodes": [
    326281938,
    326281945,
    3932055651,
    326281950,
    326281960,
    326281964,
    326281967,
    326281938
  ],
  "tags": {
    "heritage": "2",
    "heritage:operator": "bda",
    "landuse": "cemetery",
    "name": "Friedhof Schönberg am Kamp",
    "ref:at:bda": "55650",
    "source": "geoimage.at hires",
    "wikidata": "Q38040862"
  }
},
{
  "type": "way",
  "id": 29733957,
  "center": {
    "lat": 48.4205388,
    "lon": 15.6563535
  },
  "nodes": [
    5834643557,
    13160031183,
    13160031182,
    13160031179,
    4415216475,
    4415216476,
    13160031166,
    4415216477,
    5902168467,
    327585597,
    5891426836,
    8975147291,
    1145663132,
    5902168468,
    327585602,
    5834643558,
    5902168469,
    5834643557
  ],
  "tags": {
    "barrier": "wall",
    "denomination": "roman_catholic",
    "landuse": "cemetery",
    "name": "Friedhof Rohrendorf",
    "religion": "christian"
  }
},
{
  "type": "way",
  "id": 29734321,
  "center": {
    "lat": 48.4237466,
    "lon": 15.6991694
  },
  "nodes": [
    327594171,
    327594307,
    327594301,
    327594322,
    327594190,
    11112093928,
    327594206,
    327594212,
    327594171
  ],
  "tags": {
    "landuse": "cemetery"
  }
},
{
  "type": "way",
  "id": 29734986,
  "center": {
    "lat": 48.4712801,
    "lon": 15.6804927
  },
  "nodes": [
    327606016,
    11776439750,
    327606174,
    327606168,
    11776439747,
    327606028,
    11776439755,
    11776439758,
    1122432929,
    11776439764,
    1122432953,
    8558171740,
    1122432959,
    1122432926,
    11776439752,
    327606033,
    3360883938,
    327606038,
    327606060,
    327606071,
    327606077,
    327606102,
    11776439751,
    11776439707,
    11775789157,
    327606122,
    327606133,
    327606139,
    11776439708,
    327606016
  ],
  "tags": {
    "landuse": "cemetery",
    "name": "Friedhof Langenlois",
    "religion": "christian",
    "source": "plan.at 2009"
  }
},
{
  "type": "way",
  "id": 29735294,
  "center": {
    "lat": 48.4320517,
    "lon": 15.6829004
  },
  "nodes": [
    1444923716,
    10056574585,
    5626238913,
    327613088,
    10056547075,
    10056574589,
    10056574588,
    10056574587,
    10056574586,
    10056574364,
    3918629552,
    1444923716
  ],
  "tags": {
    "barrier": "wall",
    "landuse": "cemetery",
    "name": "Friedhof Gedersdorf"
  }
},
{
  "type": "way",
  "id": 29735743,
  "center": {
    "lat": 48.4006235,
    "lon": 15.6885448
  },
  "nodes": [
    327623646,
    10839971829,
    10839971828,
    10839971827,
    2297869436,
    327623652,
    10839971824,
    327623660,
    2297869438,
    327623669,
    327623646
  ],
  "tags": {
    "barrier": "wall",
    "denomination": "catholic",
    "landuse": "cemetery",
    "religion": "christian"
  }
},
{
  "type": "way",
  "id": 29738446,
  "center": {
    "lat": 48.4457003,
    "lon": 15.5674141
  },
  "nodes": [
    979298838,
    6112726033,
    979298822,
    979298852,
    6112726030,
    327662167,
    327662174,
    6112726036,
    6112726037,
    327662187,
    1572477583,
    4902128033,
    6112726029,
    979298838
  ],
  "tags": {
    "barrier": "wall",
    "landuse": "cemetery",
    "name": "Friedhof Senftenberg"
  }
},
{
  "type": "way",
  "id": 29738920,
  "center": {
    "lat": 48.4208432,
    "lon": 15.5593285
  },
  "nodes": [
    327664891,
    327664895,
    327664901,
    327664906,
    327664891
  ],
  "tags": {
    "denomination": "roman_catholic",
    "landuse": "cemetery",
    "religion": "christian",
    "source": "plan.at 2009"
  }
},
{
  "type": "way",
  "id": 29745661,
  "center": {
    "lat": 48.3858842,
    "lon": 15.5735205
  },
  "nodes": [
    327689030,
    327689032,
    4151844391,
    327689037,
    327689041,
    4151844392,
    4163884395,
    4151844393,
    327689043,
    327689048,
    4601949324,
    5571724119,
    5571724117,
    5571724118,
    5571724120,
    4601949323,
    5571724116,
    327689030
  ],
  "tags": {
    "addr:postcode": "3512",
    "landuse": "cemetery",
    "name": "Friedhof Mautern"
  }
},
{
  "type": "way",
  "id": 29752477,
  "center": {
    "lat": 48.1983841,
    "lon": 15.3919871
  },
  "nodes": [
    5833516165,
    8610245273,
    327756922,
    327756924,
    327756926,
    1942697259,
    327756928,
    8610245856,
    5833516155,
    5833516157,
    5833516160,
    5833516161,
    327756930,
    5833516164,
    5833516165
  ],
  "tags": {
    "landuse": "cemetery"
  }
},
{
  "type": "way",
  "id": 29752496,
  "center": {
    "lat": 48.1976522,
    "lon": 15.4005912
  },
  "nodes": [
    327757126,
    327757131,
    327757133,
    327757113,
    327757140,
    327757114,
    327757115,
    327757135,
    8689975040,
    8689975033,
    327757137,
    327757138,
    327757139,
    4178640386,
    4178641401,
    4178641397,
    4178641410,
    4178641474,
    6647984160,
    327757143,
    327757126
  ],
  "tags": {
    "landuse": "cemetery",
    "name": "Friedhof Loosdorf",
    "religion": "christian"
  }
},
{
  "type": "way",
  "id": 29757343,
  "center": {
    "lat": 48.2273575,
    "lon": 15.3394052
  },
  "nodes": [
    327796574,
    327796581,
    374227286,
    327796593,
    8047536390,
    8047536394,
    8047536397,
    327742814,
    327796607,
    8047536406,
    8047536399,
    8047536404,
    8047536405,
    327796613,
    327796618,
    327796624,
    8047536392,
    327796632,
    327796574
  ],
  "tags": {
    "landuse": "cemetery",
    "religion": "christian",
    "wikidata": "Q38115258",
    "wikimedia_commons": "Category:Friedhof Melk"
  }
},
{
  "type": "way",
  "id": 29759518,
  "center": {
    "lat": 48.2267725,
    "lon": 15.3441874
  },
  "nodes": [
    327808210,
    327808212,
    2521545757,
    2521545756,
    2521545755,
    2521545754,
    327808270,
    327808273,
    327808210
  ],
  "tags": {
    "alt_name": "Sowjetischer Soldatenfriedhof",
    "landuse": "cemetery",
    "name": "Sowjetischer Heldenfriedhof"
  }
},
{
  "type": "way",
  "id": 29764440,
  "center": {
    "lat": 48.1883611,
    "lon": 15.0836900
  },
  "nodes": [
    327848529,
    9310328429,
    9310328428,
    9310328432,
    327848549,
    327848552,
    1472362882,
    1472362872,
    1472362870,
    327848555,
    327848558,
    327848562,
    327848569,
    327848529
  ],
  "tags": {
    "landuse": "cemetery",
    "name": "Friedhof Persenbeug",
    "wikidata": "Q38118787"
  }
},
{
  "type": "way",
  "id": 29764967,
  "center": {
    "lat": 48.1675496,
    "lon": 15.0676643
  },
  "nodes": [
    327855569,
    343140992,
    343140991,
    343140989,
    327855540,
    327855562,
    327855569
  ],
  "tags": {
    "landuse": "cemetery",
    "name": "städtischer Friedhof Ybbs"
  }
},
{
  "type": "way",
  "id": 29901788,
  "center": {
    "lat": 48.2443855,
    "lon": 15.7446498
  },
  "nodes": [
    329572120,
    1394056978,
    329572126,
    1394056981,
    329572135,
    11505860790,
    329572107,
    5860491523,
    329572120
  ],
  "tags": {
    "landuse": "cemetery",
    "name": "Friedhof Jeutendorf",
    "religion": "christian",
    "wikidata": "Q38178016"
  }
},
{
  "type": "way",
  "id": 30201598,
  "center": {
    "lat": 48.5751725,
    "lon": 15.9915880
  },
  "nodes": [
    332840354,
    332840356,
    332840362,
    332840364,
    332840354
  ],
  "tags": {
    "landuse": "cemetery"
  }
},
{
  "type": "way",
  "id": 30201600,
  "center": {
    "lat": 48.5957317,
    "lon": 15.9427624
  },
  "nodes": [
    332840384,
    332840386,
    332840388,
    332840390,
    332840392,
    2092447875,
    332840394,
    332840384
  ],
  "tags": {
    "landuse": "cemetery",
    "name": "Friedhof Sitzendorf"
  }
},
{
  "type": "way",
  "id": 30201601,
  "center": {
    "lat": 48.5951243,
    "lon": 15.8947924
  },
  "nodes": [
    332840398,
    332840400,
    332840401,
    3672043012,
    3672043008,
    332840402,
    3672042996,
    332840398
  ],
  "tags": {
    "landuse": "cemetery",
    "religion": "christian"
  }
},
{
  "type": "way",
  "id": 30201607,
  "center": {
    "lat": 48.5297080,
    "lon": 15.9253194
  },
  "nodes": [
    401283566,
    332840444,
    332840443,
    401283595,
    1172632490,
    401283566
  ],
  "tags": {
    "landuse": "cemetery",
    "source": "geoimage.at"
  }
},
{
  "type": "way",
  "id": 30201608,
  "center": {
    "lat": 48.5123298,
    "lon": 15.9085005
  },
  "nodes": [
    332840445,
    332840447,
    7180645082,
    7180670489,
    7180645083,
    332840449,
    332840450,
    7180670488,
    7180670485,
    7180645084,
    1025398739,
    332840445
  ],
  "tags": {
    "landuse": "cemetery",
    "source": "geoimage.at"
  }
},
{
  "type": "way",
  "id": 30201610,
  "center": {
    "lat": 48.5311652,
    "lon": 15.8423468
  },
  "nodes": [
    3802253190,
    3802253170,
    2577905536,
    2577905537,
    3802253190
  ],
  "tags": {
    "landuse": "cemetery"
  }
},
{
  "type": "way",
  "id": 30201616,
  "center": {
    "lat": 48.6341583,
    "lon": 15.9936690
  },
  "nodes": [
    332840529,
    332840531,
    332840533,
    332840535,
    8697476151,
    332840529
  ],
  "tags": {
    "landuse": "cemetery",
    "source": "geoimage.at"
  }
},
{
  "type": "way",
  "id": 30201617,
  "center": {
    "lat": 48.7357839,
    "lon": 15.8761741
  },
  "nodes": [
    332840538,
    332840539,
    332840540,
    332840541,
    2282879677,
    332840538
  ],
  "tags": {
    "landuse": "cemetery"
  }
},
{
  "type": "way",
  "id": 30201618,
  "center": {
    "lat": 48.7181097,
    "lon": 15.9113816
  },
  "nodes": [
    332840547,
    2669218164,
    2669218165,
    2669218147,
    332840555,
    332840557,
    332840559,
    332840547
  ],
  "tags": {
    "landuse": "cemetery"
  }
},
{
  "type": "way",
  "id": 30201619,
  "center": {
    "lat": 48.7409737,
    "lon": 15.9518680
  },
  "nodes": [
    332840567,
    332840569,
    5757017836,
    332840571,
    332840577,
    332840567
  ],
  "tags": {
    "landuse": "cemetery"
  }
},
{
  "type": "way",
  "id": 30201620,
  "center": {
    "lat": 48.6425582,
    "lon": 15.9263616
  },
  "nodes": [
    332840581,
    334283865,
    1039477748,
    1039477743,
    7660459831,
    332840583,
    332840585,
    332840581
  ],
  "tags": {
    "landuse": "cemetery",
    "source": "geoimage.at"
  }
},
{
  "type": "way",
  "id": 30201621,
  "center": {
    "lat": 48.6371129,
    "lon": 15.9424403
  },
  "nodes": [
    332840590,
    332840593,
    3659285936,
    332840595,
    332840597,
    332840590
  ],
  "tags": {
    "landuse": "cemetery",
    "source": "geoimage.at"
  }
},
{
  "type": "way",
  "id": 30201624,
  "center": {
    "lat": 48.7080956,
    "lon": 15.8611690
  },
  "nodes": [
    332840620,
    1984070390,
    1984070420,
    1984070518,
    1984070371,
    1984070446,
    1984070462,
    332840622,
    332840624,
    332840626,
    332840628,
    11390372601,
    332840630,
    332840632,
    1984070530,
    6488462551,
    1984070532,
    1984070468,
    11390035493,
    332840620
  ],
  "tags": {
    "landuse": "cemetery",
    "wikidata": "Q128794856"
  }
},
{
  "type": "way",
  "id": 30201625,
  "center": {
    "lat": 48.7639193,
    "lon": 15.9575701
  },
  "nodes": [
    332840636,
    2646552246,
    2646552248,
    332840638,
    332840640,
    6602448654,
    6602448655,
    332840642,
    2646549263,
    2646549266,
    6602448653,
    332840636
  ],
  "tags": {
    "landuse": "cemetery",
    "religion": "christian"
  }
},
{
  "type": "way",
  "id": 30201628,
  "center": {
    "lat": 48.7801609,
    "lon": 15.9702191
  },
  "nodes": [
    332840652,
    332840654,
    332840656,
    1731506199,
    1731506201,
    11624418517,
    332840658,
    332840652
  ],
  "tags": {
    "landuse": "cemetery",
    "religion": "christian",
    "source": "plan.at 2009,geoimage.at"
  }
},
{
  "type": "way",
  "id": 30534154,
  "center": {
    "lat": 48.2260150,
    "lon": 15.9907897
  },
  "nodes": [
    337348396,
    337348398,
    337348401,
    337348404,
    337348396
  ],
  "tags": {
    "landuse": "cemetery"
  }
},
{
  "type": "way",
  "id": 30534160,
  "center": {
    "lat": 48.2634563,
    "lon": 15.9886654
  },
  "nodes": [
    337348516,
    337348520,
    337348523,
    337348526,
    337348516
  ],
  "tags": {
    "landuse": "cemetery",
    "source": "plan.at 2009"
  }
},
{
  "type": "way",
  "id": 30534161,
  "center": {
    "lat": 48.2891331,
    "lon": 15.9411032
  },
  "nodes": [
    337348539,
    337348542,
    337348545,
    1663057934,
    337348551,
    1663057928,
    337348539
  ],
  "tags": {
    "amenity": "grave_yard",
    "denomination": "catholic",
    "religion": "christian",
    "source": "plan.at 2009"
  }
},
{
  "type": "way",
  "id": 30534162,
  "center": {
    "lat": 48.3030933,
    "lon": 15.9286188
  },
  "nodes": [
    337348558,
    4159568888,
    6915767895,
    4159568884,
    6915767907,
    6915767908,
    4159568851,
    6915767911,
    4159568846,
    337348561,
    337348564,
    6915766394,
    6915767912,
    337348567,
    6915767893,
    1219553137,
    6915767894,
    6915767896,
    337348558
  ],
  "tags": {
    "amenity": "grave_yard",
    "source": "basemap.at"
  }
},
{
  "type": "way",
  "id": 30534163,
  "center": {
    "lat": 48.2979269,
    "lon": 15.8980060
  },
  "nodes": [
    337348573,
    7137757651,
    7137757650,
    8379080213,
    337348576,
    8379125575,
    337348579,
    6717418794,
    1347127562,
    8379125482,
    1107467100,
    8379125442,
    337348582,
    6717418795,
    6717418786,
    337348573
  ],
  "tags": {
    "barrier": "wall",
    "denomination": "catholic",
    "landuse": "cemetery",
    "name": "Friedhof Heiligeneich",
    "religion": "christian",
    "source": "Bing"
  }
},
{
  "type": "way",
  "id": 30534164,
  "center": {
    "lat": 48.3438353,
    "lon": 15.9063554
  },
  "nodes": [
    337348589,
    8358306051,
    5390312842,
    5390312841,
    337348592,
    337348595,
    337348598,
    8358306063,
    8358306062,
    8358306061,
    8358306060,
    5390312843,
    8358306053,
    5390312845,
    5390409979,
    5390312846,
    8358306054,
    5390312844,
    337348589
  ],
  "tags": {
    "barrier": "wall",
    "denomination": "roman_catholic",
    "landuse": "cemetery",
    "religion": "christian",
    "source": "plan.at 2009"
  }
},
{
  "type": "way",
  "id": 30534172,
  "center": {
    "lat": 48.4804498,
    "lon": 15.8626153
  },
  "nodes": [
    337348780,
    337348783,
    4033075213,
    337348786,
    337348789,
    1401268427,
    1401268426,
    337348792,
    337348780
  ],
  "tags": {
    "landuse": "cemetery",
    "name": "Friedhof Großriedenthal"
  }
},
{
  "type": "way",
  "id": 30534173,
  "center": {
    "lat": 48.3898715,
    "lon": 15.8605118
  },
  "nodes": [
    337348801,
    337348804,
    337348808,
    337348811,
    337348801
  ],
  "tags": {
    "landuse": "cemetery",
    "name": "Friedhof Altenwörth",
    "source": "geoimage.at"
  }
},
{
  "type": "way",
  "id": 30534174,
  "center": {
    "lat": 48.4234304,
    "lon": 15.9429574
  },
  "nodes": [
    337348818,
    337348821,
    337348824,
    9431092685,
    337348827,
    1142453137,
    9431092687,
    1142453156,
    9431092688,
    337348818
  ],
  "tags": {
    "landuse": "cemetery",
    "religion": "christian",
    "source": "geoimage.at"
  }
},
{
  "type": "way",
  "id": 30534175,
  "center": {
    "lat": 48.4021353,
    "lon": 15.9795461
  },
  "nodes": [
    337348832,
    978518233,
    978518298,
    978518224,
    978518291,
    337348836,
    2447759165,
    2447759160,
    2447759164,
    337348839,
    337348842,
    337348832
  ],
  "tags": {
    "landuse": "cemetery",
    "name": "Friedhof Absdorf",
    "religion": "christian",
    "source": "geoimage.at"
  }
},
{
  "type": "way",
  "id": 30534176,
  "center": {
    "lat": 48.3936264,
    "lon": 15.9393491
  },
  "nodes": [
    337348850,
    337348852,
    337348854,
    337348856,
    337348850
  ],
  "tags": {
    "landuse": "cemetery",
    "source": "geoimage.at"
  }
},
{
  "type": "way",
  "id": 30534184,
  "center": {
    "lat": 48.4776227,
    "lon": 15.9853686
  },
  "nodes": [
    337348929,
    8242966028,
    337348933,
    1172643558,
    1172643540,
    1172643536,
    1172643543,
    337348941,
    337348944,
    1172643542,
    337348929
  ],
  "tags": {
    "landuse": "cemetery",
    "name": "Friedhof Großweikersdorf",
    "religion": "christian"
  }
},
{
  "type": "way",
  "id": 30534185,
  "center": {
    "lat": 48.4382784,
    "lon": 15.8261427
  },
  "nodes": [
    337348954,
    5896182801,
    5896182800,
    337348957,
    337348962,
    337348965,
    337348954
  ],
  "tags": {
    "landuse": "cemetery",
    "name": "Friedhof Fels am Wagram",
    "religion": "christian"
  }
},
{
  "type": "way",
  "id": 30534186,
  "center": {
    "lat": 48.4048760,
    "lon": 15.7912817
  },
  "nodes": [
    337348975,
    337348978,
    337348982,
    337348986,
    337348990,
    337348993,
    337348995,
    337348997,
    337348975
  ],
  "tags": {
    "landuse": "cemetery",
    "source": "geoimage.at"
  }
},
{
  "type": "way",
  "id": 30710481,
  "center": {
    "lat": 48.1898412,
    "lon": 15.1184927
  },
  "nodes": [
    339641887,
    339641896,
    4582063560,
    339641904,
    339641915,
    4581884132,
    4581884133,
    339641887
  ],
  "tags": {
    "denomination": "roman_catholic",
    "landuse": "cemetery",
    "religion": "christian"
  }
},
{
  "type": "way",
  "id": 30740007,
  "center": {
    "lat": 48.4163216,
    "lon": 15.6173163
  },
  "nodes": [
    339984754,
    2319924361,
    2319924358,
    2330805207,
    2330805208,
    2331021168,
    339984757,
    5372211567,
    2319924350,
    12259391316,
    12259391315,
    2319924351,
    5372211561,
    339984758,
    2319924345,
    2331021082,
    6666225587,
    339984759,
    5372211559,
    2331021048,
    5372211575,
    5372211576,
    5372211577,
    2331021038,
    3357366667,
    5372212043,
    5372212042,
    2815646770,
    5372212041,
    339984760,
    5372212048,
    5372212047,
    339984762,
    5372210828,
    339984765,
    339984766,
    2319924285,
    339984767,
    4960352636,
    339984777,
    4960352635,
    2319924359,
    339984754
  ],
  "tags": {
    "barrier": "wall",
    "landuse": "cemetery",
    "name": "Friedhof Krems",
    "wikidata": "Q116046822"
  }
},
{
  "type": "way",
  "id": 30878846,
  "center": {
    "lat": 48.1654908,
    "lon": 15.0183361
  },
  "nodes": [
    343324221,
    9418317024,
    343324224,
    9458833350,
    12994745611,
    9418307939,
    343324227,
    343324230,
    9458833355,
    343324221
  ],
  "tags": {
    "landuse": "cemetery",
    "religion": "christian"
  }
},
{
  "type": "way",
  "id": 30927123,
  "center": {
    "lat": 48.7896238,
    "lon": 15.0757647
  },
  "nodes": [
    343812147,
    1326734924,
    9174355584,
    1326734925,
    1326734926,
    343812150,
    343812154,
    343812158,
    4068350554,
    343812165,
    4068350556,
    4068350557,
    1326734929,
    343812167,
    343812147
  ],
  "tags": {
    "landuse": "cemetery"
  }
},
{
  "type": "way",
  "id": 31549026,
  "center": {
    "lat": 48.5973342,
    "lon": 15.0672822
  },
  "nodes": [
    353030512,
    353030513,
    353030514,
    353030515,
    5863100413,
    5863100412,
    5863100411,
    5863100410,
    353030512
  ],
  "tags": {
    "landuse": "cemetery",
    "source": "survey"
  }
},
{
  "type": "way",
  "id": 32143953,
  "center": {
    "lat": 48.3611059,
    "lon": 15.6081403
  },
  "nodes": [
    360859712,
    4608086734,
    4608086736,
    360859715,
    360859664,
    360859660,
    4608086737,
    4608086727,
    360859655,
    4608086721,
    4608086719,
    4608086717,
    4608086715,
    360859719,
    4608086695,
    360859722,
    4608086709,
    4608086710,
    360859725,
    360859729,
    360859732,
    360859786,
    360859712
  ],
  "tags": {
    "amenity": "grave_yard",
    "barrier": "wall",
    "denomination": "roman_catholic",
    "heritage": "2",
    "heritage:operator": "bda",
    "ref:at:bda": "54502",
    "religion": "christian",
    "wikidata": "Q38037680"
  }
},
{
  "type": "way",
  "id": 32397748,
  "center": {
    "lat": 48.7667039,
    "lon": 15.2870687
  },
  "nodes": [
    364475270,
    364475272,
    9426855966,
    4380406926,
    4380406923,
    364475273,
    364475274,
    4380406897,
    364475275,
    364475270
  ],
  "tags": {
    "denomination": "roman_catholic",
    "landuse": "cemetery",
    "religion": "christian"
  }
},
{
  "type": "way",
  "id": 32494195,
  "center": {
    "lat": 48.4624596,
    "lon": 15.3713981
  },
  "nodes": [
    365344770,
    1315308659,
    1315308663,
    1315308667,
    1315308668,
    1597535242,
    1067897099,
    1315308671,
    1315308669,
    365344783,
    1315308680,
    1067897682,
    365344799,
    365344813,
    365344770
  ],
  "tags": {
    "amenity": "grave_yard",
    "barrier": "wall",
    "religion": "christian"
  }
},
{
  "type": "way",
  "id": 32563184,
  "center": {
    "lat": 48.1662375,
    "lon": 15.6231778
  },
  "nodes": [
    366254979,
    366254983,
    366254987,
    9654080077,
    366254992,
    366254979
  ],
  "tags": {
    "denomination": "catholic",
    "landuse": "cemetery",
    "name": "Friedhof Spratzern",
    "religion": "christian"
  }
},
{
  "type": "way",
  "id": 33071515,
  "center": {
    "lat": 48.2632586,
    "lon": 15.3784903
  },
  "nodes": [
    373103409,
    373103410,
    373103411,
    373103412,
    373103413,
    5424145545,
    5424145546,
    373103414,
    373103408,
    373103415,
    373103419,
    373103409
  ],
  "tags": {
    "denomination": "roman_catholic",
    "landuse": "cemetery",
    "name": "Friedhof Schönbühel",
    "religion": "christian",
    "wikimedia_commons": "File:Schönbühel_-_Friedhof.JPG"
  }
},
{
  "type": "way",
  "id": 33279750,
  "center": {
    "lat": 48.0439312,
    "lon": 15.6765949
  },
  "nodes": [
    378106132,
    378106249,
    1014049252,
    378106174,
    378106162,
    378106153,
    378106144,
    378106120,
    378106132
  ],
  "tags": {
    "barrier": "wall",
    "denomination": "catholic",
    "landuse": "cemetery",
    "name": "Ortsfriedhof St. Veit / Gölsen",
    "religion": "christian",
    "wikidata": "Q129213523"
  }
},
{
  "type": "way",
  "id": 36789459,
  "center": {
    "lat": 48.1260436,
    "lon": 15.8111764
  },
  "nodes": [
    427705231,
    6489391356,
    427705233,
    427705234,
    427705235,
    427705231
  ],
  "tags": {
    "amenity": "grave_yard",
    "wikidata": "Q128803460"
  }
},
{
  "type": "way",
  "id": 36789462,
  "center": {
    "lat": 48.1104385,
    "lon": 15.8667794
  },
  "nodes": [
    427705251,
    1035658953,
    1035659039,
    427705253,
    427705254,
    1035658956,
    1035659022,
    1035658985,
    427705255,
    427705251
  ],
  "tags": {
    "amenity": "grave_yard",
    "landuse": "cemetery"
  }
},
{
  "type": "way",
  "id": 37229418,
  "center": {
    "lat": 48.1535927,
    "lon": 15.4101929
  },
  "nodes": [
    433583845,
    674195971,
    433583846,
    327699482,
    11786942233,
    1346809129,
    1346809130,
    674189684,
    1346809133,
    1346809134,
    433583845
  ],
  "tags": {
    "landuse": "cemetery",
    "religion": "christian",
    "wikidata": "Q109134510"
  }
},
{
  "type": "way",
  "id": 38627197,
  "center": {
    "lat": 48.0284909,
    "lon": 15.4267058
  },
  "nodes": [
    457521414,
    457521415,
    457521416,
    457521417,
    457521420,
    1719454931,
    457521436,
    1786996350,
    1719454897,
    1719454945,
    1719454966,
    1719455001,
    457521414
  ],
  "tags": {
    "barrier": "fence",
    "landuse": "cemetery"
  }
},
{
  "type": "way",
  "id": 38638978,
  "center": {
    "lat": 48.5214662,
    "lon": 15.0853700
  },
  "nodes": [
    4642196709,
    457718393,
    457698636,
    4642046900,
    4642046899,
    457699561,
    457698637,
    4642196716,
    4642196709
  ],
  "tags": {
    "landuse": "cemetery",
    "name": "Friedhof Rappottenstein"
  }
},
{
  "type": "way",
  "id": 39824162,
  "center": {
    "lat": 48.4612037,
    "lon": 15.7003159
  },
  "nodes": [
    479171675,
    603689837,
    603689843,
    603689842,
    717600132,
    5239645861,
    1283973317,
    603689838,
    479171675
  ],
  "tags": {
    "denomination": "roman_catholic",
    "landuse": "cemetery",
    "name": "Friedhof Gobelsburg",
    "religion": "christian"
  }
},
{
  "type": "way",
  "id": 40505793,
  "center": {
    "lat": 48.7638367,
    "lon": 15.9405487
  },
  "nodes": [
    491136674,
    491136694,
    491136708,
    491133136,
    491136723,
    491136735,
    491136674
  ],
  "tags": {
    "cemetery": "war_cemetery",
    "cemetery:conflict": "WW1;WW2",
    "landuse": "cemetery",
    "name": "Soldatenfriedhof Retz",
    "wheelchair": "no"
  }
},
{
  "type": "way",
  "id": 40750121,
  "center": {
    "lat": 48.4610607,
    "lon": 15.7225619
  },
  "nodes": [
    495237736,
    495237737,
    1457551821,
    1457551872,
    495237739,
    1457551860,
    1457551864,
    1399836382,
    1457551865,
    1457551862,
    1457551854,
    495237740,
    495237736
  ],
  "tags": {
    "landuse": "cemetery",
    "name": "Friedhof Hadersdorf",
    "source": "geoimage.at hires"
  }
},
{
  "type": "way",
  "id": 41711876,
  "center": {
    "lat": 48.5711654,
    "lon": 15.3377208
  },
  "nodes": [
    4086583145,
    513404863,
    513404865,
    4086583138,
    513404867,
    938090764,
    4086583148,
    4086583145
  ],
  "tags": {
    "landuse": "cemetery"
  }
},
{
  "type": "way",
  "id": 43867662,
  "center": {
    "lat": 48.4655505,
    "lon": 15.9037709
  },
  "nodes": [
    557091531,
    557091733,
    557091763,
    557091561,
    2125218632,
    557091531
  ],
  "tags": {
    "landuse": "cemetery",
    "source": "geoimage.at"
  }
},
{
  "type": "way",
  "id": 46919122,
  "center": {
    "lat": 48.9311359,
    "lon": 15.6916265
  },
  "nodes": [
    598949996,
    11545892915,
    598949997,
    598950000,
    598949998,
    11545892914,
    11545892913,
    11545892912,
    11545892911,
    598949999,
    598949996
  ],
  "tags": {
    "landuse": "cemetery"
  }
},
{
  "type": "way",
  "id": 48807684,
  "center": {
    "lat": 48.2043475,
    "lon": 15.8081440
  },
  "nodes": [
    619263084,
    3424030311,
    3424030318,
    619263078,
    3424030321,
    619263076,
    619263083,
    619263084
  ],
  "tags": {
    "denomination": "catholic",
    "landuse": "cemetery",
    "name": "Totzenbach",
    "religion": "christian"
  }
},
{
  "type": "way",
  "id": 51352967,
  "center": {
    "lat": 48.0223474,
    "lon": 15.8949364
  },
  "nodes": [
    655305112,
    655305113,
    655305114,
    655305115,
    655305116,
    655305112
  ],
  "tags": {
    "landuse": "cemetery",
    "name": "Friedhof Kaumberg",
    "wikidata": "Q128804598"
  }
},
{
  "type": "way",
  "id": 53473111,
  "center": {
    "lat": 48.1236514,
    "lon": 15.4718824
  },
  "nodes": [
    675843806,
    675843809,
    675843812,
    675843814,
    675843806
  ],
  "tags": {
    "border": "wall",
    "denomination": "catholic",
    "landuse": "cemetery",
    "religion": "christian"
  }
},
{
  "type": "way",
  "id": 53725498,
  "center": {
    "lat": 48.1021863,
    "lon": 15.4134217
  },
  "nodes": [
    678298838,
    678298839,
    6010891903,
    6010891902,
    6010891901,
    6010891904,
    6010891905,
    678298840,
    678298842,
    678298838
  ],
  "tags": {
    "barrier": "wall",
    "denomination": "catholic",
    "landuse": "cemetery",
    "religion": "christian"
  }
},
{
  "type": "way",
  "id": 58247784,
  "center": {
    "lat": 48.7967051,
    "lon": 16.0001026
  },
  "nodes": [
    722415309,
    9123123082,
    722415108,
    722415617,
    722415695,
    722414885,
    1308884182,
    722416070,
    722415144,
    722415309
  ],
  "tags": {
    "landuse": "cemetery",
    "source": "cuzk:km"
  }
},
{
  "type": "way",
  "id": 58640492,
  "center": {
    "lat": 48.0174277,
    "lon": 15.9707637
  },
  "nodes": [
    726579189,
    726579190,
    726579191,
    726579193,
    1385712618,
    726579189
  ],
  "tags": {
    "landuse": "cemetery",
    "name": "Friedhof Thenneberg",
    "wikidata": "Q129213526"
  }
},
{
  "type": "way",
  "id": 58898710,
  "center": {
    "lat": 48.0166366,
    "lon": 15.9938677
  },
  "nodes": [
    729789729,
    1131257823,
    729789731,
    1067943171,
    1067943175,
    1067943152,
    2440152154,
    729789764,
    729789783,
    729789801,
    1131246927,
    2962877844,
    729789729
  ],
  "tags": {
    "amenity": "grave_yard",
    "barrier": "wall",
    "denomination": "catholic",
    "religion": "christian"
  }
},
{
  "type": "way",
  "id": 59279516,
  "center": {
    "lat": 48.4173564,
    "lon": 15.6239194
  },
  "nodes": [
    735039347,
    735039348,
    735039346,
    735039349,
    5387487731,
    735039345,
    5387487732,
    735039347
  ],
  "tags": {
    "addr:city": "Krems an der Donau",
    "addr:country": "AT",
    "addr:housenumber": "115",
    "addr:postcode": "3500",
    "addr:street": "Wiener Straße",
    "at_bev:addr_date": "2022-10-01",
    "barrier": "wall",
    "heritage": "2",
    "heritage:operator": "bda",
    "landuse": "cemetery",
    "name": "Jüdischer Friedhof Krems",
    "ref:at:bda": "77586",
    "religion": "jewish",
    "wikidata": "Q1716703",
    "wikimedia_commons": "Category:Jüdischer Friedhof Krems",
    "wikipedia": "de:Jüdischer Friedhof Krems"
  }
},
{
  "type": "way",
  "id": 65630113,
  "center": {
    "lat": 48.8636213,
    "lon": 15.7351645
  },
  "nodes": [
    800330299,
    800330533,
    890282745,
    800331007,
    800330299
  ],
  "tags": {
    "amenity": "grave_yard"
  }
},
{
  "type": "way",
  "id": 68536069,
  "center": {
    "lat": 48.2884653,
    "lon": 15.6474959
  },
  "nodes": [
    824161932,
    824161620,
    9626826527,
    824161876,
    9626826526,
    824161952,
    824161593,
    824162042,
    9626826528,
    824161701,
    824161780,
    9626826529,
    824162031,
    824161849,
    824162103,
    9626826525,
    824162111,
    9626826530,
    824161792,
    824161610,
    9626826531,
    824161859,
    824161939,
    9626826532,
    9626826535,
    824162017,
    9626826538,
    9626826537,
    824161662,
    824161739,
    824161833,
    824161685,
    824161932
  ],
  "tags": {
    "amenity": "grave_yard",
    "denomination": "catholic",
    "name": "Friedhof Rottersdorf",
    "religion": "christian"
  }
},
{
  "type": "way",
  "id": 68677031,
  "center": {
    "lat": 48.5001759,
    "lon": 15.1658129
  },
  "nodes": [
    825430606,
    8257278271,
    1327095732,
    1327095713,
    8257278269,
    8257278268,
    8257278270,
    825430608,
    825430609,
    8257278267,
    825430615,
    825430618,
    825430620,
    825430621,
    1325306269,
    1325306272,
    825430635,
    8257278266,
    8257278265,
    825430623,
    825430606
  ],
  "tags": {
    "landuse": "cemetery"
  }
},
{
  "type": "way",
  "id": 71843070,
  "center": {
    "lat": 48.8933110,
    "lon": 15.3849182
  },
  "nodes": [
    1372611734,
    4443634826,
    4443634820,
    4443634823,
    4443634809,
    4443634805,
    4443634783,
    4443634782,
    4443634788,
    1372611728,
    1372611763,
    1372611597,
    4443634790,
    4443634822,
    11778332749,
    11775533546,
    4443634849,
    4443634851,
    4443634853,
    4443634854,
    4443634850,
    11775422989,
    1372611721,
    11775422988,
    11775422986,
    11775422987,
    853813889,
    1372611734
  ],
  "tags": {
    "landuse": "cemetery",
    "source": "Geoimage.at MaxRes"
  }
},
{
  "type": "way",
  "id": 74002265,
  "center": {
    "lat": 48.9691373,
    "lon": 15.1431141
  },
  "nodes": [
    875643824,
    875642719,
    875642791,
    875643430,
    875643824
  ],
  "tags": {
    "addr:city": "Reingers",
    "addr:postcode": "3863",
    "landuse": "cemetery",
    "name": "Friedhof Reingers"
  }
},
{
  "type": "way",
  "id": 75092729,
  "center": {
    "lat": 48.1542864,
    "lon": 15.9248406
  },
  "nodes": [
    886297461,
    886297464,
    886297466,
    1643453923,
    886297468,
    886297461
  ],
  "tags": {
    "addr:city": "Altlengbach",
    "addr:country": "AT",
    "addr:housenumber": "3",
    "addr:postcode": "3033",
    "addr:street": "Feldgasse",
    "denomination": "catholic",
    "landuse": "cemetery",
    "religion": "christian"
  }
},
{
  "type": "way",
  "id": 75394405,
  "center": {
    "lat": 48.8685687,
    "lon": 15.7319048
  },
  "nodes": [
    890282916,
    890282687,
    890283034,
    890282427,
    890283017,
    890282327,
    890282442,
    890282799,
    890282568,
    890282694,
    890282916
  ],
  "tags": {
    "landuse": "cemetery",
    "name": "Žid. hřbitov",
    "religion": "jewish",
    "source": "cuzk:km"
  }
},
{
  "type": "way",
  "id": 78062330,
  "center": {
    "lat": 48.4493170,
    "lon": 15.7420684
  },
  "nodes": [
    917149578,
    12433844904,
    12433837175,
    917149605,
    917149619,
    12433844903,
    917149590,
    917149576,
    12433837152,
    917149606,
    917149578
  ],
  "tags": {
    "landuse": "cemetery"
  }
},
{
  "type": "way",
  "id": 80252626,
  "center": {
    "lat": 48.7007073,
    "lon": 15.9559426
  },
  "nodes": [
    936686154,
    5045297446,
    2277057529,
    936686156,
    2277057565,
    2277057587,
    2277057586,
    2277057591,
    5045297447,
    2277057590,
    936686157,
    8681009005,
    936686155,
    2277057575,
    2277057561,
    2277057540,
    936686154
  ],
  "tags": {
    "landuse": "cemetery"
  }
},
{
  "type": "way",
  "id": 80253783,
  "center": {
    "lat": 48.6973240,
    "lon": 15.9305768
  },
  "nodes": [
    936699746,
    936699743,
    936699748,
    936699749,
    936699746
  ],
  "tags": {
    "landuse": "cemetery"
  }
},
{
  "type": "way",
  "id": 80803253,
  "center": {
    "lat": 48.6944027,
    "lon": 15.9824022
  },
  "nodes": [
    942295918,
    942295930,
    942295905,
    942295884,
    1485878874,
    334496997,
    942295918
  ],
  "tags": {
    "landuse": "cemetery"
  }
},
{
  "type": "way",
  "id": 83801664,
  "center": {
    "lat": 48.5716256,
    "lon": 15.9365409
  },
  "nodes": [
    975667446,
    3192069555,
    3192069551,
    3192069543,
    3192069549,
    3192069544,
    3192069545,
    3192069548,
    975667447,
    975667449,
    975667450,
    975667446
  ],
  "tags": {
    "landuse": "cemetery",
    "source": "geoimage.at hires"
  }
},
{
  "type": "way",
  "id": 84005490,
  "center": {
    "lat": 48.6200908,
    "lon": 15.9306738
  },
  "nodes": [
    977436016,
    7660459791,
    7660459794,
    7660459792,
    977436017,
    7660459797,
    977436018,
    977436019,
    977436016
  ],
  "tags": {
    "landuse": "cemetery"
  }
},
{
  "type": "way",
  "id": 84088004,
  "center": {
    "lat": 48.0399051,
    "lon": 15.6045410
  },
  "nodes": [
    978320016,
    978319912,
    978319827,
    978320437,
    978320016
  ],
  "tags": {
    "landuse": "cemetery",
    "source": "geoimage.at",
    "wikidata": "Q128804596"
  }
},
{
  "type": "way",
  "id": 84632279,
  "center": {
    "lat": 48.9013167,
    "lon": 15.8150872
  },
  "nodes": [
    983162516,
    983162513,
    983162526,
    983162528,
    983162516
  ],
  "tags": {
    "landuse": "cemetery"
  }
},
{
  "type": "way",
  "id": 84636732,
  "center": {
    "lat": 48.8980392,
    "lon": 15.6866130
  },
  "nodes": [
    983239038,
    983238973,
    983238751,
    983238781,
    983239038
  ],
  "tags": {
    "landuse": "cemetery"
  }
},
{
  "type": "way",
  "id": 84894097,
  "center": {
    "lat": 48.6974360,
    "lon": 15.3327102
  },
  "nodes": [
    985600632,
    1817302693,
    4838875898,
    7188029656,
    7188029655,
    1817302651,
    985600701,
    4838875893,
    1817302646,
    7171883029,
    7171883056,
    1817302665,
    7171883055,
    1817302667,
    7171883054,
    1817302630,
    1817302708,
    7171883051,
    985600627,
    985600632
  ],
  "tags": {
    "landuse": "cemetery",
    "name": "Friedhof Allentsteig",
    "religion": "christian",
    "source": "geoimage.at",
    "wikidata": "Q126909932",
    "wikimedia_commons": "Category:Friedhof Allentsteig"
  }
},
{
  "type": "way",
  "id": 84900180,
  "center": {
    "lat": 48.7319500,
    "lon": 15.6280975
  },
  "nodes": [
    985719828,
    3072079899,
    3072079908,
    985719832,
    985719836,
    2569429546,
    3072080546,
    985719840,
    985719792,
    2569429543,
    985719773,
    2569429542,
    448222761,
    985719846,
    3072080536,
    2569429544,
    2569429545,
    985719828
  ],
  "tags": {
    "landuse": "cemetery"
  }
},
{
  "type": "way",
  "id": 84954275,
  "center": {
    "lat": 48.2109384,
    "lon": 15.2196054
  },
  "nodes": [
    985977677,
    8228256249,
    8219368951,
    8228256266,
    985977564,
    1721087757,
    327612134,
    985976995,
    1721087791,
    985977261,
    985977485,
    1721087708,
    4367740482,
    8219368953,
    6333754171,
    6333754174,
    6333757397,
    6333757401,
    6333757402,
    6333757406,
    1721087754,
    8219368947,
    1721087782,
    1721087787,
    1721087789,
    985977677
  ],
  "tags": {
    "landuse": "cemetery"
  }
},
{
  "type": "way",
  "id": 84963228,
  "center": {
    "lat": 48.7917246,
    "lon": 15.4122051
  },
  "nodes": [
    986077882,
    2969568569,
    2969568571,
    12702935084,
    12702935086,
    986077055,
    986077312,
    986077563,
    12702935097,
    986075890,
    986076383,
    9854760503,
    2969568574,
    9854760499,
    986077882
  ],
  "tags": {
    "barrier": "wall",
    "landuse": "cemetery",
    "name": "städtischer Friedhof",
    "religion": "christian",
    "source": "geoimage.at"
  }
},
{
  "type": "way",
  "id": 84998688,
  "center": {
    "lat": 48.8714674,
    "lon": 15.9591034
  },
  "nodes": [
    986539048,
    986539044,
    986539054,
    986539047,
    3929891702,
    986539048
  ],
  "tags": {
    "landuse": "cemetery"
  }
},
{
  "type": "way",
  "id": 84998875,
  "center": {
    "lat": 48.8554773,
    "lon": 15.9724561
  },
  "nodes": [
    986546543,
    986546598,
    986546549,
    986546544,
    11063053861,
    986546582,
    4576994081,
    986546543
  ],
  "tags": {
    "landuse": "cemetery"
  }
},
{
  "type": "way",
  "id": 85020887,
  "center": {
    "lat": 48.9049403,
    "lon": 15.8758226
  },
  "nodes": [
    986693527,
    986693513,
    986693564,
    986693528,
    986693527
  ],
  "tags": {
    "landuse": "cemetery"
  }
},
{
  "type": "way",
  "id": 85446348,
  "center": {
    "lat": 48.2421260,
    "lon": 15.3354759
  },
  "nodes": [
    990484587,
    990483844,
    990484532,
    1930437817,
    7608408458,
    1930437839,
    990483971,
    2488442171,
    990484869,
    2488442162,
    7608408455,
    990484587
  ],
  "tags": {
    "landuse": "cemetery",
    "name": "Friedhof Emmersdorf"
  }
},
{
  "type": "way",
  "id": 85513806,
  "center": {
    "lat": 48.1869301,
    "lon": 15.1872230
  },
  "nodes": [
    991701690,
    8321696899,
    991701390,
    8321696901,
    991702001,
    8321696919,
    7769720727,
    4640702500,
    7769720729,
    991701690
  ],
  "tags": {
    "barrier": "wall",
    "landuse": "cemetery"
  }
},
{
  "type": "way",
  "id": 86249166,
  "center": {
    "lat": 48.5009583,
    "lon": 15.3892751
  },
  "nodes": [
    1001087097,
    1001087217,
    1001086642,
    1001086879,
    6893928920,
    1001086979,
    1001087096,
    1001087097
  ],
  "tags": {
    "amenity": "grave_yard",
    "denomination": "catholic",
    "religion": "christian"
  }
},
{
  "type": "way",
  "id": 86578842,
  "center": {
    "lat": 48.0035166,
    "lon": 15.8063110
  },
  "nodes": [
    1006313931,
    1006313932,
    1006313934,
    1006313935,
    1006313937,
    1006313938,
    1006313931
  ],
  "tags": {
    "landuse": "cemetery"
  }
},
{
  "type": "way",
  "id": 87020641,
  "center": {
    "lat": 48.8674527,
    "lon": 15.7958402
  },
  "nodes": [
    1012262726,
    1839049478,
    1012262354,
    1012262120,
    1839049507,
    1012262245,
    6209945347,
    1012262726
  ],
  "tags": {
    "landuse": "cemetery"
  }
},
{
  "type": "way",
  "id": 87097364,
  "center": {
    "lat": 48.9419522,
    "lon": 15.0562652
  },
  "nodes": [
    1012902914,
    5519241652,
    5519241645,
    5519241096,
    5519241099,
    4068171486,
    1012902674,
    5790171467,
    1012902872,
    5519241646,
    1012902813,
    4068171485,
    1012902669,
    9238394475,
    4240019942,
    4240019924,
    4240019923,
    1012902914
  ],
  "tags": {
    "landuse": "cemetery",
    "name": "Friedhof der Stadt Litschau",
    "source": "geoimage.at"
  }
},
{
  "type": "way",
  "id": 87191696,
  "center": {
    "lat": 48.3768356,
    "lon": 15.1503578
  },
  "nodes": [
    1013834154,
    1013834134,
    1338524122,
    1338524116,
    9312286393,
    3780802084,
    3780802090,
    1013834155,
    1013834173,
    1013834154
  ],
  "tags": {
    "landuse": "cemetery",
    "source": "geoimage.at"
  }
},
{
  "type": "way",
  "id": 87287125,
  "center": {
    "lat": 48.3666746,
    "lon": 15.1231669
  },
  "nodes": [
    3766974511,
    3766974512,
    3766974513,
    3763623274,
    3763623281,
    3763623277,
    3763623278,
    3763623279,
    3763623280,
    3763623276,
    1014894785,
    1014895062,
    3763623275,
    1014894569,
    3773220103,
    3766974511
  ],
  "tags": {
    "amenity": "grave_yard",
    "source": "geoimage.at"
  }
},
{
  "type": "way",
  "id": 87291208,
  "center": {
    "lat": 48.0086763,
    "lon": 15.6016611
  },
  "nodes": [
    1014939371,
    1014939375,
    1014939377,
    1014939380,
    1014939382,
    1014939394,
    1310542177,
    9865952311,
    1014939371
  ],
  "tags": {
    "barrier": "wall",
    "heritage": "2",
    "heritage:operator": "bda",
    "landuse": "cemetery",
    "ref:at:bda": "83962",
    "religion": "christian",
    "wikidata": "Q38126066"
  }
},
{
  "type": "way",
  "id": 87669187,
  "center": {
    "lat": 48.0473120,
    "lon": 15.5668476
  },
  "nodes": [
    1019573198,
    1019573206,
    1019573211,
    1019573247,
    1019573256,
    1019573259,
    3061203956,
    3061203952,
    1019573262,
    1019573265,
    1019573268,
    1019573272,
    6205512892,
    3061203959,
    3061203967,
    3061203972,
    3061203999,
    1282831836,
    1019573198
  ],
  "tags": {
    "landuse": "cemetery",
    "name": "Friedhof Eschenau",
    "religion": "christian"
  }
},
{
  "type": "way",
  "id": 87712837,
  "center": {
    "lat": 48.3057983,
    "lon": 15.4743699
  },
  "nodes": [
    1019984145,
    1019984173,
    7063701763,
    7063701736,
    7063701765,
    1019984184,
    7063701767,
    7063701764,
    1019984189,
    7063701755,
    1019984145
  ],
  "tags": {
    "barrier": "wall",
    "landuse": "cemetery",
    "religion": "christian"
  }
},
{
  "type": "way",
  "id": 88380840,
  "center": {
    "lat": 48.4241681,
    "lon": 15.3840552
  },
  "nodes": [
    1026603384,
    1026603205,
    1134055482,
    1026603295,
    1026603371,
    1026603463,
    1026603239,
    1026603437,
    1026603266,
    1026603445,
    1026603457,
    1026603251,
    1026603168,
    1026603384
  ],
  "tags": {
    "denomination": "roman_catholic",
    "heritage": "2",
    "heritage:operator": "bda",
    "landuse": "cemetery",
    "ref:at:bda": "53966",
    "religion": "christian",
    "wikidata": "Q38036235"
  }
},
{
  "type": "way",
  "id": 88803129,
  "center": {
    "lat": 48.0611016,
    "lon": 15.2208347
  },
  "nodes": [
    1030562220,
    1030558476,
    1030560305,
    1030557989,
    1030559285,
    1092585896,
    6297633200,
    1092586197,
    1030562220
  ],
  "tags": {
    "landuse": "cemetery",
    "religion": "christian",
    "source": "geoimage.at"
  }
},
{
  "type": "way",
  "id": 89229943,
  "center": {
    "lat": 48.3643028,
    "lon": 15.4098396
  },
  "nodes": [
    1035612999,
    7389899811,
    7389899808,
    1035614292,
    2754783598,
    1363862415,
    1363862406,
    2754783573,
    1035613924,
    3382503831,
    1035613230,
    1035614504,
    2754783650,
    7358773112,
    7358773111,
    4499280637,
    2754783653,
    1035612397,
    2754783676,
    2754783679,
    1035612999
  ],
  "tags": {
    "heritage": "2",
    "heritage:operator": "bda",
    "landuse": "cemetery",
    "ref:at:bda": "87136",
    "wikidata": "Q38133565"
  }
},
{
  "type": "way",
  "id": 89230023,
  "center": {
    "lat": 48.3713376,
    "lon": 15.4385629
  },
  "nodes": [
    1035613709,
    1478599492,
    1035612169,
    1035612085,
    1035613151,
    1035613557,
    1035612656,
    6576977396,
    6576977397,
    1035613681,
    1035614043,
    1478599383,
    1035612748,
    1035613202,
    1035612380,
    3365343619,
    1035614135,
    1035613474,
    1035613709
  ],
  "tags": {
    "amenity": "grave_yard",
    "denomination": "roman_catholic",
    "heritage": "2",
    "heritage:operator": "bda",
    "name:etymology": "Erzengel Michael",
    "name:etymology:wikidata": "Q45581",
    "noname": "yes",
    "ref:at:bda": "55779",
    "religion": "christian",
    "wikidata": "Q14549821"
  }
},
{
  "type": "way",
  "id": 89240007,
  "center": {
    "lat": 48.1320221,
    "lon": 15.9116009
  },
  "nodes": [
    1035674803,
    6750715784,
    1035674446,
    5260971314,
    5260971316,
    5260971305,
    1035674708,
    1035674550,
    1035674803
  ],
  "tags": {
    "landuse": "cemetery",
    "wikidata": "Q128803461"
  }
},
{
  "type": "way",
  "id": 89548344,
  "center": {
    "lat": 48.6319724,
    "lon": 15.8873893
  },
  "nodes": [
    1038095180,
    1038095182,
    1038095184,
    1038095186,
    1038095188,
    1038095190,
    1038095180
  ],
  "tags": {
    "heritage": "2",
    "heritage:operator": "bda",
    "landuse": "cemetery",
    "name": "Friedhof Wartberg",
    "ref:at:bda": "74435",
    "religion": "christian",
    "wikidata": "Q38097982"
  }
},
{
  "type": "way",
  "id": 89666302,
  "center": {
    "lat": 48.6500779,
    "lon": 15.8693265
  },
  "nodes": [
    1039175142,
    1039175144,
    1039175145,
    1039175202,
    1039175147,
    1039175149,
    1039175160,
    1039175162,
    1039175142
  ],
  "tags": {
    "landuse": "cemetery"
  }
},
{
  "type": "way",
  "id": 90046259,
  "center": {
    "lat": 48.6311602,
    "lon": 15.8535949
  },
  "nodes": [
    1043714236,
    1043714237,
    1043714240,
    1043714242,
    1043714245,
    1043714246,
    1043714236
  ],
  "tags": {
    "heritage": "2",
    "heritage:operator": "bda",
    "landuse": "cemetery",
    "name": "Friedhof Grafenberg",
    "ref:at:bda": "74383",
    "religion": "christian",
    "wikidata": "Q38097826"
  }
},
{
  "type": "way",
  "id": 90859927,
  "center": {
    "lat": 48.4252653,
    "lon": 15.2103231
  },
  "nodes": [
    1055080196,
    4325594936,
    4325594935,
    4325594934,
    4325594933,
    4325594932,
    1055079377,
    4325594942,
    4325594941,
    4325594938,
    4325594939,
    4325594940,
    1055080276,
    4325594937,
    1055080842,
    1055079054,
    1055079608,
    1055080196
  ],
  "tags": {
    "landuse": "cemetery"
  }
},
{
  "type": "way",
  "id": 91005897,
  "center": {
    "lat": 48.8775490,
    "lon": 15.8719029
  },
  "nodes": [
    1056797213,
    1410711077,
    1056797434,
    1056797413,
    1056797482,
    7617604990,
    1056797310,
    1056797519,
    1062494326,
    1056797213
  ],
  "tags": {
    "building": "yes",
    "landuse": "cemetery",
    "source": "cuzk:km"
  }
},
{
  "type": "way",
  "id": 91512657,
  "center": {
    "lat": 48.9497939,
    "lon": 15.3103035
  },
  "nodes": [
    1062826876,
    1062826792,
    1062826837,
    1062826936,
    1062826989,
    1062826876
  ],
  "tags": {
    "denomination": "catholic",
    "landuse": "cemetery",
    "religion": "christian"
  }
},
{
  "type": "way",
  "id": 91567557,
  "center": {
    "lat": 48.3775180,
    "lon": 15.3494552
  },
  "nodes": [
    1063800021,
    12193372233,
    1063799972,
    1063800034,
    1063799939,
    1063799997,
    1063800057,
    1063799962,
    1063800024,
    1063800021
  ],
  "tags": {
    "amenity": "grave_yard",
    "religion": "christian"
  }
},
{
  "type": "way",
  "id": 91579366,
  "center": {
    "lat": 48.9089044,
    "lon": 15.3180229
  },
  "nodes": [
    1063932751,
    12201516598,
    1063933045,
    12959659193,
    12201516572,
    12201516600,
    1063932777,
    1063932847,
    12201516734,
    12201516570,
    12201516569,
    12201516568,
    1063932751
  ],
  "tags": {
    "amenity": "grave_yard"
  }
},
{
  "type": "way",
  "id": 92415699,
  "center": {
    "lat": 48.2264611,
    "lon": 15.1613396
  },
  "nodes": [
    1072790262,
    1072791018,
    1072791011,
    7846531004,
    4230304722,
    1072790310,
    4230304744,
    1072790621,
    7846531001,
    1072790210,
    1912911086,
    1072790262
  ],
  "tags": {
    "denomination": "roman_catholic",
    "landuse": "cemetery",
    "religion": "christian"
  }
},
{
  "type": "way",
  "id": 92858552,
  "center": {
    "lat": 48.1414271,
    "lon": 15.2894257
  },
  "nodes": [
    1076771792,
    2571477763,
    2808805889,
    2808805880,
    1076771694,
    1076771794,
    1076771867,
    1076771677,
    2571477761,
    1076771792
  ],
  "tags": {
    "barrier": "wall",
    "landuse": "cemetery",
    "name": "Friedhof St. Leonhard am Forst",
    "religion": "christian"
  }
},
{
  "type": "way",
  "id": 93204625,
  "center": {
    "lat": 48.0233463,
    "lon": 15.2798299
  },
  "nodes": [
    1080480211,
    1080480206,
    1080480249,
    1080480236,
    1080480211
  ],
  "tags": {
    "landuse": "cemetery",
    "name": "Friedhof Plankenstein",
    "wikidata": "Q125748936"
  }
},
{
  "type": "way",
  "id": 93294318,
  "center": {
    "lat": 48.6142100,
    "lon": 15.8651501
  },
  "nodes": [
    1081685247,
    1081685251,
    1081685238,
    1081685230,
    1081685254,
    1081685247
  ],
  "tags": {
    "landuse": "cemetery",
    "name": "Friedhof Straning",
    "religion": "christian"
  }
},
{
  "type": "way",
  "id": 93302944,
  "center": {
    "lat": 48.7188978,
    "lon": 15.5287992
  },
  "nodes": [
    1081759177,
    1081758847,
    1217462411,
    1081758572,
    1081759133,
    1081758896,
    1081758658,
    1081759040,
    1081759177
  ],
  "tags": {
    "amenity": "grave_yard"
  }
},
{
  "type": "way",
  "id": 93363981,
  "center": {
    "lat": 48.8650672,
    "lon": 15.4257199
  },
  "nodes": [
    1082624207,
    12598583543,
    1082624210,
    1082624211,
    12598004852,
    12598004853,
    1082624213,
    1082624207
  ],
  "tags": {
    "landuse": "cemetery",
    "source": "geoimage.at"
  }
},
{
  "type": "way",
  "id": 93454484,
  "center": {
    "lat": 48.5438231,
    "lon": 15.7801441
  },
  "nodes": [
    1083416323,
    1083416193,
    7307081333,
    1083416399,
    1083416302,
    1083416323
  ],
  "tags": {
    "landuse": "cemetery",
    "source": "geoimage.at"
  }
},
{
  "type": "way",
  "id": 93864485,
  "center": {
    "lat": 48.2421145,
    "lon": 15.9231294
  },
  "nodes": [
    1091061441,
    1091061570,
    1091061497,
    8617247365,
    1091061389,
    1091061567,
    1091061441
  ],
  "tags": {
    "landuse": "cemetery"
  }
},
{
  "type": "way",
  "id": 94370818,
  "center": {
    "lat": 48.2586608,
    "lon": 15.7600531
  },
  "nodes": [
    1096396733,
    3463774989,
    5138866152,
    5138866151,
    1096396629,
    1096396721,
    8420434644,
    1096396666,
    11878852254,
    1096396733
  ],
  "tags": {
    "denomination": "roman_catholic",
    "landuse": "cemetery",
    "religion": "christian",
    "source": "geoimage.at"
  }
},
{
  "type": "way",
  "id": 94701086,
  "center": {
    "lat": 48.2367831,
    "lon": 15.5549300
  },
  "nodes": [
    1099502303,
    8977567385,
    8968454404,
    8968639377,
    8968454328,
    1099502460,
    8968454326,
    1099502563,
    8968454403,
    1099502343,
    8992571784,
    8977567375,
    8977567405,
    1099502303
  ],
  "tags": {
    "landuse": "cemetery",
    "name": "Friedhof Neidling"
  }
},
{
  "type": "way",
  "id": 94710602,
  "center": {
    "lat": 48.3145354,
    "lon": 15.5919286
  },
  "nodes": [
    1099638574,
    6948050494,
    1099638760,
    6948050492,
    6948050456,
    6948050489,
    6948050455,
    6948050476,
    6948050477,
    6948050480,
    1099638893,
    4206148003,
    6948050436,
    1099637856,
    6948050481,
    6948050484,
    1099638574
  ],
  "tags": {
    "landuse": "cemetery"
  }
},
{
  "type": "way",
  "id": 94789826,
  "center": {
    "lat": 48.8920300,
    "lon": 15.9340975
  },
  "nodes": [
    1100445412,
    1100446195,
    1100446057,
    1100445699,
    1100445639,
    1100445340,
    1100446579,
    1100445951,
    8790100259,
    1100445740,
    1100445456,
    1100445381,
    1100446139,
    1100446027,
    1100445671,
    1100445412
  ],
  "tags": {
    "landuse": "cemetery",
    "religion": "christian",
    "source": "cuzk:km"
  }
},
{
  "type": "way",
  "id": 94821186,
  "center": {
    "lat": 48.8826970,
    "lon": 15.7854765
  },
  "nodes": [
    1100654659,
    1100655967,
    1100655175,
    1100656485,
    1100655599,
    1100656832,
    1100654659
  ],
  "tags": {
    "landuse": "cemetery",
    "source": "cuzk:km",
    "start_date": "1871"
  }
},
{
  "type": "way",
  "id": 94936064,
  "center": {
    "lat": 48.1410336,
    "lon": 15.0511340
  },
  "nodes": [
    1101968644,
    8693508034,
    1101968783,
    12036647395,
    12036647396,
    3161073922,
    12036647397,
    3161073923,
    1101968973,
    8693508032,
    327591421,
    8693508038,
    8693508083,
    1101969027,
    8693508040,
    1101968644
  ],
  "tags": {
    "landuse": "cemetery",
    "name": "Friedhof Neumarkt an der Ybbs",
    "religion": "christian"
  }
},
{
  "type": "way",
  "id": 95096578,
  "center": {
    "lat": 48.9490185,
    "lon": 15.9128125
  },
  "nodes": [
    1103226497,
    1103226431,
    10068162015,
    10068162014,
    1103226497
  ],
  "tags": {
    "landuse": "cemetery",
    "religion": "christian"
  }
},
{
  "type": "way",
  "id": 95357566,
  "center": {
    "lat": 48.2887667,
    "lon": 15.0589748
  },
  "nodes": [
    1105881519,
    1105881388,
    6662484187,
    1105881456,
    6662463179,
    1105880853,
    1105881519
  ],
  "tags": {
    "heritage": "2",
    "historic": "heritage",
    "landuse": "cemetery",
    "wikidata": "Q38042624"
  }
},
{
  "type": "way",
  "id": 95457634,
  "center": {
    "lat": 48.3643600,
    "lon": 15.6141612
  },
  "nodes": [
    1106833376,
    1106833200,
    1106833375,
    1106833268,
    1106833314,
    1106833376
  ],
  "tags": {
    "amenity": "grave_yard",
    "denomination": "roman_catholic",
    "landuse": "cemetery",
    "name": "Konvent-Friedhof Göttweig",
    "religion": "christian",
    "start_date": "1901",
    "wikidata": "Q119231384",
    "wikimedia_commons": "Category:Stift Göttweig, Konventfriedhof"
  }
},
{
  "type": "way",
  "id": 95546313,
  "center": {
    "lat": 48.9029596,
    "lon": 15.6037802
  },
  "nodes": [
    1107977995,
    1107975558,
    1107972578,
    9795573218,
    9795573220,
    9795573219,
    1107975063,
    1107977995
  ],
  "tags": {
    "landuse": "cemetery",
    "religion": "christian",
    "source": "cuzk:km"
  }
},
{
  "type": "way",
  "id": 95638196,
  "center": {
    "lat": 48.9500695,
    "lon": 15.7494435
  },
  "nodes": [
    1108921182,
    1108920244,
    1108921705,
    1108922652,
    1108923643,
    1108921372,
    1108924599,
    1108920672,
    1108925553,
    1108924864,
    1108924055,
    1108920611,
    1108921182
  ],
  "tags": {
    "denomination": "catholic",
    "landuse": "cemetery",
    "religion": "christian",
    "source": "cuzk:km"
  }
},
{
  "type": "way",
  "id": 96187534,
  "center": {
    "lat": 48.4758627,
    "lon": 15.3095384
  },
  "nodes": [
    1114829974,
    1114829807,
    1114829795,
    1114829947,
    1114829915,
    1114830057,
    1114829884,
    1114830031,
    1114829854,
    1114830080,
    1114829934,
    1114829781,
    1114829964,
    1114829821,
    1114829995,
    1114829925,
    1114829974
  ],
  "tags": {
    "amenity": "grave_yard",
    "heritage": "2",
    "heritage:operator": "bda",
    "name:etymology": "Veit",
    "name:etymology:wikidata": "Q212850",
    "ref:at:bda": "53984",
    "religion": "christian",
    "wikidata": "Q28942502"
  }
},
{
  "type": "way",
  "id": 96616014,
  "center": {
    "lat": 48.8327733,
    "lon": 15.0887763
  },
  "nodes": [
    1119093467,
    1119093471,
    1119093474,
    1119093489,
    1119093467
  ],
  "tags": {
    "landuse": "cemetery"
  }
},
{
  "type": "way",
  "id": 96642109,
  "center": {
    "lat": 48.8293103,
    "lon": 15.6288027
  },
  "nodes": [
    1119335160,
    1119335330,
    1119335578,
    6321054516,
    1119334899,
    6321054515,
    1119335121,
    1119335160
  ],
  "tags": {
    "landuse": "cemetery",
    "source": "Bing"
  }
},
{
  "type": "way",
  "id": 96793142,
  "center": {
    "lat": 48.3171162,
    "lon": 15.1219408
  },
  "nodes": [
    1121367372,
    1121366566,
    1121366947,
    1121368947,
    1121367372
  ],
  "tags": {
    "denomination": "catholic",
    "landuse": "cemetery",
    "name": "Friedhof Laimbach",
    "religion": "christian"
  }
},
{
  "type": "way",
  "id": 96793184,
  "center": {
    "lat": 48.3225032,
    "lon": 15.0723014
  },
  "nodes": [
    1121367344,
    8176960058,
    1121366537,
    12963977098,
    1121368220,
    1121366872,
    8176960060,
    1121367344
  ],
  "tags": {
    "barrier": "wall",
    "landuse": "cemetery",
    "name": "Pfarrfriedhof Pisching",
    "wikidata": "Q128797056"
  }
},
{
  "type": "way",
  "id": 96806430,
  "center": {
    "lat": 48.3958825,
    "lon": 15.2254750
  },
  "nodes": [
    1121585745,
    4524851322,
    4524851293,
    1121586296,
    4524851294,
    1121584633,
    4520379197,
    4520379195,
    4520379196,
    1121585336,
    1121585745
  ],
  "tags": {
    "landuse": "cemetery",
    "source": "geoimage.at"
  }
},
{
  "type": "way",
  "id": 96850137,
  "center": {
    "lat": 48.6519567,
    "lon": 15.7156610
  },
  "nodes": [
    1122253881,
    1122254162,
    11760753950,
    1122253967,
    11760753951,
    4333509820,
    4333509847,
    1122253987,
    1122253881
  ],
  "tags": {
    "landuse": "cemetery",
    "religion": "christian",
    "source": "Bing"
  }
},
{
  "type": "way",
  "id": 97248243,
  "center": {
    "lat": 48.0670748,
    "lon": 15.9221480
  },
  "nodes": [
    1126488334,
    1126488335,
    1126488337,
    1126488339,
    1126488341,
    1126488343,
    1126488334
  ],
  "tags": {
    "barrier": "wall",
    "denomination": "catholic",
    "landuse": "cemetery",
    "name": "Friedhof St. Corona",
    "religion": "christian",
    "source": "geoimage.at"
  }
},
{
  "type": "way",
  "id": 97392087,
  "center": {
    "lat": 48.0420014,
    "lon": 15.9740235
  },
  "nodes": [
    1127980492,
    1127980495,
    1127980497,
    1127980500,
    1127980492
  ],
  "tags": {
    "landuse": "cemetery",
    "name": "Friedhof Klein-Mariazell"
  }
},
{
  "type": "way",
  "id": 98180660,
  "center": {
    "lat": 48.4326302,
    "lon": 15.8997181
  },
  "nodes": [
    1135822364,
    6070647501,
    6070647502,
    1135822348,
    7305644526,
    1135822369,
    1989608031,
    1135822342,
    5911708747,
    5911708745,
    5911708746,
    1135822319,
    1135822321,
    1135822296,
    1135822355,
    1135822367,
    1135822373,
    1135822308,
    7304985295,
    7305636765,
    1135822317,
    7305636764,
    1135822312,
    1135822361,
    1135822345,
    1135822344,
    1135822314,
    1135822340,
    1135822338,
    1135822347,
    7305644532,
    7305644531,
    1135822346,
    7305644530,
    7305644529,
    1135822320,
    7305644528,
    7305644527,
    1135822364
  ],
  "tags": {
    "denomination": "catholic",
    "landuse": "cemetery",
    "name": "Friedhof Kirchberg am Wagram",
    "religion": "christian"
  }
},
{
  "type": "way",
  "id": 99056358,
  "center": {
    "lat": 48.0563198,
    "lon": 15.1393534
  },
  "nodes": [
    1145890647,
    1145890859,
    1145890961,
    1145890584,
    1145890443,
    2588833937,
    1145890647
  ],
  "tags": {
    "landuse": "cemetery",
    "name": "Friedhof Purgstall",
    "religion": "christian"
  }
},
{
  "type": "way",
  "id": 99748530,
  "center": {
    "lat": 48.5315303,
    "lon": 15.8794487
  },
  "nodes": [
    1153088583,
    1153088588,
    1153088589,
    1153088590,
    1153088583
  ],
  "tags": {
    "landuse": "cemetery"
  }
},
{
  "type": "way",
  "id": 100145848,
  "center": {
    "lat": 48.4331314,
    "lon": 15.4310932
  },
  "nodes": [
    1157622723,
    1157621816,
    1157621136,
    7262048881,
    7262048880,
    1157622151,
    1157622723
  ],
  "tags": {
    "amenity": "grave_yard",
    "denomination": "catholic",
    "name": "Friedhof Weinzierl am Walde",
    "religion": "christian"
  }
},
{
  "type": "way",
  "id": 100154034,
  "center": {
    "lat": 48.5168102,
    "lon": 15.4849725
  },
  "nodes": [
    1157697031,
    10683037901,
    10683039405,
    10683037902,
    10683037903,
    10683037904,
    9381712997,
    9381796518,
    9381713000,
    9381796517,
    1157697029,
    9381713013,
    9381713012,
    9381713011,
    9381713010,
    9381713009,
    1157697017,
    1157697027,
    1157697032,
    1157697026,
    6359333188,
    6359333187,
    6359333186,
    6359333185,
    6359333184,
    1157697030,
    1157697021,
    1157697028,
    1157697015,
    1157697031
  ],
  "tags": {
    "fixme": "denkmalgeschützte Sinzendorfergruft fehlt",
    "heritage": "2",
    "heritage:operator": "bda",
    "landuse": "cemetery",
    "name": "Friedhof Gföhl",
    "ref:at:bda": "69748",
    "wikidata": "Q38085094"
  }
},
{
  "type": "way",
  "id": 101031014,
  "center": {
    "lat": 48.0358576,
    "lon": 15.3305976
  },
  "nodes": [
    1166910616,
    1166910706,
    1166910591,
    1166910658,
    1166910616
  ],
  "tags": {
    "landuse": "cemetery",
    "religion": "christian"
  }
},
{
  "type": "way",
  "id": 101260568,
  "center": {
    "lat": 48.4667026,
    "lon": 15.9467652
  },
  "nodes": [
    1168812412,
    8401962717,
    8401962750,
    8401962712,
    1168812415,
    1168812417,
    1168812419,
    8401962711,
    1168812421,
    1168812424,
    1168812427,
    1168812451,
    1168812454,
    1168812458,
    8401962753,
    8401962758,
    1168812465,
    8401962734,
    1168812471,
    1168812472,
    8401962710,
    1168812473,
    1168812499,
    8401962709,
    1168812412
  ],
  "tags": {
    "landuse": "cemetery",
    "source": "geoimage.at"
  }
},
{
  "type": "way",
  "id": 102569963,
  "center": {
    "lat": 48.8441909,
    "lon": 15.4805759
  },
  "nodes": [
    1184488071,
    1184489286,
    1184488457,
    1184487725,
    1184488071
  ],
  "tags": {
    "denomination": "catholic",
    "landuse": "cemetery",
    "religion": "christian"
  }
},
{
  "type": "way",
  "id": 102570004,
  "center": {
    "lat": 48.7261295,
    "lon": 15.0917256
  },
  "nodes": [
    1184488885,
    1184489197,
    1184488616,
    1184487845,
    3739627499,
    3739627500,
    1184488885
  ],
  "tags": {
    "landuse": "cemetery",
    "name": "Friedhof Kirchberg am Walde",
    "religion": "christian",
    "source": "geoimage.at"
  }
},
{
  "type": "way",
  "id": 102781286,
  "center": {
    "lat": 48.2294430,
    "lon": 15.4229184
  },
  "nodes": [
    1187047612,
    1187047530,
    8446038645,
    1187047643,
    8446038646,
    1187047523,
    8446038660,
    4102444401,
    1187047583,
    1187047672,
    1187047582,
    1187047670,
    1187047546,
    4102444409,
    1187047612
  ],
  "tags": {
    "amenity": "grave_yard"
  }
},
{
  "type": "way",
  "id": 103210658,
  "center": {
    "lat": 48.5132030,
    "lon": 15.8588502
  },
  "nodes": [
    1191688662,
    3624469334,
    1191688664,
    1191688668,
    1191688670,
    1191688662
  ],
  "tags": {
    "landuse": "cemetery",
    "source": "geoimage.at"
  }
},
{
  "type": "way",
  "id": 103263668,
  "center": {
    "lat": 48.5268289,
    "lon": 15.7910502
  },
  "nodes": [
    1192423996,
    1192423997,
    1192423998,
    1192424000,
    1192424004,
    1192424005,
    1192423996
  ],
  "tags": {
    "landuse": "cemetery",
    "source": "geoimage.at"
  }
},
{
  "type": "way",
  "id": 103448063,
  "center": {
    "lat": 48.5142197,
    "lon": 15.7798006
  },
  "nodes": [
    1194469084,
    2432366778,
    1194469093,
    2432366812,
    1194469095,
    2432366793,
    1194469097,
    1194469084
  ],
  "tags": {
    "barrier": "wall",
    "landuse": "cemetery",
    "name": "Friedhof Mühlbach am Manhartsberg"
  }
},
{
  "type": "way",
  "id": 103873703,
  "center": {
    "lat": 48.8864769,
    "lon": 15.5175609
  },
  "nodes": [
    1199011157,
    1199011594,
    1199011152,
    1199011469,
    12409590943,
    1199011157
  ],
  "tags": {
    "landuse": "cemetery"
  }
},
{
  "type": "way",
  "id": 105297339,
  "center": {
    "lat": 48.5191898,
    "lon": 15.9593466
  },
  "nodes": [
    1213473136,
    1213473149,
    1213473150,
    1213473153,
    1213473154,
    1213473136
  ],
  "tags": {
    "landuse": "cemetery",
    "source": "geoimage.at"
  }
},
{
  "type": "way",
  "id": 105785037,
  "center": {
    "lat": 48.6824657,
    "lon": 15.5005821
  },
  "nodes": [
    1218105088,
    1218105107,
    1218105112,
    1218105114,
    1218105088
  ],
  "tags": {
    "denomination": "roman_catholic",
    "landuse": "cemetery",
    "religion": "christian",
    "source": "geoimage.at hires"
  }
},
{
  "type": "way",
  "id": 105800657,
  "center": {
    "lat": 48.8672552,
    "lon": 15.6290627
  },
  "nodes": [
    1218210378,
    1218210380,
    9032610836,
    1218210382,
    1218210384,
    1218210392,
    1218210393,
    9032610837,
    9032610840,
    1218210395,
    1218210396,
    1218210398,
    9032610828,
    1218210399,
    1218210401,
    1218210374,
    9032610835,
    9032610834,
    9032610833,
    1218210378
  ],
  "tags": {
    "heritage": "2",
    "heritage:operator": "bda",
    "landuse": "cemetery",
    "name": "Friedhof Drosendorf",
    "ref:at:bda": "29083",
    "religion": "christian",
    "wikidata": "Q37945810"
  }
},
{
  "type": "way",
  "id": 106494994,
  "center": {
    "lat": 48.8115225,
    "lon": 15.4916562
  },
  "nodes": [
    1225123318,
    12765589330,
    12765589331,
    1225123345,
    12765583546,
    12765583547,
    4454535047,
    4454535065,
    1225123348,
    1225123352,
    1225123355,
    1225123359,
    4454535073,
    4454535396,
    4454535405,
    9353924409,
    12765583545,
    1225123318
  ],
  "tags": {
    "heritage": "2",
    "heritage:operator": "bda",
    "landuse": "cemetery",
    "name": "Friedhof Aigen",
    "ref:at:bda": "528",
    "religion": "christian",
    "source": "geoimage.at",
    "wikidata": "Q38033160"
  }
},
{
  "type": "way",
  "id": 106624130,
  "center": {
    "lat": 48.3760187,
    "lon": 15.5468852
  },
  "nodes": [
    1226623555,
    1226623654,
    1226623335,
    1226623691,
    4626692117,
    1226623555
  ],
  "tags": {
    "landuse": "cemetery"
  }
},
{
  "type": "way",
  "id": 107333143,
  "center": {
    "lat": 48.4396275,
    "lon": 15.3706977
  },
  "nodes": [
    1233835987,
    1233836146,
    1233836051,
    1233836005,
    1233835921,
    1233836190,
    1233836097,
    1233835831,
    1233836042,
    1233835987
  ],
  "tags": {
    "amenity": "grave_yard",
    "denomination": "catholic",
    "name": "Friedhof Els",
    "religion": "christian"
  }
},
{
  "type": "way",
  "id": 107704660,
  "center": {
    "lat": 48.4384872,
    "lon": 15.7853607
  },
  "nodes": [
    1237318384,
    1237318386,
    1237318395,
    1237318397,
    1237318399,
    1237318401,
    1237318403,
    1237318405,
    1237318407,
    1237318409,
    1237318384
  ],
  "tags": {
    "landuse": "cemetery",
    "source": "geoimage.at"
  }
},
{
  "type": "way",
  "id": 109282802,
  "center": {
    "lat": 48.6596605,
    "lon": 15.7461325
  },
  "nodes": [
    1251515859,
    1251515850,
    1251515814,
    1251515824,
    1251515828,
    1251515901,
    12178679254,
    1251515859
  ],
  "tags": {
    "landuse": "cemetery",
    "religion": "christian"
  }
},
{
  "type": "way",
  "id": 109895450,
  "center": {
    "lat": 48.6497980,
    "lon": 15.7286333
  },
  "nodes": [
    1256950948,
    7656846133,
    1256950946,
    7656846131,
    1256950939,
    1256950935,
    1256950948
  ],
  "tags": {
    "landuse": "cemetery"
  }
},
{
  "type": "way",
  "id": 111543664,
  "center": {
    "lat": 48.8544507,
    "lon": 15.8575154
  },
  "nodes": [
    1270546568,
    1870666133,
    1270546273,
    1270546640,
    12394349941,
    1270546132,
    1270546508,
    1870666132,
    1870666134,
    1270545982,
    1270546381,
    1870666139,
    1270546735,
    1270546236,
    1760534923,
    1737108223,
    1270546568
  ],
  "tags": {
    "landuse": "cemetery"
  }
},
{
  "type": "way",
  "id": 113800587,
  "center": {
    "lat": 48.5951188,
    "lon": 15.4480425
  },
  "nodes": [
    1290204994,
    1290205011,
    1290205000,
    5121898123,
    5121898124,
    5121898126,
    5121898125,
    1290205016,
    1288864814,
    5122392415,
    1290204994
  ],
  "tags": {
    "landuse": "cemetery",
    "source": "geoimage.at hires"
  }
},
{
  "type": "way",
  "id": 113801596,
  "center": {
    "lat": 48.3110114,
    "lon": 15.2096925
  },
  "nodes": [
    1290217059,
    1290217035,
    1290217067,
    1290217039,
    1290217049,
    1290217069,
    5141625565,
    1290217038,
    4958155329,
    1290217056,
    4958155357,
    1290217059
  ],
  "tags": {
    "denomination": "roman_catholic",
    "landuse": "cemetery",
    "religion": "christian"
  }
},
{
  "type": "way",
  "id": 115263835,
  "center": {
    "lat": 48.6695783,
    "lon": 15.8469577
  },
  "nodes": [
    1303079942,
    1303080710,
    1303080712,
    1303079937,
    1303079939,
    1303079942
  ],
  "tags": {
    "landuse": "cemetery",
    "name": "Friedhof Roggendorf"
  }
},
{
  "type": "way",
  "id": 115768841,
  "center": {
    "lat": 48.5955201,
    "lon": 15.8603596
  },
  "nodes": [
    1307014223,
    1307014224,
    1307014225,
    1307014226,
    1307014227,
    1307014228,
    1307014229,
    1307014230,
    1307014231,
    1307014232,
    1307014233,
    1307014234,
    5272268816,
    1307014235,
    1307014236,
    1307014237,
    1307014223
  ],
  "tags": {
    "landuse": "cemetery"
  }
},
{
  "type": "way",
  "id": 115789716,
  "center": {
    "lat": 48.9244295,
    "lon": 15.8649780
  },
  "nodes": [
    1307196999,
    1307195179,
    1307195824,
    1307197182,
    1307197060,
    1307195064,
    1307195607,
    1307196760,
    1307197732,
    1307195410,
    1307197434,
    1307196999
  ],
  "tags": {
    "denomination": "catholic",
    "landuse": "cemetery",
    "religion": "christian",
    "source": "cuzk:km"
  }
},
{
  "type": "way",
  "id": 117739845,
  "center": {
    "lat": 48.4984446,
    "lon": 15.7455362
  },
  "nodes": [
    1325769971,
    1325769972,
    1325769973,
    1325769982,
    1325769986,
    1325769988,
    1325769990,
    1325769992,
    1325769993,
    1325769994,
    1325769995,
    1325769996,
    1325769971
  ],
  "tags": {
    "landuse": "cemetery",
    "name": "Friedhof Elsarn",
    "religion": "christian"
  }
},
{
  "type": "way",
  "id": 118592098,
  "center": {
    "lat": 48.9175552,
    "lon": 15.1107536
  },
  "nodes": [
    1333558558,
    1333558615,
    1333558835,
    1333558790,
    1333557982,
    1333558558
  ],
  "tags": {
    "landuse": "cemetery"
  }
},
{
  "type": "way",
  "id": 119160355,
  "center": {
    "lat": 48.6683638,
    "lon": 15.6072554
  },
  "nodes": [
    1339639530,
    1339639501,
    1339639460,
    1339639430,
    1339639526,
    1339639472,
    1339639435,
    1339639532,
    1339639483,
    1818924017,
    1339639478,
    1339639439,
    2039755236,
    2039755235,
    1339639418,
    1339639413,
    1339639433,
    1339639489,
    5059841554,
    1339639480,
    1339639432,
    1339639530
  ],
  "tags": {
    "amenity": "grave_yard",
    "heritage": "2",
    "heritage:operator": "bda",
    "ref:at:bda": "55909",
    "religion": "christian"
  }
},
{
  "type": "way",
  "id": 121900365,
  "center": {
    "lat": 48.7485877,
    "lon": 15.9444660
  },
  "nodes": [
    1363446712,
    1363446717,
    2318809428,
    1363446716,
    1363446713,
    2318809385,
    1363446712
  ],
  "tags": {
    "landuse": "cemetery",
    "name": "Friedhof Obernalb"
  }
},
{
  "type": "way",
  "id": 121981531,
  "center": {
    "lat": 48.9060796,
    "lon": 15.1521606
  },
  "nodes": [
    1364084596,
    1364084594,
    3986186232,
    3986186245,
    3986186235,
    3986186244,
    3986186246,
    3986186234,
    3986186247,
    3986186233,
    1364084584,
    1364084590,
    1364084591,
    1364084592,
    1364084596
  ],
  "tags": {
    "landuse": "cemetery",
    "name": "Friedhof Eggern",
    "wikidata": "Q126912480"
  }
},
{
  "type": "way",
  "id": 122006218,
  "center": {
    "lat": 48.8320408,
    "lon": 15.0449209
  },
  "nodes": [
    1364312958,
    1364312947,
    1364312949,
    1364312956,
    1364312958
  ],
  "tags": {
    "denomination": "roman_catholic",
    "landuse": "cemetery",
    "religion": "christian"
  }
},
{
  "type": "way",
  "id": 122187917,
  "center": {
    "lat": 48.7846395,
    "lon": 15.8089776
  },
  "nodes": [
    1366095634,
    1366095618,
    1366095621,
    1366095622,
    1366095627,
    1366095631,
    1366095662,
    1366095669,
    1366095694,
    1366095697,
    1366095634
  ],
  "tags": {
    "barrier": "wall",
    "heritage": "2",
    "heritage:operator": "bda",
    "landuse": "cemetery",
    "name": "Friedhof Weitersfeld",
    "name:etymology": "Martin von Tours",
    "name:etymology:wikidata": "Q133704",
    "ref:at:bda": "56193",
    "wikidata": "Q28603078"
  }
},
{
  "type": "way",
  "id": 124115593,
  "center": {
    "lat": 48.2576282,
    "lon": 15.8599866
  },
  "nodes": [
    1382256019,
    1382256020,
    1382256021,
    1382256022,
    1382256023,
    1382256019
  ],
  "tags": {
    "landuse": "cemetery",
    "name": "Friedhof Würmla",
    "religion": "christian"
  }
},
{
  "type": "way",
  "id": 125343121,
  "center": {
    "lat": 48.1979111,
    "lon": 15.5208001
  },
  "nodes": [
    1392462895,
    5341632391,
    11336226233,
    11336226234,
    1392462922,
    11336226237,
    1392462910,
    11336226235,
    11336226236,
    1392462863,
    8809126400,
    8809126398,
    8809126399,
    8809126397,
    11336226231,
    8809126395,
    8815103082,
    11336226232,
    322294771,
    8821199597,
    5341632398,
    5341632399,
    5341632400,
    1392462895
  ],
  "tags": {
    "landuse": "cemetery"
  }
},
{
  "type": "way",
  "id": 126894108,
  "center": {
    "lat": 48.9424861,
    "lon": 15.7318196
  },
  "nodes": [
    4857839298,
    4857839299,
    4857839300,
    1405694390,
    1405694386,
    1405694381,
    1405694379,
    1405694376,
    4471272846,
    4857839296,
    4857839297,
    4857839298
  ],
  "tags": {
    "landuse": "cemetery",
    "source": "cuzk:km"
  }
},
{
  "type": "way",
  "id": 126995458,
  "center": {
    "lat": 48.7550325,
    "lon": 15.1782919
  },