{
  "version": 0.6,
  "generator": "Overpass API 0.7.62.8 e802775f",
  "osm3s": {
    "timestamp_osm_base": "2025-11-02T22:54:20Z",
    "copyright": "The data included in this document is from www.openstreetmap.org. The data is made available under ODbL."
  },
  "elements": [

{
  "type": "way",
  "id": 4733759,
  "center": {
    "lat": 51.6882653,
    "lon": 5.0615297
  },
  "nodes": [
    30180674,
    30180668,
    30180664,
    30180659,
    30180674
  ],
  "tags": {
    "landuse": "cemetery"
  }
},
{
  "type": "way",
  "id": 4861738,
  "center": {
    "lat": 51.4731743,
    "lon": 5.5511932
  },
  "nodes": [
    31372811,
    31372812,
    31372813,
    31372814,
    31372806,
    31372807,
    31372808,
    31372809,
    31372810,
    31372811
  ],
  "tags": {
    "amenity": "grave_yard",
    "denomination": "roman_catholic",
    "name": "Kerkhof Heilige Clemenskerk",
    "operator": "Parochie Heilig Kruis",
    "religion": "christian",
    "source": "nuenen_ai"
  }
},
{
  "type": "way",
  "id": 4865479,
  "center": {
    "lat": 51.4829882,
    "lon": 5.5471912
  },
  "nodes": [
    31401635,
    31401636,
    31401637,
    31401638,
    31401633,
    183521567,
    31401634,
    31401635
  ],
  "tags": {
    "denomination": "protestant",
    "landuse": "cemetery",
    "name": "De Roosdoncken",
    "religion": "christian"
  }
},
{
  "type": "way",
  "id": 5132245,
  "center": {
    "lat": 51.4923026,
    "lon": 5.5207010
  },
  "nodes": [
    35470252,
    35470253,
    35470254,
    35470255,
    35470256,
    35470251,
    35470252
  ],
  "tags": {
    "amenity": "grave_yard",
    "denomination": "roman_catholic",
    "operator": "Parochie Heilig Kruis",
    "religion": "christian"
  }
},
{
  "type": "way",
  "id": 7743266,
  "center": {
    "lat": 51.4919451,
    "lon": 5.5641028
  },
  "nodes": [
    56453275,
    56453278,
    56453281,
    11055006386,
    11055006385,
    11055006384,
    56453285,
    56453275
  ],
  "tags": {
    "alt_name": "Kerkhof Sint-Clemens",
    "denomination": "roman_catholic",
    "landuse": "cemetery",
    "name": "De Huikert",
    "operator": "Parochie Heilig Kruis",
    "religion": "christian"
  }
},
{
  "type": "way",
  "id": 23498766,
  "center": {
    "lat": 51.1527287,
    "lon": 5.3998023
  },
  "nodes": [
    254487701,
    3852188769,
    3852188768,
    3852188771,
    254487701
  ],
  "tags": {
    "construction_date": "1943",
    "landuse": "cemetery",
    "name": "Oude begraafplaats Eksel"
  }
},
{
  "type": "way",
  "id": 24405069,
  "center": {
    "lat": 51.4355765,
    "lon": 5.5913000
  },
  "nodes": [
    7076325102,
    7076317207,
    995216528,
    42620796,
    42619735,
    1686045372,
    1686045375,
    42618618,
    7076325114,
    7076325103,
    7076325104,
    7076325105,
    7076325106,
    7076325107,
    7076325108,
    7076325109,
    7076325110,
    7076325093,
    264908722,
    7076325094,
    7076325095,
    7076325096,
    7076325097,
    7076325098,
    7076325099,
    7076325100,
    7076325101,
    7076325102
  ],
  "tags": {
    "cemetery": "war_cemetery",
    "description": "Brits ereveld",
    "description:en": "British war cemetery",
    "heritage": "8",
    "heritage:operator": "Gemeente Geldrop-Mierlo",
    "landuse": "cemetery",
    "name": "Mierlo War Cemetery",
    "operator": "Commonwealth War Graves Commission",
    "operator:wikidata": "Q1117074",
    "ref": "2006700",
    "ref:heritage": "1771/M6.01",
    "website": "https://www.cwgc.org/find-a-cemetery/cemetery/2006700/mierlo-war-cemetery/",
    "wikidata": "Q1947061",
    "wikimedia_commons": "Category:Mierlo War Cemetery",
    "wikipedia": "nl:Mierlo War Cemetery"
  }
},
{
  "type": "way",
  "id": 26475329,
  "center": {
    "lat": 51.9110422,
    "lon": 5.3397002
  },
  "nodes": [
    1436930419,
    11685228755,
    11685228775,
    11685228776,
    11685228777,
    11685228778,
    11685228779,
    11685228780,
    4534494012,
    11685228663,
    290149616,
    11685228723,
    11685228724,
    4592907287,
    11685228731,
    11685228732,
    11685228733,
    4592907285,
    4592907284,
    4592907286,
    290148404,
    11685228754,
    11685228753,
    11685228752,
    290148406,
    11685228751,
    11685228750,
    11685228749,
    11685228748,
    11685228747,
    11685228746,
    11685228745,
    11685228744,
    11685228743,
    11685228742,
    11685228741,
    11685228740,
    11685228739,
    11685228738,
    11685228737,
    1436930419
  ],
  "tags": {
    "landuse": "cemetery",
    "name": "Begraafplaats Blatensedijk"
  }
},
{
  "type": "way",
  "id": 28311924,
  "center": {
    "lat": 51.1886972,
    "lon": 5.3063097
  },
  "nodes": [
    310898677,
    310898680,
    1327999816,
    1328000049,
    310898682,
    310898686,
    3581406203,
    1628176090,
    1628176088,
    1628176128,
    1628176067,
    3581406202,
    310898677
  ],
  "tags": {
    "landuse": "cemetery",
    "name": "Duitse militaire begraafplaats",
    "name:de": "Deutscher Soldatenfriedhof",
    "name:en": "German War Cemetery",
    "name:nl": "Duitse militaire begraafplaats",
    "wikidata": "Q749804",
    "wikipedia": "nl:Duitse militaire begraafplaats in Lommel"
  }
},
{
  "type": "way",
  "id": 28755976,
  "center": {
    "lat": 51.0070164,
    "lon": 5.5288187
  },
  "nodes": [
    316161671,
    316161672,
    8738442484,
    316161673,
    2443062843,
    8738602064,
    8738602094,
    2450289468,
    2450289470,
    316161674,
    316161671
  ],
  "tags": {
    "landuse": "cemetery",
    "name": "Begraafplaats Waterschei"
  }
},
{
  "type": "way",
  "id": 33786631,
  "center": {
    "lat": 51.1298760,
    "lon": 5.3673686
  },
  "nodes": [
    386868808,
    4668418188,
    4668419991,
    386868809,
    1020334969,
    1020334972,
    386868810,
    5322285549,
    5322285120,
    386868811,
    5322285521,
    4668416524,
    386868808
  ],
  "tags": {
    "landuse": "cemetery",
    "name": "Oude begraafplaats Hechtel"
  }
},
{
  "type": "way",
  "id": 35341995,
  "center": {
    "lat": 51.0048231,
    "lon": 5.5887226
  },
  "nodes": [
    414258013,
    1158101384,
    414258014,
    414258015,
    414258016,
    414258013
  ],
  "tags": {
    "landuse": "cemetery",
    "name": "Begraafplaats As"
  }
},
{
  "type": "way",
  "id": 35390040,
  "center": {
    "lat": 51.0360371,
    "lon": 5.3879165
  },
  "nodes": [
    415000260,
    415000261,
    2429301842,
    2429301841,
    415000262,
    2429301839,
    415000263,
    2429301836,
    2429301833,
    2429301829,
    415000264,
    2429301865,
    1106159482,
    1106161767,
    1106156943,
    8494327876,
    1106159948,
    8558063352,
    8558063353,
    8558063351,
    1106162245,
    8494327875,
    8558063342,
    8558063343,
    2429301875,
    1106158540,
    2429301874,
    2429301873,
    415000260
  ],
  "tags": {
    "landuse": "cemetery",
    "name": "Begraafplaats Houthalen"
  }
},
{
  "type": "way",
  "id": 35748779,
  "center": {
    "lat": 51.1085088,
    "lon": 5.7737680
  },
  "nodes": [
    418102941,
    2261382508,
    418102942,
    418102943,
    2206622612,
    418102944,
    2206622597,
    418102945,
    418102941
  ],
  "tags": {
    "landuse": "cemetery",
    "name": "Begraafplaats Maaseik Egelsberg"
  }
},
{
  "type": "way",
  "id": 36023573,
  "center": {
    "lat": 51.0900094,
    "lon": 5.5852993
  },
  "nodes": [
    421023435,
    5540065856,
    3034739804,
    3034739803,
    3034739802,
    421023437,
    8612674297,
    421023438,
    421023435
  ],
  "tags": {
    "landuse": "cemetery",
    "name": "Begraafplaats Gruitrode"
  }
},
{
  "type": "way",
  "id": 36023580,
  "center": {
    "lat": 51.0974291,
    "lon": 5.5342798
  },
  "nodes": [
    421023463,
    421023464,
    421023465,
    2171524863,
    2171524877,
    421023467,
    421023468,
    421023463
  ],
  "tags": {
    "landuse": "cemetery",
    "name": "Gemeentelijke Begraafplaats"
  }
},
{
  "type": "way",
  "id": 37262315,
  "center": {
    "lat": 51.0208738,
    "lon": 5.7365698
  },
  "nodes": [
    434134472,
    434134473,
    434134474,
    434134475,
    434134472
  ],
  "tags": {
    "landuse": "cemetery",
    "name": "Begraafplaats Stokkem"
  }
},
{
  "type": "way",
  "id": 37631747,
  "center": {
    "lat": 51.8115232,
    "lon": 5.2577803
  },
  "nodes": [
    441135900,
    441135901,
    441135902,
    441135903,
    441135900
  ],
  "tags": {
    "landuse": "cemetery",
    "name": "Oorlogsbegraafplaats"
  }
},
{
  "type": "way",
  "id": 45185163,
  "center": {
    "lat": 51.9086465,
    "lon": 5.4990561
  },
  "nodes": [
    573415429,
    4935637334,
    573415430,
    573418834,
    573415429
  ],
  "tags": {
    "amenity": "grave_yard",
    "source": "3dShapes"
  }
},
{
  "type": "way",
  "id": 45297167,
  "center": {
    "lat": 51.7693568,
    "lon": 5.5425676
  },
  "nodes": [
    575321222,
    575321220,
    575321221,
    575321223,
    575321224,
    575321226,
    575321225,
    575321251,
    10789555670,
    575321250,
    575321236,
    575321222
  ],
  "tags": {
    "landuse": "cemetery",
    "source": "3dShapes"
  }
},
{
  "type": "way",
  "id": 45297328,
  "center": {
    "lat": 51.8040999,
    "lon": 5.5450132
  },
  "nodes": [
    575322450,
    575322445,
    575322448,
    575322439,
    575322442,
    575322450
  ],
  "tags": {
    "landuse": "cemetery",
    "source": "3dShapes"
  }
},
{
  "type": "way",
  "id": 45297606,
  "center": {
    "lat": 51.7698230,
    "lon": 5.5708797
  },
  "nodes": [
    575326724,
    10783684521,
    575326712,
    575326713,
    575326703,
    10783684520,
    575326734,
    10783684531,
    10783684530,
    10783684529,
    10783684528,
    10783684527,
    575326729,
    575326726,
    575326724
  ],
  "tags": {
    "landuse": "cemetery",
    "source": "3dShapes"
  }
},
{
  "type": "way",
  "id": 45298096,
  "center": {
    "lat": 51.7986099,
    "lon": 5.5856853
  },
  "nodes": [
    575334934,
    575334936,
    6916108599,
    575334939,
    575334945,
    575334928,
    575334919,
    575334921,
    575334923,
    575334930,
    575334933,
    575334932,
    575334934
  ],
  "tags": {
    "amenity": "grave_yard",
    "source": "3dShapes"
  }
},
{
  "type": "way",
  "id": 45604170,
  "center": {
    "lat": 51.0014992,
    "lon": 5.8907155
  },
  "nodes": [
    581423079,
    581423089,
    581423092,
    581423094,
    581423095,
    581423093,
    581423105,
    581423107,
    581423101,
    581423099,
    581423100,
    581423102,
    581423098,
    581423097,
    581423078,
    581423080,
    581423079
  ],
  "tags": {
    "landuse": "cemetery",
    "source": "3dShapes"
  }
},
{
  "type": "way",
  "id": 45647871,
  "center": {
    "lat": 51.1532656,
    "lon": 5.5053385
  },
  "nodes": [
    581811169,
    581811181,
    581811178,
    581811179,
    581811180,
    581811170,
    581811169
  ],
  "tags": {
    "amenity": "grave_yard",
    "barrier": "wall",
    "denomination": "catholic",
    "name": "Oude begraafplaats",
    "religion": "christian"
  }
},
{
  "type": "way",
  "id": 45784949,
  "center": {
    "lat": 51.0045722,
    "lon": 5.7686955
  },
  "nodes": [
    583013178,
    9107651588,
    583013172,
    583013185,
    583013183,
    583013170,
    583013177,
    583013178
  ],
  "tags": {
    "barrier": "fence",
    "fence_type": "wire",
    "landuse": "cemetery",
    "source": "3dShapes"
  }
},
{
  "type": "way",
  "id": 45791105,
  "center": {
    "lat": 51.0451058,
    "lon": 5.8090728
  },
  "nodes": [
    583059718,
    583059713,
    583059708,
    7663287411,
    7663287412,
    7663287414,
    2887897007,
    7663287413,
    583059701,
    7663287408,
    7663287409,
    583059706,
    583059703,
    583059720,
    583059725,
    583059714,
    583059711,
    2887897015,
    2887896886,
    7663287407,
    583059718
  ],
  "tags": {
    "landuse": "cemetery",
    "source": "3dShapes"
  }
},
{
  "type": "way",
  "id": 45791627,
  "center": {
    "lat": 51.0486806,
    "lon": 5.8233439
  },
  "nodes": [
    2887913577,
    583062252,
    583062241,
    7655392651,
    583062240,
    2464066658,
    583062244,
    583062246,
    583062260,
    583062259,
    583062266,
    583062265,
    583062268,
    583062267,
    583062258,
    583062253,
    2887913587,
    2887913525,
    2887913515,
    2887913577
  ],
  "tags": {
    "barrier": "wall",
    "landuse": "cemetery",
    "source": "3dShapes"
  }
},
{
  "type": "way",
  "id": 46883547,
  "center": {
    "lat": 51.5132529,
    "lon": 5.4889892
  },
  "nodes": [
    598579589,
    598579591,
    598579593,
    598579592,
    598579589
  ],
  "tags": {
    "description": "De kleinste algemene begraafplaats van Nederland ?\n2 bij 3 meter\n",
    "landuse": "cemetery",
    "name": "Algemene begraafplaats Son",
    "religion": "christian"
  }
},
{
  "type": "way",
  "id": 46928894,
  "center": {
    "lat": 51.4718563,
    "lon": 5.5565501
  },
  "nodes": [
    599013611,
    599013607,
    599013604,
    599013605,
    599013611
  ],
  "tags": {
    "landuse": "cemetery",
    "name": "Algemene Begraafplaats"
  }
},
{
  "type": "way",
  "id": 47416116,
  "center": {
    "lat": 51.1054830,
    "lon": 5.5620687
  },
  "nodes": [
    603495080,
    12264253742,
    603495082,
    603495083,
    603495084,
    603495080
  ],
  "tags": {
    "landuse": "cemetery",
    "name": "Begraafplaats Wijshagen"
  }
},
{
  "type": "way",
  "id": 49180805,
  "center": {
    "lat": 51.0192754,
    "lon": 5.7282516
  },
  "nodes": [
    623881251,
    623881252,
    623881254,
    623881253,
    623881251
  ],
  "tags": {
    "landuse": "cemetery"
  }
},
{
  "type": "way",
  "id": 52164855,
  "center": {
    "lat": 51.7260210,
    "lon": 5.9503048
  },
  "nodes": [
    664540221,
    664540223,
    664540226,
    664540224,
    664540696,
    664540695,
    664540284,
    664540279,
    664540282,
    664540278,
    664540275,
    664540276,
    664540277,
    664540244,
    664540246,
    664540245,
    664540243,
    664540242,
    664540232,
    6913600584,
    6913600583,
    664540221
  ],
  "tags": {
    "landuse": "cemetery",
    "source": "3dShapes"
  }
},
{
  "type": "way",
  "id": 52723843,
  "center": {
    "lat": 51.3121548,
    "lon": 5.4253975
  },
  "nodes": [
    669184398,
    669184393,
    669184392,
    669184395,
    669184409,
    669184411,
    669184410,
    669184398
  ],
  "tags": {
    "cemetery": "war_cemetery",
    "description": "Brits ereveld",
    "description:en": "British war cemetery",
    "landuse": "cemetery",
    "name": "Valkenswaard War Cemetery",
    "operator": "Commonwealth War Graves Commission",
    "operator:wikidata": "Q1117074",
    "ref": "2006702",
    "website": "https://www.cwgc.org/visit-us/find-cemeteries-memorials/cemetery-details/2006702/valkenswaard-war-cemetery/",
    "wikidata": "Q2200592",
    "wikipedia": "nl:Valkenswaard War Cemetery"
  }
},
{
  "type": "way",
  "id": 59179245,
  "center": {
    "lat": 51.8384850,
    "lon": 5.9944655
  },
  "nodes": [
    733926111,
    733917455,
    733919164,
    733925545,
    662179660,
    662179656,
    662179695,
    662179697,
    662179691,
    662179596,
    662179603,
    662179595,
    733926111
  ],
  "tags": {
    "denomination": "roman_catholic",
    "landuse": "cemetery",
    "religion": "christian",
    "source": "3dShapes"
  }
},
{
  "type": "way",
  "id": 59182440,
  "center": {
    "lat": 51.8361811,
    "lon": 5.9018165
  },
  "nodes": [
    733951912,
    733964354,
    733980926,
    733975016,
    733944951,
    733968952,
    733979628,
    733951912
  ],
  "tags": {
    "landuse": "cemetery",
    "source": "3dShapes"
  }
},
{
  "type": "way",
  "id": 59182897,
  "center": {
    "lat": 51.8358993,
    "lon": 5.9050092
  },
  "nodes": [
    733951017,
    733969341,
    733945324,
    733975429,
    9587629997,
    733951017
  ],
  "tags": {
    "landuse": "cemetery",
    "source": "3dShapes"
  }
},
{
  "type": "way",
  "id": 59183246,
  "center": {
    "lat": 51.8537938,
    "lon": 5.9384951
  },
  "nodes": [
    733978899,
    733948389,
    733972109,
    733961066,
    733972652,
    733942719,
    733966588,
    733977335,
    733960160,
    733978899
  ],
  "tags": {
    "amenity": "grave_yard",
    "denomination": "roman_catholic",
    "name": "Sint Hubertus",
    "religion": "christian"
  }
},
{
  "type": "way",
  "id": 59183665,
  "center": {
    "lat": 51.8288675,
    "lon": 5.9216956
  },
  "nodes": [
    733961193,
    733954502,
    733948055,
    733959793,
    733982703,
    733952585,
    733976998,
    733946766,
    733970876,
    733961193
  ],
  "tags": {
    "landuse": "cemetery",
    "source": "3dShapes"
  }
},
{
  "type": "way",
  "id": 59184147,
  "center": {
    "lat": 51.8184662,
    "lon": 5.9155407
  },
  "nodes": [
    733982058,
    733965607,
    733976328,
    733959173,
    733982058
  ],
  "tags": {
    "denomination": "roman_catholic",
    "landuse": "cemetery",
    "religion": "christian",
    "source": "3dShapes"
  }
},
{
  "type": "way",
  "id": 59192194,
  "center": {
    "lat": 51.8296031,
    "lon": 5.8824666
  },
  "nodes": [
    734098114,
    734091815,
    734078805,
    734082296,
    734083819,
    734092104,
    734069196,
    734077293,
    734079209,
    734085513,
    734064211,
    734072134,
    734073933,
    734081335,
    734093753,
    734065758,
    12579075781,
    734067693,
    734076091,
    734088645,
    734095475,
    734077505,
    12579075782,
    12579075783,
    734066209,
    734064600,
    734092514,
    734079643,
    734072536,
    734083666,
    734091949,
    734068997,
    734098114
  ],
  "tags": {
    "landuse": "cemetery",
    "name": "Rustoord",
    "source": "3dShapes",
    "wikidata": "Q2405793",
    "wikimedia_commons": "Category:Rustoord (Nijmegen)",
    "wikipedia": "nl:Rustoord (Nijmegen)"
  }
},
{
  "type": "way",
  "id": 59192712,
  "center": {
    "lat": 51.8609587,
    "lon": 5.8648581
  },
  "nodes": [
    734083193,
    734091480,
    734093151,
    734065182,
    734078342,
    734084921,
    734087316,
    734094745,
    734073237,
    9235261832,
    9235261833,
    717251931,
    717031675,
    9235261834,
    734083193
  ],
  "tags": {
    "denomination": "roman_catholic",
    "landuse": "cemetery",
    "religion": "christian",
    "source": "3dShapes"
  }
},
{
  "type": "way",
  "id": 59192838,
  "center": {
    "lat": 51.8148022,
    "lon": 5.8288066
  },
  "nodes": [
    734065362,
    734078595,
    12405388699,
    734085101,
    734087660,
    734094936,
    734073453,
    734080468,
    734082472,
    734090292,
    734075457,
    784438816,
    12405388698,
    734077521,
    12405388697,
    12405388696,
    734084006,
    734079397,
    734089075,
    12405426101,
    12405388700,
    734081545,
    734074114,
    734065362
  ],
  "tags": {
    "landuse": "cemetery",
    "name": "Vredehof"
  }
},
{
  "type": "way",
  "id": 59192842,
  "center": {
    "lat": 51.8219082,
    "lon": 5.8298945
  },
  "nodes": [
    734096324,
    734064004,
    734071773,
    734083646,
    734091929,
    734093572,
    734065584,
    734078972,
    734085342,
    734074600,
    734081955,
    734094392,
    734066494,
    734068588,
    734076902,
    734089714,
    734096076,
    734098064,
    734071410,
    734083424,
    734091769,
    734093402,
    734065427,
    734078711,
    734085168,
    734087834,
    734095009,
    734073530,
    734080607,
    734082533,
    734090359,
    734067339,
    734075630,
    734077602,
    734084066,
    734096740,
    734096324
  ],
  "tags": {
    "landuse": "cemetery",
    "name": "Jonkerbosch War Cemetery",
    "source": "3dShapes",
    "wikidata": "Q2142603",
    "wikimedia_commons": "Category:Militaire begraafplaats Jonkerbosch",
    "wikipedia": "nl:Jonkerbos War Cemetery"
  }
},
{
  "type": "way",
  "id": 59193106,
  "center": {
    "lat": 51.8384121,
    "lon": 5.8732191
  },
  "nodes": [
    734093557,
    734065568,
    734067486,
    734088244,
    734095170,
    734096912,
    734069690,
    734082666,
    734090501,
    11809381836,
    671642588,
    671642587,
    12092112473,
    734064598,
    734084216,
    734093557
  ],
  "tags": {
    "denomination": "roman_catholic",
    "landuse": "cemetery",
    "name": "Begraafplaats Daalseweg",
    "religion": "christian",
    "source": "3dShapes",
    "wikidata": "Q2373030",
    "wikimedia_commons": "Category:Daalseweg cemetery Nijmegen",
    "wikipedia": "nl:Begraafplaats Daalseweg"
  }
},
{
  "type": "way",
  "id": 59193143,
  "center": {
    "lat": 51.8293144,
    "lon": 5.8487590
  },
  "nodes": [
    734072233,
    734083920,
    734092210,
    734093884,
    734065873,
    734079316,
    734085672,
    734088832,
    734095575,
    734074033,
    734081428,
    734082941,
    734090950,
    734067812,
    734076201,
    734078081,
    734084518,
    734072233
  ],
  "tags": {
    "denomination": "roman_catholic",
    "landuse": "cemetery",
    "name": "R.K. Kerkhof Groenestraat",
    "religion": "christian",
    "source": "3dShapes",
    "website": "https://www.afscheidspunt.nl/regios/nijmegen/instellingen/rk-kerkhof-groenestraat/"
  }
},
{
  "type": "way",
  "id": 59193264,
  "center": {
    "lat": 51.8312625,
    "lon": 5.8325100
  },
  "nodes": [
    734078911,
    734077057,
    734091886,
    734084386,
    734097285,
    11536481255,
    11536481256,
    734078911
  ],
  "tags": {
    "landuse": "cemetery",
    "name": "Begraafplaats Graafseweg",
    "source": "3dShapes",
    "wikidata": "Q2611939",
    "wikimedia_commons": "Category:Begraafplaats Graafseweg Nijmegen",
    "wikipedia": "nl:Begraafplaats Graafseweg"
  }
},
{
  "type": "way",
  "id": 59193271,
  "center": {
    "lat": 51.8265658,
    "lon": 5.8735241
  },
  "nodes": [
    734081973,
    734089729,
    734066528,
    734074630,
    734076916,
    734083436,
    734096090,
    734068632,
    734071426,
    734078732,
    734091782,
    734098078,
    734065442,
    734073552,
    734085183,
    734093420,
    734095023,
    734067355,
    734081973
  ],
  "tags": {
    "landuse": "cemetery",
    "source": "3dShapes"
  }
},
{
  "type": "way",
  "id": 59193387,
  "center": {
    "lat": 51.8395153,
    "lon": 5.8679327
  },
  "nodes": [
    734074870,
    734070518,
    734078140,
    734091076,
    734082107,
    734074870
  ],
  "tags": {
    "denomination": "protestant",
    "description": "In 1905 werd de begraafplaats gesloten en vanaf 1925 werden het rooms-katholieke, het joodse en een gedeelte van het protestantse deel geruimd en ingericht als park, het Julianapark. Alleen het middelste gedeelte werd met rust gelaten.",
    "landuse": "cemetery",
    "religion": "christian",
    "source": "3dShapes"
  }
},
{
  "type": "way",
  "id": 59193428,
  "center": {
    "lat": 51.8370709,
    "lon": 5.8256454
  },
  "nodes": [
    734088564,
    734095432,
    734073897,
    734081277,
    734082819,
    734090730,
    734067647,
    734076038,
    734088564
  ],
  "tags": {
    "landuse": "cemetery",
    "source": "3dShapes"
  }
},
{
  "type": "way",
  "id": 59193701,
  "center": {
    "lat": 51.8306800,
    "lon": 5.8835808
  },
  "nodes": [
    734095142,
    734096872,
    734069659,
    734082641,
    12579075786,
    734090473,
    12579075785,
    12579075784,
    734064568,
    734077734,
    734095142
  ],
  "tags": {
    "heritage": "2",
    "heritage:operator": "rce",
    "landuse": "cemetery",
    "name": "Joodse Begraafplaats",
    "ref:rce": "522935",
    "religion": "jewish",
    "source": "3dShapes",
    "wikidata": "Q2368664",
    "wikipedia": "nl:Joodse begraafplaats (Nijmegen)"
  }
},
{
  "type": "way",
  "id": 59193716,
  "center": {
    "lat": 51.8370269,
    "lon": 5.8260720
  },
  "nodes": [
    734080166,
    734087247,
    734065144,
    734073197,
    734075113,
    734094702,
    734067050,
    734069148,
    734077257,
    734090072,
    734096475,
    734080166
  ],
  "tags": {
    "landuse": "cemetery",
    "source": "3dShapes"
  }
},
{
  "type": "way",
  "id": 59193855,
  "center": {
    "lat": 51.8599296,
    "lon": 5.8658858
  },
  "nodes": [
    734096313,
    734068955,
    734082112,
    1327880216,
    1327880218,
    1327880213,
    1327880217,
    734089896,
    734096313
  ],
  "tags": {
    "denomination": "reformed",
    "landuse": "cemetery",
    "religion": "christian",
    "source": "3dShapes"
  }
},
{
  "type": "way",
  "id": 59198670,
  "center": {
    "lat": 51.8351880,
    "lon": 5.8192232
  },
  "nodes": [
    734172131,
    734151820,
    734164489,
    734167088,
    734172131
  ],
  "tags": {
    "denomination": "roman_catholic",
    "landuse": "cemetery",
    "religion": "christian",
    "source": "3dShapes"
  }
},
{
  "type": "way",
  "id": 59200060,
  "center": {
    "lat": 51.8595647,
    "lon": 5.8168144
  },
  "nodes": [
    734144670,
    734134326,
    734172508,
    734148120,
    734137400,
    734122777,
    734164862,
    734144670
  ],
  "tags": {
    "amenity": "grave_yard",
    "source": "3dShapes"
  }
},
{
  "type": "way",
  "id": 59200151,
  "center": {
    "lat": 51.8391481,
    "lon": 5.8006966
  },
  "nodes": [
    734138808,
    6163811174,
    734170367,
    734159632,
    734150086,
    734138808
  ],
  "tags": {
    "landuse": "cemetery",
    "name": "Weezenkerkhof",
    "source": "3dShapes"
  }
},
{
  "type": "way",
  "id": 59207014,
  "center": {
    "lat": 51.8857231,
    "lon": 5.9707932
  },
  "nodes": [
    734256704,
    734247350,
    734260900,
    734241458,
    734258675,
    734261936,
    734278860,
    734256704
  ],
  "tags": {
    "landuse": "cemetery",
    "source": "3dShapes"
  }
},
{
  "type": "way",
  "id": 59211467,
  "center": {
    "lat": 51.9167589,
    "lon": 5.9634834
  },
  "nodes": [
    734408725,
    734392414,
    734422989,
    734411705,
    734408725
  ],
  "tags": {
    "landuse": "cemetery",
    "source": "3dShapes"
  }
},
{
  "type": "way",
  "id": 59211507,
  "center": {
    "lat": 51.9177611,
    "lon": 5.9239923
  },
  "nodes": [
    734395842,
    734383726,
    734413453,
    734400528,
    734395842
  ],
  "tags": {
    "landuse": "cemetery",
    "source": "3dShapes"
  }
},
{
  "type": "way",
  "id": 59211519,
  "center": {
    "lat": 51.8931503,
    "lon": 5.8972466
  },
  "nodes": [
    734391735,
    734381946,
    734428808,
    734415377,
    734383930,
    734431961,
    711844499,
    711827247,
    711828284,
    711851049,
    711796083,
    711837729,
    734391735
  ],
  "tags": {
    "landuse": "cemetery",
    "source": "3dShapes"
  }
},
{
  "type": "way",
  "id": 59211813,
  "center": {
    "lat": 51.8818787,
    "lon": 5.9571046
  },
  "nodes": [
    734413059,
    734425282,
    734422093,
    734411173,
    734396148,
    734383853,
    734413571,
    734400795,
    734386175,
    734378488,
    734405061,
    734389375,
    734380651,
    734426131,
    734393040,
    734382563,
    734413059
  ],
  "tags": {
    "landuse": "cemetery",
    "name": "Begraafplaats",
    "source": "3dShapes"
  }
},
{
  "type": "way",
  "id": 59212225,
  "center": {
    "lat": 51.9173519,
    "lon": 5.9626684
  },
  "nodes": [
    734381025,
    711882701,
    711803096,
    711835249,
    711850789,
    711834638,
    711888964,
    734433576,
    734420157,
    734387651,
    734379762,
    734424355,
    734412549,
    734381779,
    734381025
  ],
  "tags": {
    "landuse": "cemetery",
    "source": "3dShapes"
  }
},
{
  "type": "way",
  "id": 59212273,
  "center": {
    "lat": 51.8867118,
    "lon": 5.9295611
  },
  "nodes": [
    734391923,
    734382025,
    734411366,
    734396562,
    734384023,
    734391923
  ],
  "tags": {
    "landuse": "cemetery",
    "source": "3dShapes"
  }
},
{
  "type": "way",
  "id": 59212621,
  "center": {
    "lat": 51.9179560,
    "lon": 5.9612086
  },
  "nodes": [
    734420920,
    734410529,
    734394774,
    734383348,
    734412961,
    734399282,
    734420920
  ],
  "tags": {
    "landuse": "cemetery",
    "source": "3dShapes"
  }
},
{
  "type": "way",
  "id": 59214917,
  "center": {
    "lat": 51.8900195,
    "lon": 5.8683623
  },
  "nodes": [
    734498388,
    734506513,
    734476798,
    734482648,
    734498388
  ],
  "tags": {
    "amenity": "grave_yard",
    "denomination": "protestant",
    "religion": "christian"
  }
},
{
  "type": "way",
  "id": 59214951,
  "center": {
    "lat": 51.8771450,
    "lon": 5.8267543
  },
  "nodes": [
    734493570,
    734486712,
    734484817,
    734496058,
    734482304,
    734501372,
    734495217,
    734493570
  ],
  "tags": {
    "amenity": "grave_yard",
    "source": "3dShapes"
  }
},
{
  "type": "way",
  "id": 59214952,
  "center": {
    "lat": 51.8870132,
    "lon": 5.8917922
  },
  "nodes": [
    734481060,
    734500078,
    734493873,
    734506695,
    734485613,
    734492344,
    734500339,
    734481060
  ],
  "tags": {
    "landuse": "cemetery",
    "name": "De Teselaar",
    "source": "3dShapes"
  }
},
{
  "type": "way",
  "id": 59215060,
  "center": {
    "lat": 51.8707053,
    "lon": 5.8641847
  },
  "nodes": [
    734492151,
    4100389729,
    1815015270,
    734506330,
    734486893,
    734485236,
    734479100,
    734491993,
    734490324,
    734493908,
    734492151
  ],
  "tags": {
    "landuse": "cemetery",
    "source": "3dShapes"
  }
},
{
  "type": "way",
  "id": 59215624,
  "center": {
    "lat": 51.9200249,
    "lon": 5.8360414
  },
  "nodes": [
    734488958,
    12306411046,
    12306411045,
    734487368,
    12306411044,
    12306411038,
    12306411037,
    12306411036,
    12306411033,
    12306411043,
    734501936,
    734494709,
    12306411047,
    12306411032,
    12306411035,
    12306411048,
    12306411917,
    12306411921,
    12306411923,
    12306411034,
    734485211,
    12306411916,
    12306411041,
    12306411040,
    12306411039,
    2060720040,
    6170405868,
    6170405866,
    6170405867,
    734488958
  ],
  "tags": {
    "landuse": "cemetery",
    "name": "Algemene Begraafplaats",
    "source": "3dShapes"
  }
},
{
  "type": "way",
  "id": 59215730,
  "center": {
    "lat": 51.8820884,
    "lon": 5.8279024
  },
  "nodes": [
    734480112,
    734486266,
    6540254678,
    734488564,
    734494746,
    734507777,
    734481893,
    734483649,
    734500940,
    6540257292,
    734480112
  ],
  "tags": {
    "landuse": "cemetery",
    "source": "3dShapes"
  }
},
{
  "type": "way",
  "id": 59216088,
  "center": {
    "lat": 51.9182665,
    "lon": 5.8367256
  },
  "nodes": [
    734485604,
    734499317,
    12315005682,
    3008910169,
    3008910603,
    3008910617,
    3008914853,
    734493799,
    12315005683,
    734497212,
    12315005688,
    12315005690,
    12315005689,
    734498913,
    734497779,
    734486454,
    734480418,
    734478714,
    13245354385,
    13245354351,
    13245354350,
    12315005687,
    12315005676,
    12315005684,
    12315005677,
    734500258,
    12315005678,
    734484519,
    12315005679,
    734494637,
    12315005680,
    12315005681,
    734485604
  ],
  "tags": {
    "denomination": "roman_catholic",
    "landuse": "cemetery",
    "name": "Rooms-katholieke Begraafplaats",
    "religion": "christian",
    "source": "3dShapes"
  }
},
{
  "type": "way",
  "id": 59225636,
  "center": {
    "lat": 51.9069016,
    "lon": 5.7855901
  },
  "nodes": [
    734622375,
    734605548,
    734628581,
    734611600,
    734610342,
    734616018,
    734600473,
    734599227,
    734620920,
    734604333,
    734627132,
    734625793,
    734608773,
    734632261,
    734614688,
    734597973,
    734619110,
    734622375
  ],
  "tags": {
    "amenity": "grave_yard",
    "landuse": "cemetery",
    "source": "3dShapes"
  }
},
{
  "type": "way",
  "id": 59225703,
  "center": {
    "lat": 51.9114567,
    "lon": 5.7897928
  },
  "nodes": [
    734634116,
    7749944206,
    7749944205,
    734621099,
    734619257,
    734603300,
    734634116
  ],
  "tags": {
    "landuse": "cemetery",
    "source": "3dShapes"
  }
},
{
  "type": "way",
  "id": 59226394,
  "center": {
    "lat": 51.8840100,
    "lon": 5.7852317
  },
  "nodes": [
    734611888,
    734612486,
    734630106,
    734608081,
    734625199,
    734610215,
    734627042,
    734634270,
    734616286,
    734600704,
    734611888
  ],
  "tags": {
    "historic": "memorial",
    "landuse": "cemetery",
    "source": "3dShapes"
  }
},
{
  "type": "way",
  "id": 59296897,
  "center": {
    "lat": 51.9310297,
    "lon": 5.9878555
  },
  "nodes": [
    735254895,
    735242705,
    735232268,
    735278517,
    735264367,
    735237711,
    735228261,
    735271991,
    735258846,
    735246515,
    735235120,
    735243969,
    735254895
  ],
  "tags": {
    "denomination": "roman_catholic",
    "landuse": "cemetery",
    "name": "H. Antonius Abt",
    "religion": "christian",
    "source": "3dShapes"
  }
},
{
  "type": "way",
  "id": 59301374,
  "center": {
    "lat": 51.9649680,
    "lon": 5.9695296
  },
  "nodes": [
    735313949,
    735335594,
    735347383,
    735363117,
    735343143,
    735357108,
    735308317,
    735356468,
    735328260,
    735319821,
    735305958,
    735326143,
    8316491090,
    735348762,
    735313949
  ],
  "tags": {
    "landuse": "cemetery"
  }
},
{
  "type": "way",
  "id": 59301399,
  "center": {
    "lat": 51.9366774,
    "lon": 5.9398130
  },
  "nodes": [
    735322627,
    735355612,
    735307554,
    735319414,
    735332309,
    735365581,
    735316192,
    735328891,
    735336429,
    735323733,
    735311706,
    735308041,
    735356115,
    735313021,
    735324882,
    735337770,
    735351660,
    735321382,
    735347982,
    9998151933,
    735362160,
    735322627
  ],
  "tags": {
    "landuse": "cemetery",
    "source": "3dShapes"
  }
},
{
  "type": "way",
  "id": 59301575,
  "center": {
    "lat": 51.9611979,
    "lon": 5.9660120
  },
  "nodes": [
    735309258,
    735321029,
    735347563,
    735364739,
    735315465,
    735327977,
    735340884,
    735309258
  ],
  "tags": {
    "landuse": "cemetery",
    "source": "3dShapes"
  }
},
{
  "type": "way",
  "id": 59306973,
  "center": {
    "lat": 51.9933603,
    "lon": 5.9812625
  },
  "nodes": [
    735551037,
    735518267,
    735493596,
    735458177,
    735536420,
    735538267,
    735521101,
    10720797667,
    735479336,
    10720797666,
    735460792,
    735525821,
    735500561,
    735465274,
    735543853,
    735468362,
    7506180723,
    735547371,
    7506180726,
    735551037
  ],
  "tags": {
    "heritage": "8",
    "landuse": "cemetery",
    "name": "Oude Begraafplaats Velp",
    "source": "3dShapes",
    "start_date": "1836",
    "website": "https://www.oudebegraafplaatsvelp.nl",
    "wikidata": "Q106646289"
  }
},
{
  "type": "way",
  "id": 59316558,
  "center": {
    "lat": 51.9617253,
    "lon": 5.8147050
  },
  "nodes": [
    735818301,
    735865962,
    12500941913,
    735829554,
    735791765,
    735842432,
    735809383,
    735861592,
    735823697,
    735787155,
    735784802,
    12500941926,
    12500941928,
    12500941929,
    735834352,
    12500941930,
    735847480,
    12505361348,
    12505361349,
    735864484,
    12505361419,
    735828040,
    12505361352,
    12505361351,
    12505361350,
    12505361353,
    12505361354,
    12505361355,
    12505361356,
    12505361357,
    735789899,
    735840863,
    735837772,
    3016657207,
    735799462,
    735851687,
    735812931,
    3016657357,
    3016657355,
    735790938,
    3016657361,
    3016657409,
    5039393610,
    5039393298,
    735803308,
    735855814,
    3016657303,
    12747594805,
    735852380,
    735818301
  ],
  "tags": {
    "amenity": "grave_yard",
    "source": "3dShapes"
  }
},
{
  "type": "way",
  "id": 59317014,
  "center": {
    "lat": 51.9766916,
    "lon": 5.7596502
  },
  "nodes": [
    735862230,
    735824446,
    735787664,
    10562962160,
    735838525,
    735835277,
    735810252,
    735781409,
    735830876,
    735793017,
    735843706,
    735840729,
    735802399,
    735854926,
    735816585,
    735833500,
    735795741,
    735846698,
    10563329096,
    10563329095,
    735808265,
    10563329094,
    735805404,
    735857786,
    735784082,
    735847309,
    10563329091,
    735809182,
    735861475,
    10563329092,
    735862230
  ],
  "tags": {
    "denomination": "protestant",
    "landuse": "cemetery",
    "religion": "christian",
    "source": "AHN"
  }
},
{
  "type": "way",
  "id": 59317026,
  "center": {
    "lat": 51.9617910,
    "lon": 5.8114905
  },
  "nodes": [
    735815740,
    735866737,
    735830223,
    735826749,
    735789014,
    735815740
  ],
  "tags": {
    "amenity": "grave_yard",
    "source": "3dShapes"
  }
},
{
  "type": "way",
  "id": 59317733,
  "center": {
    "lat": 51.9619573,
    "lon": 5.7553404
  },
  "nodes": [
    735840064,
    735801661,
    735839252,
    735800800,
    735853039,
    735849770,
    735811140,
    735840064
  ],
  "tags": {
    "landuse": "cemetery",
    "source": "3dShapes"
  }
},
{
  "type": "way",
  "id": 59317837,
  "center": {
    "lat": 51.9524899,
    "lon": 5.7572995
  },
  "nodes": [
    735853360,
    735815240,
    735866175,
    735863293,
    735825791,
    735853360
  ],
  "tags": {
    "landuse": "cemetery",
    "name": "Algemene Begraafplaats Heteren",
    "source": "3dShapes",
    "website": "https://www.tracesofwar.nl/sights/1890/Oorlogsgraven-van-het-Gemenebest-Algemene-Begraafplaats-Heteren.htm"
  }
},
{
  "type": "way",
  "id": 59318701,
  "center": {
    "lat": 51.9972138,
    "lon": 5.9675420
  },
  "nodes": [
    735861806,
    735832452,
    735802463,
    735785724,
    735884811,
    735864505,
    735835923,
    735890860,
    735872028,
    735843350,
    735814084,
    735827833,
    735797699,
    735861806
  ],
  "tags": {
    "denomination": "roman_catholic",
    "landuse": "cemetery",
    "name": "RK begraafplaats Velp",
    "religion": "christian"
  }
},
{
  "type": "way",
  "id": 59352851,
  "center": {
    "lat": 51.9586158,
    "lon": 5.8840431
  },
  "nodes": [
    736110298,
    736118541,
    736091537,
    736105827,
    7434458755,
    7434458756,
    7434458757,
    736116324,
    2725817112,
    2725817186,
    2725817340,
    2725817383,
    2725817888,
    7434458758,
    736102484,
    736110298
  ],
  "tags": {
    "landuse": "cemetery",
    "name": "Rooms Katholiek Kerkhof Elden",
    "source": "3dShapes"
  }
},
{
  "type": "way",
  "id": 59353328,
  "center": {
    "lat": 51.9608463,
    "lon": 5.8870810
  },
  "nodes": [
    736103804,
    736114242,
    736085717,
    736094479,
    7434355649,
    7434355648,
    7434355647,
    736099532,
    736112236,
    736120513,
    736118573,
    736127386,
    736116347,
    736125440,
    736103804
  ],
  "tags": {
    "landuse": "cemetery",
    "source": "3dShapes"
  }
},
{
  "type": "way",
  "id": 59356263,
  "center": {
    "lat": 51.9949952,
    "lon": 5.8538200
  },
  "nodes": [
    736174217,
    736186748,
    9445496213,
    736198847,
    736157220,
    9445507618,
    736183594,
    9445507619,
    736195472,
    736154695,
    736163872,
    736192929,
    736203438,
    9445507622,
    9445507621,
    9445507623,
    736161470,
    736171815,
    9445507624,
    9445507625,
    736200260,
    9445507626,
    736159100,
    736169143,
    736180312,
    736196574,
    736155550,
    9445507627,
    736165208,
    736176152,
    736204710,
    736162342,
    9445507636,
    736172831,
    736184531,
    736160006,
    736170087,
    736182196,
    736194016,
    736167092,
    736190985,
    9445507641,
    736163277,
    736173684,
    736185782,
    9445507640,
    9445507639,
    736197782,
    736171195,
    9445507637,
    736183059,
    736194933,
    736154150,
    9445507638,
    736179582,
    736192205,
    9445496159,
    736160865,
    736188296,
    736199725,
    9445496158,
    736158567,
    736183990,
    9445496161,
    736195818,
    736155026,
    736164291,
    736193318,
    9445496163,
    736203883,
    9445496164,
    9445496165,
    9445496168,
    736161812,
    9445496175,
    736172190,
    9445496209,
    736200863,
    9445496210,
    736159472,
    9445496211,
    736169475,
    736181114,
    9445507647,
    736156622,
    9445507667,
    9445507668,
    9445496177,
    9445507648,
    736166472,
    6597163948,
    6597163946,
    736178122,
    736189864,
    736182668,
    736198473,
    9445508550,
    736171997,
    736161625,
    736203587,
    736171671,
    736161301,
    736166282,
    736156482,
    736197505,
    736185366,
    736159314,
    736153543,
    736162680,
    736173163,
    736184872,
    736160333,
    736170464,
    736182525,
    736194392,
    736167624,
    736179042,
    736191620,
    736174217
  ],
  "tags": {
    "landuse": "cemetery",
    "name": "Algemene Begraafplaats Arnhem-Oosterbeek",
    "source": "AHN"
  }
},
{
  "type": "way",
  "id": 59356442,
  "center": {
    "lat": 51.9931073,
    "lon": 5.8505350
  },
  "nodes": [
    736182527,
    736194394,
    736153546,
    736179044,
    736191623,
    736160335,
    736187354,
    736199183,
    736157641,
    736167630,
    9445507669,
    736195820,
    736155028,
    736164293,
    736174661,
    736192715,
    9445507812,
    9445507815,
    736203209,
    736187827,
    736175447,
    736164730,
    736155305,
    736179329,
    736168276,
    9445508498,
    736182527
  ],
  "tags": {
    "landuse": "cemetery",
    "name": "Algemene Begraafplaats Arnhem-Oosterbeek",
    "source": "AHN"
  }
},
{
  "type": "way",
  "id": 59357608,
  "center": {
    "lat": 51.9944981,
    "lon": 5.8540775
  },
  "nodes": [
    736196512,
    736155503,
    736165158,
    736193947,
    736204663,
    736162296,
    736172785,
    736201733,
    9445496214,
    736159958,
    736170038,
    736182141,
    736157174,
    9445496215,
    736167037,
    9445496216,
    736178605,
    9445507617,
    9445507620,
    736190804,
    736154107,
    736163164,
    9445496212,
    736173638,
    736185631,
    736160820,
    9445496183,
    9445496184,
    9445496185,
    9445496186,
    9445496187,
    736171150,
    9445496188,
    9445496189,
    736183014,
    9445496190,
    9445496191,
    9445496192,
    736194890,
    9445496193,
    736196512
  ],
  "tags": {
    "landuse": "cemetery",
    "source": "AHN"
  }
},
{
  "type": "way",
  "id": 59357681,
  "center": {
    "lat": 51.9883346,
    "lon": 5.8444445
  },
  "nodes": [
    736171157,
    736183020,
    736157563,
    736167538,
    736183952,
    736169435,
    7685119885,
    736171157
  ],
  "tags": {
    "denomination": "roman_catholic",
    "landuse": "cemetery",
    "religion": "christian",
    "source": "3dShapes"
  }
},
{
  "type": "way",
  "id": 59358372,
  "center": {
    "lat": 51.9947076,
    "lon": 5.8537961
  },
  "nodes": [
    736169277,
    9445496174,
    9445496173,
    9445496172,
    9445496171,
    9445496169,
    9445496170,
    736180596,
    9445496167,
    9445496166,
    736193078,
    736203583,
    736177775,
    736189488,
    736200527,
    736159234,
    736185259,
    9445496162,
    736197452,
    736156434,
    9445496160,
    736166228,
    736182332,
    736194183,
    736204850,
    9445507628,
    736162481,
    9445507629,
    9445507630,
    736191332,
    736201984,
    9445507631,
    736201078,
    736190164,
    736204185,
    9445507632,
    736193466,
    736181512,
    736169616,
    736155717,
    736196728,
    9445496208,
    736184677,
    736172975,
    736169277
  ],
  "tags": {
    "landuse": "cemetery",
    "source": "AHN"
  }
},
{
  "type": "way",
  "id": 59358402,
  "center": {
    "lat": 52.0016921,
    "lon": 5.8256400
  },
  "nodes": [
    736179567,
    736191787,
    12335613830,
    736202401,
    12335613836,
    736194523,
    12335613377,
    736242860,
    736178250,
    9456062548,
    736193456,
    736181486,
    736176470,
    736165356,
    736179755,
    736168679,
    736240389,
    736246883,
    736251732,
    736260779,
    736271252,
    736247922,
    736258152,
    736268688,
    736230526,
    736255664,
    6907361686,
    9456093721,
    736257962,
    736243944,
    736265457,
    6900790256,
    736240797,
    6907294534,
    9456062555,
    6907294533,
    736252509,
    12335613384,
    736249597,
    736269480,
    9456062546,
    12335613831,
    736267746,
    736198324,
    9456062502,
    9456062543,
    9455093552,
    736166733,
    9456062586,
    9456062585,
    9456062584,
    9456062583,
    736179567
  ],
  "tags": {
    "landuse": "cemetery",
    "name": "Natuurbegraafplaats Koningsakker",
    "source": "survey; bestemmingsplan",
    "survey:date": "2019-10-19",
    "website": "https://www.natuurbegraafplaatskoningsakker.nl/"
  }
},
{
  "type": "way",
  "id": 59358485,
  "center": {
    "lat": 51.9983939,
    "lon": 5.8338920
  },
  "nodes": [
    736159301,
    736200666,
    736189555,
    736177862,
    736203628,
    736193124,
    736191544,
    736176922,
    736203144,
    736192651,
    736179927,
    736168856,
    736154976,
    736199079,
    736157452,
    736167376,
    736195717,
    736154928,
    736164116,
    9455094114,
    736174481,
    945319387,
    736153437,
    736194286,
    736182426,
    736170342,
    736156525,
    736197555,
    736185484,
    736173578,
    736173016,
    736159301
  ],
  "tags": {
    "denomination": "catholic",
    "landuse": "cemetery",
    "note": "Begraafplaats voor de paters en zusters van de congregatie van Mill-Hill",
    "religion": "christian",
    "source": "AHN"
  }
},
{
  "type": "way",
  "id": 59358941,
  "center": {
    "lat": 51.9837865,
    "lon": 5.8435778
  },
  "nodes": [
    736155000,
    736164264,
    736193291,
    736203831,
    736161786,
    10127591170,
    736172164,
    736200832,
    736159447,
    736168732,
    736158740,
    736181071,
    736175659,
    736187946,
    736199540,
    736155000
  ],
  "tags": {
    "landuse": "cemetery",
    "name": "oude begraafplaats",
    "wikidata": "Q104439166"
  }
},
{
  "type": "way",
  "id": 62185707,
  "center": {
    "lat": 51.9852809,
    "lon": 5.8907152
  },
  "nodes": [
    775745542,
    775745530,
    9721256873,
    9721256874,
    9721256875,
    775745509,
    775745528,
    775745542
  ],
  "tags": {
    "landuse": "cemetery",
    "religion": "jewish",
    "url": "http://arneym.nl/kerkkloostergraf/00000097aa0c93cee/00000098b80ae480a/index.html"
  }
},
{
  "type": "way",
  "id": 62444172,
  "center": {
    "lat": 51.9775475,
    "lon": 5.5408804
  },
  "nodes": [
    779654158,
    779654150,
    779654154,
    779654176,
    4318630302,
    4318630301,
    5721163699,
    896069175,
    4318630300,
    4318630299,
    779654158
  ],
  "tags": {
    "landuse": "cemetery",
    "name": "Begraafplaats de Larikshof",
    "religion": "none",
    "url": "https://www.online-begraafplaatsen.nl/begraafplaats.asp?command=showbg&bgp=166"
  }
},
{
  "type": "way",
  "id": 68582516,
  "center": {
    "lat": 51.9313377,
    "lon": 5.3103568
  },
  "nodes": [
    720009630,
    824570656,
    719986888,
    824577594,
    824597508,
    824584441,
    824604532,
    824580512,
    824600608,
    720009630
  ],
  "tags": {
    "landuse": "cemetery",
    "source": "3dShapes"
  }
},
{
  "type": "way",
  "id": 68582616,
  "center": {
    "lat": 51.9428458,
    "lon": 5.3112511
  },
  "nodes": [
    824602247,
    824599446,
    824572356,
    824565632,
    824579715,
    4541561379,
    824568802,
    824574252,
    824595585,
    824571439,
    824591614,
    824578581,
    824598236,
    824585859,
    824602247
  ],
  "tags": {
    "landuse": "cemetery",
    "source": "3dShapes"
  }
},
{
  "type": "way",
  "id": 68582691,
  "center": {
    "lat": 51.9479971,
    "lon": 5.2955106
  },
  "nodes": [
    824591708,
    824580108,
    824600011,
    824603062,
    824575970,
    824570926,
    824590693,
    824578045,
    824594716,
    824591708
  ],
  "tags": {
    "landuse": "cemetery",
    "name": "Algemene Begraafplaats",
    "source": "3dShapes"
  }
},
{
  "type": "way",
  "id": 68595666,
  "center": {
    "lat": 51.9640940,
    "lon": 5.2335801
  },
  "nodes": [
    824766236,
    824761080,
    7894651824,
    9558771575,
    7890364804,
    7894651817,
    824684581,
    824719029,
    7875586348,
    8543733749,
    7827777735,
    7827777736,
    7827777737,
    7827777738,
    7875586347,
    7827777740,
    7827777741,
    7827777742,
    7827777743,
    824766236
  ],
  "tags": {
    "landuse": "cemetery",
    "name": "Nieuwe Algemene Begraafplaats Plantagehof",
    "source": "3dShapes"
  }
},
{
  "type": "way",
  "id": 68597625,
  "center": {
    "lat": 51.9633761,
    "lon": 5.2322233
  },
  "nodes": [
    824712267,
    8660232075,
    8660345291,
    4159560211,
    12388802562,
    824763595,
    7894732889,
    824716350,
    824712267
  ],
  "tags": {
    "landuse": "cemetery",
    "name": "Oude Algemene Begraafplaats",
    "source": "3dShapes"
  }
},
{
  "type": "way",
  "id": 68647370,
  "center": {
    "lat": 51.9624928,
    "lon": 5.0394670
  },
  "nodes": [
    825026858,
    825076624,
    825036389,
    824947463,
    824900432,
    825047860,
    825078931,
    824938583,
    824994050,
    825005507,
    824911007,
    825026858
  ],
  "tags": {
    "landuse": "cemetery",
    "source": "3dShapes"
  }
},
{
  "type": "way",
  "id": 68647757,
  "center": {
    "lat": 51.9483256,
    "lon": 5.0675798
  },
  "nodes": [
    824873743,
    825075148,
    824895744,
    825023814,
    824901909,
    825018407,
    825058469,
    825020856,
    825075084,
    824904797,
    825043236,
    824908721,
    824950658,
    825088486,
    825007980,
    824957326,
    825010923,
    824968098,
    824866544,
    825044173,
    824940758,
    825028251,
    824890015,
    825042108,
    824873743
  ],
  "tags": {
    "landuse": "cemetery",
    "source": "3dShapes"
  }
},
{
  "type": "way",
  "id": 68774813,
  "center": {
    "lat": 51.9867627,
    "lon": 5.0872232
  },
  "nodes": [
    826403737,
    826428930,
    11312229040,
    826423289,
    11312229039,
    4419593361,
    11312229041,
    4419593373,
    4419593360,
    826473164,
    826459030,
    826374938,
    826393670,
    11311456755,
    11311456754,
    11311456756,
    11312228893,
    11312228892,
    826389018,
    11312228906,
    11312228894,
    4420642228,
    11312228878,
    11312228877,
    11312228876,
    11312228875,
    11312229038,
    11312229036,
    11312229037,
    826435993,
    826403737
  ],
  "tags": {
    "landuse": "cemetery",
    "name": "Algemene Begraafplaats"
  }
},
{
  "type": "way",
  "id": 68778510,
  "center": {
    "lat": 51.9926524,
    "lon": 5.0457533
  },
  "nodes": [
    826425065,
    9434063892,
    9434063933,
    826371230,
    826467107,
    7804603488,
    7804603489,
    826414372,
    826425065
  ],
  "tags": {
    "amenity": "grave_yard",
    "source": "3dShapes"
  }
},
{
  "type": "way",
  "id": 68793349,
  "center": {
    "lat": 51.9437148,
    "lon": 5.1403700
  },
  "nodes": [
    826592631,
    826577937,
    10657959811,
    10657959810,
    826600844,
    10657959813,
    10657959812,
    10657959814,
    826549409,
    826594220,
    10657959806,
    10657959805,
    7787966160,
    826558349,
    10657959807,
    826554852,
    826584106,
    10657959808,
    10657959809,
    826566530,
    2812224789,
    826592631
  ],
  "tags": {
    "landuse": "cemetery",
    "name": "Algemene Begraafplaats",
    "source": "3dShapes"
  }
},
{
  "type": "way",
  "id": 68793995,
  "center": {
    "lat": 51.9801656,
    "lon": 5.1209950
  },
  "nodes": [
    826593435,
    11230724317,
    826585490,
    11228790005,
    11228790004,
    826587241,
    2816710862,
    2816710892,
    2816710870,
    2816710875,
    2816710881,
    2816710286,
    826549876,
    826594948,
    826559585,
    826544785,
    826571022,
    826593435
  ],
  "tags": {
    "landuse": "cemetery",
    "name": "Begraafplaats Hagestein",
    "religion": "christian",
    "source": "3dShapes"
  }
},
{
  "type": "way",
  "id": 68797009,
  "center": {
    "lat": 51.9651718,
    "lon": 5.1578006
  },
  "nodes": [
    826595721,
    826568810,
    826593602,
    2814302513,
    2814302510,
    2814302450,
    826579310,
    11234084752,
    826595721
  ],
  "tags": {
    "denomination": "roman_catholic",
    "landuse": "cemetery",
    "name": "RK Begraafplaats",
    "religion": "christian",
    "source": "3dShapes"
  }
},
{
  "type": "way",
  "id": 70523262,
  "center": {
    "lat": 51.1315266,
    "lon": 5.5227780
  },
  "nodes": [
    841565656,
    11608104353,
    11608104354,
    11608104363,
    11608121391,
    2191275753,
    841565664,
    2171009500,
    841565666,
    841565656
  ],
  "tags": {
    "landuse": "cemetery",
    "name": "Begraafplaats Ellikom"
  }
},
{
  "type": "way",
  "id": 75571500,
  "center": {
    "lat": 51.9821902,
    "lon": 5.7227377
  },
  "nodes": [
    892283720,
    9148072306,
    9148072305,
    9148072304,
    9148072303,
    892300540,
    892342296,
    9148089823,
    892318368,
    9148072270,
    892288120,
    892266119,
    892291461,
    892273875,
    892336381,
    892311698,
    892310552,
    892338991,
    892277126,
    892293325,
    892329725,
    892236500,
    892287746,
    892281467,
    4936558948,
    5042819600,
    4936558947,
    4936558946,
    4936558945,
    894703505,
    894698521,
    9146659850,
    9146659851,
    8722094752,
    8722094751,
    9146659817,
    4936559981,
    4936218550,
    4936558944,
    9148089819,
    4936218548,
    892305770,
    9148089820,
    892283720
  ],
  "tags": {
    "landuse": "cemetery",
    "source": "AHN"
  }
},
{
  "type": "way",
  "id": 75574401,
  "center": {
    "lat": 51.9979838,
    "lon": 5.6804219
  },
  "nodes": [
    892256503,
    892319813,
    892303059,
    892313443,
    892285864,
    892258052,
    8005816499,
    892321708,
    8005816500,
    892304076,
    8005816501,
    892269543,
    892293567,
    892256503
  ],
  "tags": {
    "landuse": "cemetery",
    "source": "3dShapes"
  }
},
{
  "type": "way",
  "id": 75574846,
  "center": {
    "lat": 51.9849847,
    "lon": 5.6824345
  },
  "nodes": [
    892310504,
    892236532,
    892329781,
    892293340,
    892247697,
    892261233,
    892325850,
    892304979,
    892273553,
    892233795,
    892237652,
    892331059,
    892294124,
    892278390,
    892340088,
    892310824,
    892338738,
    892276916,
    892293193,
    892228656,
    892266157,
    892302250,
    892318414,
    892255431,
    892284859,
    892312632,
    892219826,
    892310876,
    892306425,
    892305037,
    892326106,
    892261500,
    892287044,
    892314595,
    892224793,
    892283657,
    892300493,
    892281414,
    892297302,
    892336411,
    892245127,
    892291495,
    892310504
  ],
  "tags": {
    "landuse": "cemetery",
    "name": "Leeuwerenk",
    "source": "3dShapes",
    "wikidata": "Q2248546",
    "wikipedia": "nl:Leeuwerenk"
  }
},
{
  "type": "way",
  "id": 75791698,
  "center": {
    "lat": 51.9847654,
    "lon": 5.4979270
  },
  "nodes": [
    894617567,
    894623864,
    894613240,
    894584440,
    894642678,
    894637451,
    894621293,
    894592443,
    894652268,
    894587959,
    894617567
  ],
  "tags": {
    "landuse": "cemetery",
    "source": "3dShapes"
  }
},
{
  "type": "way",
  "id": 75797713,
  "center": {
    "lat": 51.9315225,
    "lon": 5.7142776
  },
  "nodes": [
    894698289,
    894743501,
    894739646,
    894725918,
    894707914,
    894695539,
    894714237,
    894701486,
    894738431,
    894723859,
    894720342,
    894711813,
    894748577,
    894735004,
    894696522,
    894740865,
    894718558,
    894709503,
    894704838,
    894698761,
    894712710,
    894721373,
    894745339,
    894699121,
    894702381,
    894714756,
    894693688,
    894698289
  ],
  "tags": {
    "landuse": "cemetery",
    "source": "3dShapes"
  }
},
{
  "type": "way",
  "id": 75797755,
  "center": {
    "lat": 51.9436410,
    "lon": 5.7138620
  },
  "nodes": [
    894702405,
    894691302,
    894725024,
    894714764,
    894712725,
    894702405
  ],
  "tags": {
    "amenity": "grave_yard",
    "source": "3dShapes"
  }
},
{
  "type": "way",
  "id": 75797957,
  "center": {
    "lat": 51.9756095,
    "lon": 5.7377514
  },
  "nodes": [
    894709459,
    894745628,
    8998877684,
    7903403625,
    7903403623,
    894732580,
    10586904961,
    894727212,
    10586916143,
    894709459
  ],
  "tags": {
    "landuse": "cemetery",
    "source": "AHN"
  }
},
{
  "type": "way",
  "id": 75798897,
  "center": {
    "lat": 51.9302041,
    "lon": 5.6981345
  },
  "nodes": [
    894698653,
    894695893,
    894740009,
    894717605,
    894708448,
    894726585,
    894715440,
    894696111,
    894740263,
    894700531,
    894712149,
    894698653
  ],
  "tags": {
    "landuse": "cemetery",
    "name": "Klein-Hemmen",
    "source": "3dShapes"
  }
},
{
  "type": "way",
  "id": 75798959,
  "center": {
    "lat": 51.9509613,
    "lon": 5.7067286
  },
  "nodes": [
    894738018,
    894740128,
    894703993,
    894703732,
    894738018
  ],
  "tags": {
    "landuse": "cemetery",
    "name": "Kerkelijke Begraafplaats",
    "source": "3dShapes"
  }
},
{
  "type": "way",
  "id": 75799888,
  "center": {
    "lat": 51.9293517,
    "lon": 5.7157718
  },
  "nodes": [
    894737062,
    894722503,
    894719107,
    12633367041,
    894710373,
    894747033,
    894733636,
    894718757,
    894709733,
    894746076,
    894732836,
    894727538,
    12633367045,
    894715816,
    894696693,
    12633367044,
    12633367043,
    894741105,
    12633367042,
    3017169774,
    12633367040,
    894737062
  ],
  "tags": {
    "landuse": "cemetery",
    "religion": "christian",
    "source": "3dShapes"
  }
},
{
  "type": "way",
  "id": 75799990,
  "center": {
    "lat": 51.9599473,
    "lon": 5.7480772
  },
  "nodes": [
    894738093,
    5339778135,
    894723369,
    5339778136,
    894748219,
    894734583,
    894738093
  ],
  "tags": {
    "landuse": "cemetery",
    "source": "3dShapes"
  }
},
{
  "type": "way",
  "id": 75883485,
  "center": {
    "lat": 51.9668430,
    "lon": 5.6695622
  },
  "nodes": [
    895687141,
    895663480,
    895702823,
    895669930,
    895687141
  ],
  "tags": {
    "heritage": "2",
    "heritage:operator": "rce",
    "landuse": "cemetery",
    "name": "Joodse begraafplaats",
    "ref:rce": "38211",
    "religion": "jewish",
    "wikidata": "Q2234983"
  }
},
{
  "type": "way",
  "id": 75887304,
  "center": {
    "lat": 51.9316976,
    "lon": 5.6338108
  },
  "nodes": [
    895666067,
    895650386,
    895693109,
    10141135128,
    895677940,
    895682212,
    895681000,
    895711762,
    895656694,
    10141135363,
    895666067
  ],
  "tags": {
    "landuse": "cemetery",
    "name": "Algemene Begraafplaats Dalwagenseweg"
  }
},
{
  "type": "way",
  "id": 75904048,
  "center": {
    "lat": 51.9944379,
    "lon": 5.3171904
  },
  "nodes": [
    895945216,
    895982963,
    895883977,
    895897848,
    895945216
  ],
  "tags": {
    "landuse": "cemetery",
    "name": "Nederlands Hervormde Begraafplaats",
    "source": "3dShapes",
    "start_date": "1885"
  }
},
{
  "type": "way",
  "id": 75905251,
  "center": {
    "lat": 51.9905818,
    "lon": 5.3214495
  },
  "nodes": [
    895926957,
    895961706,
    895997234,
    895888962,
    895907413,
    895934610,
    895890387,
    895909773,
    895938219,
    895976418,
    896014107,
    895894948,
    895919102,
    895947344,
    895923427,
    895954612,
    895991213,
    895886577,
    895902801,
    895929296,
    895966350,
    896002524,
    896011719,
    895894054,
    895917653,
    895945758,
    895983894,
    895884306,
    895898536,
    895925028,
    9850669249,
    895902015,
    895928379,
    895964520,
    896000369,
    895889438,
    895926957
  ],
  "tags": {
    "landuse": "cemetery",
    "name": "Begraafplaats Groenewoud",
    "source": "3dShapes"
  }
},
{
  "type": "way",
  "id": 75910251,
  "center": {
    "lat": 51.9556671,
    "lon": 5.6005180
  },
  "nodes": [
    896120062,
    896014146,
    895938128,
    896095566,
    9085488841,
    895971397,
    896138601,
    896127449,
    896082069,
    896001801,
    895957501,
    8038282898,
    896132137,
    6553362315,
    896120062
  ],
  "tags": {
    "cemetery": "war_cemetery",
    "landuse": "cemetery",
    "name": "Militair Ereveld Grebbeberg",
    "note": "Grebbelinie",
    "operator": "Oorlogsgravenstichting",
    "start_date": "1940-05",
    "website": "https://oorlogsgravenstichting.nl/begraafplaats/301/militair-ereveld-grebbeberg-te-rhenen",
    "wikidata": "Q2088039",
    "wikipedia": "nl:Militair ereveld Grebbeberg"
  }
},
{
  "type": "way",
  "id": 75910331,
  "center": {
    "lat": 51.9615923,
    "lon": 5.5742884
  },
  "nodes": [
    896035126,
    896079569,
    896090858,
    896136026,
    895999675,
    896048057,
    896060233,
    896106525,
    895967378,
    896010055,
    896026539,
    896072511,
    896002068,
    896082444,
    896081844,
    896083948,
    896040240,
    895959788,
    896129706,
    896117984,
    896073157,
    895994257,
    895948046,
    896147315,
    896107072,
    896027196,
    895980386,
    895968477,
    896028730,
    896035126
  ],
  "tags": {
    "landuse": "cemetery",
    "name": "Begraafplaats Rhenen-Stad",
    "source": "3dShapes",
    "wikimedia_commons": "Category:Begraafplaats Rhenen-Stad"
  }
},
{
  "type": "way",
  "id": 75911767,
  "center": {
    "lat": 51.9660650,
    "lon": 5.5721253
  },
  "nodes": [
    895996162,
    896132172,
    10617850787,
    896075785,
    896030782,
    895996162
  ],
  "tags": {
    "landuse": "cemetery",
    "name": "Joodse Begraafplaats",
    "religion": "jewish",
    "source": "3dShapes",
    "wikidata": "Q2436408",
    "wikipedia": "nl:Joodse begraafplaats (Rhenen)"
  }
},
{
  "type": "way",
  "id": 75912561,
  "center": {
    "lat": 51.9317420,
    "lon": 5.5715658
  },
  "nodes": [
    896070626,
    896039729,
    895991821,
    896127326,
    5860209252,
    13063047173,
    896070510,
    13063047174,
    896024013,
    896070626
  ],
  "tags": {
    "landuse": "cemetery",
    "source": "3dShapes"
  }
},
{
  "type": "way",
  "id": 75992412,
  "center": {
    "lat": 51.9459183,
    "lon": 5.5222732
  },
  "nodes": [
    896881347,
    896853728,
    896866684,
    896904388,
    11183438255,
    896872998,
    896862648,
    896908463,
    896894846,
    896881347
  ],
  "tags": {
    "landuse": "cemetery",
    "name": "Oude Algemene Begraafplaats",
    "source": "3dShapes"
  }
},
{
  "type": "way",
  "id": 75994307,
  "center": {
    "lat": 51.9631661,
    "lon": 5.4626592
  },
  "nodes": [
    896872940,
    896894793,
    896864049,
    896887269,
    896868120,
    896889967,
    896857935,
    896883178,
    896907317,
    896874855,
    896872940
  ],
  "tags": {
    "landuse": "cemetery",
    "source": "3dShapes"
  }
},
{
  "type": "way",
  "id": 75994757,
  "center": {
    "lat": 51.9483751,
    "lon": 5.4930056
  },
  "nodes": [
    896893319,
    896877784,
    896888156,
    896854231,
    896880363,
    896903231,
    896871927,
    896893802,
    896867248,
    896889480,
    896893319
  ],
  "tags": {
    "landuse": "cemetery",
    "source": "3dShapes"
  }
},
{
  "type": "way",
  "id": 75995317,
  "center": {
    "lat": 51.9629816,
    "lon": 5.4615678
  },
  "nodes": [
    896900706,
    896869915,
    896891967,
    896860594,
    896866862,
    896889298,
    896856386,
    896882084,
    896905331,
    896900706
  ],
  "tags": {
    "landuse": "cemetery",
    "source": "3dShapes"
  }
},
{
  "type": "way",
  "id": 75995322,
  "center": {
    "lat": 51.9521107,
    "lon": 5.5197697
  },
  "nodes": [
    896882218,
    896905550,
    896876474,
    896898357,
    896890317,
    896883417,
    896854606,
    896880644,
    896903611,
    896872249,
    896894091,
    896863421,
    896886769,
    11183513944,
    11183478024,
    896868809,
    896890656,
    11183513969,
    896887378,
    896882218
  ],
  "tags": {
    "landuse": "cemetery",
    "name": "Nieuwe Algemene Begraafplaats",
    "source": "3dShapes"
  }
},
{
  "type": "way",
  "id": 75995699,
  "center": {
    "lat": 51.9560611,
    "lon": 5.4784128
  },
  "nodes": [
    896872046,
    896868372,
    896901474,
    896892464,
    896870461,
    896885758,
    896912179,
    896876781,
    896911300,
    896855152,
    896900863,
    896904226,
    896881215,
    896855290,
    896909691,
    896872046
  ],
  "tags": {
    "landuse": "cemetery",
    "source": "3dShapes"
  }
},
{
  "type": "way",
  "id": 75996507,
  "center": {
    "lat": 51.9635172,
    "lon": 5.4634978
  },
  "nodes": [
    896892126,
    896899095,
    896868559,
    896890384,
    896858418,
    896883453,
    896907978,
    896875228,
    896860803,
    896892126
  ],
  "tags": {
    "landuse": "cemetery",
    "source": "3dShapes"
  }
},
{
  "type": "way",
  "id": 75996617,
  "center": {
    "lat": 51.9627936,
    "lon": 5.4615237
  },
  "nodes": [
    896885024,
    896882140,
    896856483,
    896908774,
    896911277,
    896876749,
    896885024
  ],
  "tags": {
    "landuse": "cemetery",
    "source": "3dShapes"
  }
},
{
  "type": "way",
  "id": 76001869,
  "center": {
    "lat": 51.8981964,
    "lon": 5.7487144
  },
  "nodes": [
    10159778708,
    896964501,
    896927869,
    896946340,
    896922189,
    896925813,
    896965114,
    896920150,
    896954630,
    896920585,
    896925384,
    10159787121,
    10159778715,
    10159778714,
    10159778713,
    10159778712,
    10159778711,
    10159778710,
    10159778709,
    10159778708
  ],
  "tags": {
    "amenity": "grave_yard",
    "source": "3dShapes"
  }
},
{
  "type": "way",
  "id": 76002523,
  "center": {
    "lat": 51.8767040,
    "lon": 5.7368801
  },
  "nodes": [
    896974242,
    896947249,
    896921511,
    896957969,
    896974242
  ],
  "tags": {
    "fixme": "Klopt dit wel?",
    "landuse": "cemetery",
    "source": "3dShapes"
  }
},
{
  "type": "way",
  "id": 76003236,
  "center": {
    "lat": 51.9056140,
    "lon": 5.7284491
  },
  "nodes": [
    8721291269,
    896959907,
    896922783,
    896969316,
    896928435,
    896921334,
    896957679,
    896974062,
    896944629,
    896964950,
    896944518,
    896927017,
    8721291268,
    8721291269
  ],
  "tags": {
    "amenity": "grave_yard",
    "fixme": "Vorm is grof ingetekend, aub nakijken"
  }
},
{
  "type": "way",
  "id": 76005752,
  "center": {
    "lat": 51.9106708,
    "lon": 5.7422354
  },
  "nodes": [
    896946696,
    896938573,
    9938789804,
    896968682,
    896976519,
    896946696
  ],
  "tags": {
    "landuse": "cemetery",
    "source": "3dShapes"
  }
},
{
  "type": "way",
  "id": 76006755,
  "center": {
    "lat": 51.8722543,
    "lon": 5.7416238
  },
  "nodes": [
    896939261,
    896924243,
    896950551,
    896930520,
    896962157,
    4026211082,
    4026211084,
    4026211080,
    4026211081,
    896941450,
    4026211083,
    896972046,
    896953589,
    896919705,
    896964547,
    896925420,
    896973687,
    896939261
  ],
  "tags": {
    "amenity": "grave_yard",
    "source": "3dShapes"
  }
},
{
  "type": "way",
  "id": 76006937,
  "center": {
    "lat": 51.8842153,
    "lon": 5.7069064
  },
  "nodes": [
    896924499,
    8043103432,
    896972524,
    13100154804,
    13100154803,
    13100154802,
    13100154807,
    13100154801,
    13100154805,
    896920013,
    13100154806,
    896941890,
    896925672,
    13100146100,
    896954242,
    896933424,
    896944454,
    896924499
  ],
  "tags": {
    "landuse": "cemetery",
    "religion": "christian",
    "source": "3dShapes"
  }
},
{
  "type": "way",
  "id": 76012718,
  "center": {
    "lat": 51.9602260,
    "lon": 5.4189743
  },
  "nodes": [
    897017723,
    897020960,
    897001050,
    897012376,
    897017723
  ],
  "tags": {
    "landuse": "cemetery"
  }
},
{
  "type": "way",
  "id": 76013320,
  "center": {
    "lat": 51.9626503,
    "lon": 5.4305163
  },
  "nodes": [
    897006203,
    897020706,
    897023976,
    897004531,
    897027199,
    897011904,
    897015837,
    897026109,
    897019591,
    896999325,
    897019382,
    896999018,
    897023801,
    897004264,
    897009303,
    897022967,
    897015421,
    897006203
  ],
  "tags": {
    "landuse": "cemetery",
    "source": "3dShapes"
  }
},
{
  "type": "way",
  "id": 76021436,
  "center": {
    "lat": 51.8911578,
    "lon": 5.6650374
  },
  "nodes": [
    897096118,
    897068507,
    897077870,
    13088929154,
    13088929155,
    897087069,
    13088929156,
    13088929157,
    13088929158,
    13088929159,
    13088929160,
    13088929161,
    12022631706,
    13088929172,
    12022631707,
    12022631708,
    897074160,
    12025271695,
    13088929178,
    12022631709,
    13088929109,
    13088929188,
    12022631710,
    13088929105,
    13088929102,
    2973652948,
    2973652943,
    12022631711,
    897065947,
    897078506,
    897096118
  ],
  "tags": {
    "amenity": "grave_yard",
    "denomination": "roman_catholic",
    "religion": "christian",
    "surface": "gravel"
  }
},
{
  "type": "way",
  "id": 76021494,
  "center": {
    "lat": 51.8785035,
    "lon": 5.6307025
  },
  "nodes": [
    897098248,
    12953676749,
    11078510264,
    12953676754,
    897092199,
    897088190,
    897090161,
    897064513,
    897098248
  ],
  "tags": {
    "denomination": "roman_catholic",
    "landuse": "cemetery",
    "name": "RK Begraafplaats",
    "religion": "christian",
    "surface": "gravel"
  }
},
{
  "type": "way",
  "id": 76021535,
  "center": {
    "lat": 51.8840005,
    "lon": 5.6124848
  },
  "nodes": [
    897101812,
    897099631,
    897093484,
    897082261,
    897074524,
    897073713,
    897081878,
    897101812
  ],
  "tags": {
    "landuse": "cemetery",
    "name": "Algemene begraafplaats gemeente Druten"
  }
},
{
  "type": "way",
  "id": 76021587,
  "center": {
    "lat": 51.9081429,
    "lon": 5.6675860
  },
  "nodes": [
    897080363,
    897076492,
    897096396,
    897089012,
    897081817,
    897085615,
    897092121,
    897067109,
    897078955,
    897080363
  ],
  "tags": {
    "landuse": "cemetery",
    "source": "3dShapes"
  }
},
{
  "type": "way",
  "id": 76021710,
  "center": {
    "lat": 51.9106599,
    "lon": 5.6540424
  },
  "nodes": [
    897100453,
    897094454,
    897092652,
    897086228,
    897072657,
    897098791,
    897096160,
    897090582,
    897078671,
    897094642,
    5860262025,
    5860262026,
    897083683,
    897076233,
    5860262027,
    897080123,
    5860262029,
    5860262030,
    5860262028,
    897099599,
    897093452,
    897091920,
    897085345,
    897100453
  ],
  "tags": {
    "landuse": "cemetery",
    "source": "3dShapes"
  }
},
{
  "type": "way",
  "id": 76022256,
  "center": {
    "lat": 51.8906444,
    "lon": 5.6116696
  },
  "nodes": [
    897088593,
    897081149,
    897100368,
    897094388,
    12973215929,
    897092609,
    897086172,
    897072546,
    897098750,
    897095343,
    897063868,
    897074603,
    897088593
  ],
  "tags": {
    "barrier": "wall",
    "denomination": "roman_catholic",
    "landuse": "cemetery",
    "religion": "christian",
    "source": "3dShapes"
  }
},
{
  "type": "way",
  "id": 76023385,
  "center": {
    "lat": 51.9583992,
    "lon": 5.3559401
  },
  "nodes": [
    897117941,
    897103917,
    897127830,
    897113797,
    897121312,
    897109819,
    897117006,
    897117941
  ],
  "tags": {
    "amenity": "grave_yard",
    "source": "3dShapes"
  }
},
{
  "type": "way",
  "id": 76023827,
  "center": {
    "lat": 51.9515635,
    "lon": 5.3693793
  },
  "nodes": [
    897111300,
    897118548,
    897107817,
    897114753,
    897111300
  ],
  "tags": {
    "landuse": "cemetery",
    "source": "3dShapes"
  }
},
{
  "type": "way",
  "id": 76023855,
  "center": {
    "lat": 51.9755182,
    "lon": 5.3392561
  },
  "nodes": [
    897105754,
    897118053,
    897107206,
    897113964,
    897104026,
    897109939,
    9926863642,
    897128032,
    9926863641,
    9926863787,
    9926863788,
    897106534,
    9926863789,
    9926863791,
    3900492923,
    9926863792,
    9926863790,
    897105754
  ],
  "tags": {
    "denomination": "roman_catholic",
    "landuse": "cemetery",
    "name": "RK Begraafplaats",
    "religion": "christian",
    "source": "3dShapes"
  }
},
{
  "type": "way",
  "id": 76024321,
  "center": {
    "lat": 51.9517089,
    "lon": 5.3690473
  },
  "nodes": [
    897116388,
    897125203,
    897111809,
    897118865,
    897116388
  ],
  "tags": {
    "landuse": "cemetery",
    "source": "3dShapes"
  }
},
{
  "type": "way",
  "id": 76024438,
  "center": {
    "lat": 51.9470287,
    "lon": 5.3202499
  },
  "nodes": [
    897102342,
    897107913,
    897124182,
    897104557,
    897118607,
    897101401,
    897102342
  ],
  "tags": {
    "landuse": "cemetery",
    "source": "3dShapes"
  }
},
{
  "type": "way",
  "id": 76029059,
  "center": {
    "lat": 51.9139091,
    "lon": 5.5780036
  },
  "nodes": [
    897146083,
    897191955,
    897165342,
    897153525,
    897196186,
    897181007,
    897157392,
    897147845,
    897185369,
    897171043,
    897149701,
    897201426,
    897176469,
    897159318,
    897144660,
    897189205,
    897179565,
    897163429,
    897147181,
    897194586,
    897168691,
    897156141,
    897199321,
    897183413,
    897158378,
    897148915,
    897187917,
    897174838,
    897150912,
    897143839,
    897178458,
    897160627,
    897154295,
    897146558,
    897181699,
    897166689,
    897148226,
    897197168,
    897172511,
    897157790,
    897143029,
    897186239,
    897159921,
    897150232,
    897190225,
    897177446,
    897151950,
    897145064,
    897143703,
    897187670,
    897160469,
    897150778,
    897191667,
    897146083
  ],
  "tags": {
    "landuse": "cemetery",
    "source": "3dShapes"
  }
},
{
  "type": "way",
  "id": 76030491,
  "center": {
    "lat": 51.8862128,
    "lon": 5.5461888
  },
  "nodes": [
    897195235,
    897177212,
    897151870,
    11086706726,
    897162304,
    897195235
  ],
  "tags": {
    "amenity": "grave_yard",
    "source": "3dShapes"
  }
},
{
  "type": "way",
  "id": 76031798,
  "center": {
    "lat": 51.9090239,
    "lon": 5.5703159
  },
  "nodes": [
    897187544,
    897192367,
    897165976,
    897153879,
    897196602,
    897181266,
    897148023,
    897185800,
    897150042,
    897187544
  ],
  "tags": {
    "landuse": "cemetery",
    "source": "3dShapes"
  }
},
{
  "type": "way",
  "id": 76033242,
  "center": {
    "lat": 51.8345311,
    "lon": 5.6796723
  },
  "nodes": [
    897226529,
    10997114398,
    10997149105,
    10997114401,
    10997114402,
    10997114399,
    10997114403,
    10997114400,
    10997114404,
    10997114397,
    897182916,
    897203253,
    897189238,
    10997114396,
    10997114395,
    897184287,
    897212657,
    897210174,
    10997149182,
    897188877,
    897209742,
    10997149181,
    10997149180,
    897196019,
    10997114393,
    10997114394,
    10997149111,
    10997149110,
    897224161,
    10997149108,
    10997149109,
    10997149107,
    10997149106,
    897226529
  ],
  "tags": {
    "amenity": "grave_yard",
    "religion": "christian",
    "source": "3dShapes"
  }
},
{
  "type": "way",
  "id": 76033350,
  "center": {
    "lat": 51.8211788,
    "lon": 5.7366468
  },
  "nodes": [
    897185460,
    897187315,
    897207500,
    897205378,
    897185460
  ],
  "tags": {
    "landuse": "cemetery",
    "source": "3dShapes"
  }
},
{
  "type": "way",
  "id": 76033554,
  "center": {
    "lat": 51.8192046,
    "lon": 5.6950659
  },
  "nodes": [
    897195836,
    897188151,
    897202699,
    897229483,
    897202962,
    897182377,
    897194411,
    897193767,
    897229225,
    897202264,
    897205643,
    897206104,
    897222107,
    897228070,
    897195836
  ],
  "tags": {
    "amenity": "grave_yard",
    "heritage": "8",
    "source": "3dShapes"
  }
},
{
  "type": "way",
  "id": 76036445,
  "center": {
    "lat": 51.8810056,
    "lon": 5.4684139
  },
  "nodes": [
    897266676,
    11124333800,
    11124333799,
    897238509,
    11124333802,
    897258907,
    897238716,
    897250671,
    897242817,
    897246693,
    11124333796,
    11124333797,
    11124333798,
    11124333801,
    897266676
  ],
  "tags": {
    "landuse": "cemetery",
    "source": "3dShapes"
  }
},
{
  "type": "way",
  "id": 76036930,
  "center": {
    "lat": 51.8792159,
    "lon": 5.4960641
  },
  "nodes": [
    897268637,
    897265556,
    897232872,
    1439695572,
    897239462,
    897261072,
    897244444,
    897251706,
    897233095,
    897233988,
    897253720,
    897249711,
    897236730,
    897255700,
    897238036,
    897268740,
    897247723,
    897260031,
    897243824,
    897260185,
    897238997,
    897232582,
    897249187,
    897268637
  ],
  "tags": {
    "landuse": "cemetery",
    "source": "3dShapes"
  }
},
{
  "type": "way",
  "id": 76037039,
  "center": {
    "lat": 51.8801589,
    "lon": 5.4626394
  },
  "nodes": [
    897248168,
    897269478,
    897244104,
    897260972,
    897234823,
    897251434,
    897258248,
    897243036,
    897239157,
    710800006,
    710757006,
    710760720,
    710765152,
    710774349,
    710758446,
    11124351444,
    897269018,
    11124351390,
    11124351391,
    11124351392,
    11124351393,
    11124351443,
    11124351404,
    11124351403,
    11124351402,
    11124351401,
    11124351400,
    11124351396,
    11124351395,
    11124351394,
    897234843,
    11124351399,
    11124351446,
    897248168
  ],
  "tags": {
    "landuse": "cemetery",
    "source": "3dShapes"
  }
},
{
  "type": "way",
  "id": 76038179,
  "center": {
    "lat": 51.8811620,
    "lon": 5.5164555
  },
  "nodes": [
    8957103326,
    897236961,
    11101712980,
    8957103328,
    8957103331,
    8957103332,
    8957103336,
    11101713018,
    11101712858,
    11101712859,
    897245856,
    11101712857,
    11101712844,
    897246667,
    897266620,
    11101712983,
    11101712984,
    8957103326
  ],
  "tags": {
    "landuse": "cemetery",
    "source": "3dShapes"
  }
},
{
  "type": "way",
  "id": 76054558,
  "center": {
    "lat": 51.8950966,
    "lon": 5.4138299
  },
  "nodes": [
    897352637,
    897326719,
    897345941,
    897370968,
    897332343,
    897376514,
    897351121,
    897341133,
    897355719,
    897323135,
    897332891,
    897352637
  ],
  "tags": {
    "landuse": "cemetery"
  }
},
{
  "type": "way",
  "id": 76056770,
  "center": {
    "lat": 51.9067627,
    "lon": 5.4049922
  },
  "nodes": [
    897325840,
    897345464,
    897348728,
    897362405,
    897318980,
    897331342,
    897349266,
    897362927,
    897319272,
    897332407,
    897338052,
    897352684,
    897382836,
    897321063,
    897371017,
    897317212,
    897325840
  ],
  "tags": {
    "amenity": "grave_yard",
    "source": "3dShapes"
  }
},
{
  "type": "way",
  "id": 76057649,
  "center": {
    "lat": 51.8923594,
    "lon": 5.4297479
  },
  "nodes": [
    897320382,
    7820704946,
    897345420,
    897331292,
    897318962,
    897320382
  ],
  "tags": {
    "landuse": "cemetery",
    "name": "R.K. Begraafplaats"
  }
},
{
  "type": "way",
  "id": 76057984,
  "center": {
    "lat": 51.8904602,
    "lon": 5.4266228
  },
  "nodes": [
    897350922,
    897366151,
    897388014,
    897336548,
    897351395,
    897356065,
    897371378,
    9221073355,
    897323324,
    897341575,
    897318579,
    897330129,
    897358667,
    897374945,
    897380051,
    897320483,
    897348046,
    897361932,
    897339713,
    897350922
  ],
  "tags": {
    "landuse": "cemetery",
    "name": "Ter Navolging",
    "religion": "none",
    "source": "3dShapes",
    "wikidata": "Q1858776",
    "wikipedia": "nl:Ter Navolging (Tiel)"
  }
},
{
  "type": "way",
  "id": 76058256,
  "center": {
    "lat": 51.9058846,
    "lon": 5.3888065
  },
  "nodes": [
    897363662,
    897371725,
    897346482,
    897327325,
    897353401,
    897388684,
    897323638,
    897343081,
    897357005,
    897389789,
    897324171,
    897328041,
    897346923,
    897372562,
    897317867,
    897362683,
    897382064,
    897331917,
    897334418,
    897349839,
    897321712,
    897384131,
    897329049,
    897318321,
    897361495,
    897347640,
    897344474,
    897324943,
    897349017,
    897352409,
    897367573,
    897320917,
    897363662
  ],
  "tags": {
    "landuse": "cemetery",
    "name": "Algemene Begraafplaats Zoelen en Kerk-Avezaath",
    "source": "3dShapes"
  }
},
{
  "type": "way",
  "id": 76059338,
  "center": {
    "lat": 51.8828652,
    "lon": 5.4148113
  },
  "nodes": [
    897349391,
    8318926116,
    8318951617,
    897346789,
    897360468,
    897317765,
    897327780,
    897347205,
    897361005,
    897318075,
    897328452,
    897334924,
    897350504,
    897378499,
    897319960,
    897367849,
    897390987,
    897338227,
    897352852,
    897357422,
    897373089,
    897324533,
    897343702,
    897319332,
    897332651,
    897359699,
    897376789,
    897383161,
    897321185,
    7896883726,
    897349391
  ],
  "tags": {
    "landuse": "cemetery",
    "name": "Begraafplaats Papesteeg",
    "source": "3dShapes"
  }
},
{
  "type": "way",
  "id": 76060589,
  "center": {
    "lat": 51.8912186,
    "lon": 5.4313775
  },
  "nodes": [
    897340707,
    897355896,
    897371194,
    897323212,
    8387104188,
    8387104189,
    897348432,
    897358877,
    897345163,
    897341365,
    897340707
  ],
  "tags": {
    "landuse": "cemetery",
    "name": "Joodse Begraafplaats",
    "religion": "jewish",
    "source": "3dShapes",
    "wikidata": "Q7477886",
    "wikipedia": "nl:Joodse begraafplaats (Tiel)"
  }
},
{
  "type": "way",
  "id": 76061109,
  "center": {
    "lat": 51.8949595,
    "lon": 5.4305075
  },
  "nodes": [
    897317589,
    897356395,
    897330862,
    897348497,
    897375430,
    9737603722,
    9737312627,
    9737603683,
    897317589
  ],
  "tags": {
    "landuse": "cemetery",
    "name": "Drenkelingenkerkhof"
  }
},
{
  "type": "way",
  "id": 76074494,
  "center": {
    "lat": 51.8801695,
    "lon": 5.3750125
  },
  "nodes": [
    897500453,
    897508629,
    897468734,
    897517071,
    897476865,
    897502643,
    897466563,
    897513732,
    897471220,
    897500453
  ],
  "tags": {
    "landuse": "cemetery",
    "name": "Begraafplaats"
  }
},
{
  "type": "way",
  "id": 76075075,
  "center": {
    "lat": 51.8736291,
    "lon": 5.3789992
  },
  "nodes": [
    897486705,
    897466824,
    897481553,
    897462626,
    897514363,
    897484634,
    897503584,
    897472156,
    897504170,
    897464610,
    897495563,
    9720539924,
    897487198,
    897486705
  ],
  "tags": {
    "landuse": "cemetery",
    "source": "3dShapes"
  }
},
{
  "type": "way",
  "id": 76075652,
  "center": {
    "lat": 51.8824937,
    "lon": 5.3832469
  },
  "nodes": [
    897516457,
    897515239,
    897483331,
    897516578,
    897476020,
    9751902973,
    9751902990,
    897464957,
    897475769,
    897516457
  ],
  "tags": {
    "landuse": "cemetery",
    "name": "Begraafplaats"
  }
},
{
  "type": "way",
  "id": 76076071,
  "center": {
    "lat": 51.9026229,
    "lon": 5.3586620
  },
  "nodes": [
    897513764,
    897494787,
    897463282,
    897476290,
    897508070,
    897489116,
    897516736,
    897464152,
    897486544,
    897468422,
    897513764
  ],
  "tags": {
    "landuse": "cemetery",
    "source": "3dShapes"
  }
},
{
  "type": "way",
  "id": 76076163,
  "center": {
    "lat": 51.9125117,
    "lon": 5.3302880
  },
  "nodes": [
    897494826,
    897473535,
    897505726,
    897465065,
    897489172,
    4534494080,
    897499948,
    4534494081,
    897468436,
    4534494082,
    897501206,
    897502111,
    10025332181,
    10025332180,
    897466336,
    4534494084,
    4534494085,
    897479937,
    4534494086,
    10025384010,
    4534494087,
    897462181,
    897494826
  ],
  "tags": {
    "landuse": "cemetery",
    "name": "Oude Algemene Begraafplaats",
    "source": "3dShapes"
  }
},
{
  "type": "way",
  "id": 76077335,
  "center": {
    "lat": 51.9090660,
    "lon": 5.3215347
  },
  "nodes": [
    897470043,
    897466675,
    897470234,
    897501311,
    897509601,
    897469340,
    897517730,
    897478082,
    897503741,
    897466863,
    897500226,
    897469852,
    897470043
  ],
  "tags": {
    "landuse": "cemetery",
    "source": "3dShapes"
  }
},
{
  "type": "way",
  "id": 76609906,
  "center": {
    "lat": 51.8877923,
    "lon": 5.2816772
  },
  "nodes": [
    902805400,
    902876020,
    902792223,
    9695673948,
    902856534,
    9694850246,
    9695673947,
    9695673945,
    902841139,
    9695673946,
    9694850247,
    9694850248,
    9694850054,
    902808769,
    902807062,
    902878098,
    902793777,
    902861298,
    902869781,
    902884874,
    902812046,
    902788200,
    902829957,
    902845055,
    902784203,
    9695673944,
    902805400
  ],
  "tags": {
    "landuse": "cemetery",
    "name": "Algemene Begraafplaats Buurmalsen"
  }
},
{
  "type": "way",
  "id": 76610157,
  "center": {
    "lat": 51.8827934,
    "lon": 5.2946511
  },
  "nodes": [
    902846635,
    902798904,
    4887244857,
    4887244856,
    4658687797,
    902789354,
    902851874,
    902887044,
    4887244858,
    4887244859,
    902846635
  ],
  "tags": {
    "landuse": "cemetery",
    "name": "Oude Begraafplaats",
    "source": "3dShapes"
  }
},
{
  "type": "way",
  "id": 76611504,
  "center": {
    "lat": 51.8713195,
    "lon": 5.3024346
  },
  "nodes": [
    902816869,
    902830839,
    902778870,
    902802969,
    902872760,
    902816869
  ],
  "tags": {
    "landuse": "cemetery",
    "name": "Joodse Begraafplaats",
    "religion": "jewish",
    "source": "3dShapes",
    "wikidata": "Q13738780",
    "wikipedia": "nl:Joodse begraafplaats (Geldermalsen)"
  }
},
{
  "type": "way",
  "id": 76612012,
  "center": {
    "lat": 51.8159601,
    "lon": 5.6310587
  },
  "nodes": [
    902849388,
    902834256,
    10776002968,
    10776002969,
    902884461,
    902817652,
    902866316,
    902849388
  ],
  "tags": {
    "landuse": "cemetery",
    "source": "3dShapes"
  }
},
{
  "type": "way",
  "id": 76612407,
  "center": {
    "lat": 51.8481308,
    "lon": 5.6641433
  },
  "nodes": [
    10994919039,
    10994919051,
    10994919041,
    902875800,
    902810380,
    902857730,
    710955369,
    711004583,
    902908813,
    710998648,
    902890045,
    10994919042,
    10994919039
  ],
  "tags": {
    "landuse": "cemetery",
    "source": "3dShapes"
  }
},
{
  "type": "way",
  "id": 76613915,
  "center": {
    "lat": 51.8500073,
    "lon": 5.6656763
  },
  "nodes": [
    1216285363,
    1216285388,
    902906895,
    902837950,
    10994873684,
    902820944,
    10994873683,
    10994873681,
    10994873682,
    10994873685,
    902924842,
    902854915,
    1216285363
  ],
  "tags": {
    "denomination": "roman_catholic",
    "landuse": "cemetery",
    "name": "Begraafplaats Sint-Annakerk",
    "religion": "christian",
    "source": "3dShapes"
  }
},
{
  "type": "way",
  "id": 76613926,
  "center": {
    "lat": 51.8815978,
    "lon": 5.2530297
  },
  "nodes": [
    902882253,
    9701250926,
    9701250927,
    902796102,
    8756184797,
    902863338,
    902846944,
    902799082,
    902827547,
    902786235,
    902887335,
    902831903,
    902867803,
    9701251189,
    902813832,
    902802235,
    9701251184,
    9701251183,
    902871724,
    902789546,
    902852258,
    9701251182,
    902849122,
    9701251181,
    902800453,
    902829728,
    902788026,
    902889511,
    902834137,
    902869596,
    902815633,
    902789347,
    902831517,
    902819714,
    902834008,
    902889399,
    9701251176,
    902854461,
    9701251178,
    9701251177,
    9701251179,
    902803681,
    9701251180,
    9701250925,
    902882253
  ],
  "tags": {
    "landuse": "cemetery",
    "name": "Algemene begraafplaats Deil"
  }
},
{
  "type": "way",
  "id": 76613957,
  "center": {
    "lat": 51.8583938,
    "lon": 5.6078667
  },
  "nodes": [
    902838574,
    902888596,
    902821388,
    902870177,
    902921725,
    902852406,
    902902701,
    902833918,
    902884034,
    902838574
  ],
  "tags": {
    "denomination": "catholic",
    "landuse": "cemetery",
    "religion": "christian",
    "source": "3dShapes"
  }
},
{
  "type": "way",
  "id": 76614617,
  "center": {
    "lat": 51.8243967,
    "lon": 5.6330997
  },
  "nodes": [
    902841342,
    902894273,
    902859802,
    902910314,
    902823893,
    902852162,
    902841342
  ],
  "tags": {
    "landuse": "cemetery",
    "name": "Oorlogsgraf van het Gemenebest",
    "source": "3dShapes"
  }
},
{
  "type": "way",
  "id": 76619350,
  "center": {
    "lat": 51.8839510,
    "lon": 5.2115476
  },
  "nodes": [
    607725713,
    903102143,
    903180141,
    903118928,
    903074962,
    903087703,
    903157820,
    903102840,
    607725713
  ],
  "tags": {
    "landuse": "cemetery",
    "source": "3dShapes"
  }
},
{
  "type": "way",
  "id": 76619802,
  "center": {
    "lat": 51.8829397,
    "lon": 5.1878467
  },
  "nodes": [
    903089188,
    903159473,
    903103966,
    903183250,
    903089188
  ],
  "tags": {
    "landuse": "cemetery",
    "source": "3dShapes"
  }
},
{
  "type": "way",
  "id": 76620547,
  "center": {
    "lat": 51.8831408,
    "lon": 5.2127596
  },
  "nodes": [
    903141119,
    903092515,
    903163384,
    903106655,
    903188007,
    903126626,
    903142467,
    903093443,
    903164454,
    903107452,
    903189200,
    903141119
  ],
  "tags": {
    "landuse": "cemetery",
    "source": "3dShapes"
  }
},
{
  "type": "way",
  "id": 76621203,
  "center": {
    "lat": 51.8327619,
    "lon": 5.5859672
  },
  "nodes": [
    903096099,
    903181519,
    903116074,
    11029620279,
    903112544,
    903132202,
    903096099
  ],
  "tags": {
    "landuse": "cemetery",
    "source": "3dShapes"
  }
},
{
  "type": "way",
  "id": 76621233,
  "center": {
    "lat": 51.8592945,
    "lon": 5.6041982
  },
  "nodes": [
    903157787,
    903097664,
    903182924,
    903117092,
    903113378,
    903157787
  ],
  "tags": {
    "addr:city": "Horssen",
    "addr:postcode": "6631AB",
    "addr:street": "Kerkepad",
    "denomination": "protestant",
    "landuse": "cemetery",
    "religion": "christian",
    "source": "local_knowledge;3dShapes"
  }
},
{
  "type": "way",
  "id": 76621976,
  "center": {
    "lat": 51.8477393,
    "lon": 5.5649345
  },
  "nodes": [
    903229070,
    903159029,
    903099392,
    6420449983,
    6420449984,
    903184588,
    903114279,
    6420450285,
    6420450286,
    2973454578,
    2973454574,
    6420450288,
    6420450293,
    903229070
  ],
  "tags": {
    "amenity": "grave_yard"
  }
},
{
  "type": "way",
  "id": 76622313,
  "center": {
    "lat": 51.8916587,
    "lon": 5.1891562
  },
  "nodes": [
    903186688,
    903125558,
    903079181,
    903144712,
    903095634,
    903125426,
    903126418,
    903187792,
    903166849,
    903109282,
    903186688
  ],
  "tags": {
    "landuse": "cemetery",
    "source": "3dShapes"
  }
},
{
  "type": "way",
  "id": 76624013,
  "center": {
    "lat": 51.8313772,
    "lon": 5.5865384
  },
  "nodes": [
    903230515,
    903160546,
    11056781214,
    903201788,
    903131452,
    903225607,
    11056781213,
    903230515
  ],
  "tags": {
    "amenity": "grave_yard",
    "source": "3dShapes"
  }
},
{
  "type": "way",
  "id": 76624283,
  "center": {
    "lat": 51.8210988,
    "lon": 5.5338818
  },
  "nodes": [
    903217054,
    903144506,
    903181958,
    903128444,
    903197146,
    903203191,
    903112775,
    903175196,
    903091906,
    903088359,
    903233081,
    903163201,
    903104823,
    903217054
  ],
  "tags": {
    "landuse": "cemetery"
  }
},
{
  "type": "way",
  "id": 76626175,
  "center": {
    "lat": 51.8230708,
    "lon": 5.5631690
  },
  "nodes": [
    903088697,
    903233351,
    903163516,
    903105230,
    903191227,
    903184138,
    10997446294,
    10997446281,
    903118159,
    903212493,
    903140021,
    903135239,
    903088697
  ],
  "tags": {
    "landuse": "cemetery",
    "source": "3dShapes"
  }
},
{
  "type": "way",
  "id": 76654537,
  "center": {
    "lat": 51.8275209,
    "lon": 5.4760032
  },
  "nodes": [
    903396400,
    903348535,
    903383543,
    903376013,
    903350443,
    903365994,
    903407033,
    903399477,
    903368127,
    903386407,
    903357760,
    903352423,
    903396400
  ],
  "tags": {
    "landuse": "cemetery",
    "source": "3dShapes"
  }
},
{
  "type": "way",
  "id": 76654769,
  "center": {
    "lat": 51.8215927,
    "lon": 5.4732116
  },
  "nodes": [
    903412188,
    903404137,
    10788834752,
    903391575,
    903362290,
    710761713,
    710760907,
    710798420,
    710772012,
    710771262,
    710770440,
    903364778,
    903412188
  ],
  "tags": {
    "landuse": "cemetery",
    "source": "3dShapes"
  }
},
{
  "type": "way",
  "id": 76655329,
  "center": {
    "lat": 51.8166810,
    "lon": 5.5147253
  },
  "nodes": [
    903363609,
    903393307,
    903350892,
    903366453,
    903407850,
    903362221,
    903363609
  ],
  "tags": {
    "landuse": "cemetery",
    "source": "3dShapes"
  }
},
{
  "type": "way",
  "id": 76655434,
  "center": {
    "lat": 51.8251907,
    "lon": 5.5036541
  },
  "nodes": [
    903356015,
    903350222,
    903386077,
    903406825,
    903375836,
    903367911,
    903409452,
    903356015
  ],
  "tags": {
    "landuse": "cemetery",
    "source": "3dShapes"
  }
},
{
  "type": "way",
  "id": 76666523,
  "center": {
    "lat": 51.9209086,
    "lon": 5.1165497
  },
  "nodes": [
    903422884,
    10583715649,
    10583715655,
    10583715654,
    590416474,
    903342578,
    903305014,
    903289010,
    7788092135,
    903422884
  ],
  "tags": {
    "amenity": "grave_yard",
    "source": "3dShapes"
  }
},
{
  "type": "way",
  "id": 76668455,
  "center": {
    "lat": 51.8809567,
    "lon": 5.1534003
  },
  "nodes": [
    903485287,
    903467745,
    903417058,
    903351012,
    903406283,
    903457526,
    903434990,
    903485287
  ],
  "tags": {
    "landuse": "cemetery",
    "source": "3dShapes"
  }
},
{
  "type": "way",
  "id": 76669546,
  "center": {
    "lat": 51.8800375,
    "lon": 5.1102540
  },
  "nodes": [
    903316344,
    903344048,
    903366496,
    903323329,
    903291753,
    903457509,
    903333865,
    903299201,
    903284607,
    903369586,
    903422505,
    903473271,
    903300526,
    903289433,
    903318499,
    903360168,
    903287218,
    903288897,
    903316344
  ],
  "tags": {
    "landuse": "cemetery",
    "source": "3dShapes"
  }
},
{
  "type": "way",
  "id": 76669676,
  "center": {
    "lat": 51.8823948,
    "lon": 5.1550981
  },
  "nodes": [
    903325747,
    903354391,
    903312360,
    607713001,
    903447187,
    903293663,
    903325747
  ],
  "tags": {
    "landuse": "cemetery",
    "source": "3dShapes"
  }
},
{
  "type": "way",
  "id": 76670817,
  "center": {
    "lat": 51.9221270,
    "lon": 5.1095742
  },
  "nodes": [
    903289091,
    903317187,
    903400400,
    903307684,
    903346940,
    903285019,
    903468843,
    903310866,
    903289091
  ],
  "tags": {
    "landuse": "cemetery",
    "source": "3dShapes"
  }
},
{
  "type": "way",
  "id": 76672131,
  "center": {
    "lat": 51.8764406,
    "lon": 5.1562202
  },
  "nodes": [
    903423306,
    10699207365,
    903370681,
    903285072,
    903439110,
    10699207366,
    903383788,
    10699207367,
    903337058,
    903287093,
    10699207368,
    10699207369,
    903445252,
    10699207370,
    10699207371,
    903389842,
    903292007,
    607710809,
    903351719,
    903375154,
    903423306
  ],
  "tags": {
    "landuse": "cemetery",
    "source": "3dShapes"
  }
},
{
  "type": "way",
  "id": 76672212,
  "center": {
    "lat": 51.8752749,
    "lon": 5.1334759
  },
  "nodes": [
    903301599,
    7756493312,
    903328490,
    903373512,
    903475667,
    903288599,
    903448665,
    903301599
  ],
  "tags": {
    "landuse": "cemetery",
    "source": "3dShapes"
  }
},
{
  "type": "way",
  "id": 76672284,
  "center": {
    "lat": 51.8937091,
    "lon": 5.1084203
  },
  "nodes": [
    903306763,
    903382575,
    903336146,
    903349523,
    903322805,
    903306763
  ],
  "tags": {
    "landuse": "cemetery",
    "source": "3dShapes"
  }
},
{
  "type": "way",
  "id": 76741104,
  "center": {
    "lat": 51.8543844,
    "lon": 5.4032760
  },
  "nodes": [
    904129217,
    904084346,
    904130772,
    904107910,
    904095075,
    904133620,
    904123905,
    904097453,
    6525628301,
    904129217
  ],
  "tags": {
    "landuse": "cemetery",
    "source": "3dShapes"
  }
},
{
  "type": "way",
  "id": 76741272,
  "center": {
    "lat": 51.8479846,
    "lon": 5.4295286
  },
  "nodes": [
    904088869,
    904078737,
    904126067,
    904099856,
    904089316,
    904128776,
    904117475,
    904092980,
    904081609,
    904094448,
    904083731,
    904123422,
    904107036,
    710778524,
    710797619,
    904111869,
    904096991,
    904115350,
    904088869
  ],
  "tags": {
    "landuse": "cemetery",
    "source": "3dShapes"
  }
},
{
  "type": "way",
  "id": 76741344,
  "center": {
    "lat": 51.8195089,
    "lon": 5.3967435
  },
  "nodes": [
    904081217,
    904121163,
    904103568,
    904084423,
    904108042,
    904095171,
    904111022,
    904096636,
    904078385,
    904125527,
    904099432,
    904088836,
    904128243,
    904116871,
    904129857,
    904119260,
    904094037,
    904083206,
    904123005,
    904106410,
    904086314,
    904132619,
    904117214,
    904099677,
    904081420,
    904128524,
    904081217
  ],
  "tags": {
    "landuse": "cemetery",
    "source": "3dShapes"
  }
},
{
  "type": "way",
  "id": 76741857,
  "center": {
    "lat": 51.8524539,
    "lon": 5.3970683
  },
  "nodes": [
    904083396,
    904094159,
    904133882,
    904124157,
    904097762,
    4010227483,
    904087506,
    904077421,
    4010227488,
    904124543,
    904098151,
    904087836,
    904127129,
    904083396
  ],
  "tags": {
    "landuse": "cemetery",
    "name": "Algemene Begraafplaats Ophemert",
    "source": "3dShapes"
  }
},
{
  "type": "way",
  "id": 76741962,
  "center": {
    "lat": 51.8590725,
    "lon": 5.4355696
  },
  "nodes": [
    904084997,
    904131451,
    904109093,
    904095718,
    904084997
  ],
  "tags": {
    "landuse": "cemetery",
    "source": "3dShapes"
  }
},
{
  "type": "way",
  "id": 76742435,
  "center": {
    "lat": 51.8543175,
    "lon": 5.4298862
  },
  "nodes": [
    2737455983,
    904127650,
    904115729,
    904129434,
    904083909,
    904130346,
    904107226,
    904094593,
    2737455983
  ],
  "tags": {
    "landuse": "cemetery",
    "name": "Algemene Begraafplaats",
    "source": "3dShapes"
  }
},
{
  "type": "way",
  "id": 76744086,
  "center": {
    "lat": 51.8214710,
    "lon": 5.3682038
  },
  "nodes": [
    904174016,
    904153340,
    904179618,
    904158946,
    904185129,
    904164059,
    904154976,
    904174016
  ],
  "tags": {
    "landuse": "cemetery",
    "source": "3dShapes"
  }
},
{
  "type": "way",
  "id": 76744137,
  "center": {
    "lat": 51.8281736,
    "lon": 5.3580815
  },