{
  "version": 0.6,
  "generator": "Overpass API 0.7.62.8 e802775f",
  "osm3s": {
    "timestamp_osm_base": "2025-11-02T22:54:20Z",
    "copyright": "The data included in this document is from www.openstreetmap.org. The data is made available under ODbL."
  },
  "elements": [

{
  "type": "way",
  "id": 4477274,
  "center": {
    "lat": 50.0051138,
    "lon": 9.0540954
  },
  "nodes": [
    27446671,
    13158442297,
    13158442298,
    13158477521,
    13158483800,
    13158475121,
    13158474347,
    13158457576,
    27446670,
    13158474624,
    27446672,
    27446669,
    9502902025,
    27446671
  ],
  "tags": {
    "landuse": "cemetery"
  }
},
{
  "type": "way",
  "id": 6552038,
  "center": {
    "lat": 50.9542662,
    "lon": 9.7759490
  },
  "nodes": [
    53275906,
    53275904,
    53275911,
    5491809404,
    53275910,
    53275908,
    356700860,
    1727079781,
    1727079786,
    1727079827,
    53275906
  ],
  "tags": {
    "landuse": "cemetery",
    "name": "Friedhof Breitenbach"
  }
},
{
  "type": "way",
  "id": 8588115,
  "center": {
    "lat": 50.0105184,
    "lon": 9.1792077
  },
  "nodes": [
    60949369,
    322536185,
    60949370,
    322536236,
    268672191,
    1455772930,
    268672193,
    60949371,
    268672194,
    245178776,
    245178775,
    60949372,
    60949369
  ],
  "tags": {
    "barrier": "fence",
    "landuse": "cemetery",
    "name": "Waldfriedhof"
  }
},
{
  "type": "way",
  "id": 19795944,
  "center": {
    "lat": 50.4956656,
    "lon": 9.6969417
  },
  "nodes": [
    206257273,
    206257274,
    206257276,
    206257277,
    206257273
  ],
  "tags": {
    "landuse": "cemetery",
    "name": "Alter Friedhof"
  }
},
{
  "type": "way",
  "id": 19795952,
  "center": {
    "lat": 50.5006568,
    "lon": 9.6977781
  },
  "nodes": [
    206257359,
    2451000197,
    11653859167,
    206257360,
    11653859168,
    11653859161,
    11653859169,
    206257361,
    11653859162,
    11653859163,
    11653859164,
    2451000198,
    206257362,
    11653859165,
    206257359
  ],
  "tags": {
    "landuse": "cemetery",
    "name": "Neuer Friedhof"
  }
},
{
  "type": "way",
  "id": 20860142,
  "center": {
    "lat": 50.0672981,
    "lon": 9.4655326
  },
  "nodes": [
    224147333,
    224147343,
    224147354,
    224147363,
    4068305642,
    4068305641,
    224147370,
    224147380,
    224147387,
    224147395,
    224147399,
    4068305613,
    4068305614,
    224147333
  ],
  "tags": {
    "landuse": "cemetery",
    "name": "Endfriedhof"
  }
},
{
  "type": "way",
  "id": 22878260,
  "center": {
    "lat": 50.0623133,
    "lon": 9.4528729
  },
  "nodes": [
    245961243,
    245961244,
    9406839376,
    9406839374,
    9416855630,
    9406839375,
    9416855629,
    245961246,
    4112383587,
    4112389415,
    245961243
  ],
  "tags": {
    "landuse": "cemetery",
    "name": "Friedhof Hofreith"
  }
},
{
  "type": "way",
  "id": 23314654,
  "center": {
    "lat": 50.1368384,
    "lon": 9.1151304
  },
  "nodes": [
    252416085,
    1693246563,
    1693246560,
    252416086,
    1693246556,
    1693246552,
    1693246550,
    1693246544,
    270597804,
    252416087,
    12073324677,
    1692330732,
    252416088,
    252416089,
    1692331027,
    1692331036,
    12155628957,
    260154448,
    1683596437,
    1692331059,
    1683596440,
    1683596450,
    252416090,
    260091886,
    1166409690,
    252416091,
    252416092,
    659537832,
    252416093,
    1684006618,
    252416094,
    260780620,
    1683596595,
    1683596586,
    252416085
  ],
  "tags": {
    "landuse": "cemetery",
    "name": "Friedhof Somborn"
  }
},
{
  "type": "way",
  "id": 23914832,
  "center": {
    "lat": 50.6979333,
    "lon": 9.5969463
  },
  "nodes": [
    259208850,
    259208851,
    259208852,
    12540686123,
    259208853,
    12540686122,
    12540686121,
    259208854,
    259209136,
    259208855,
    259208850
  ],
  "tags": {
    "landuse": "cemetery",
    "name": "Friedhof Sandlofs"
  }
},
{
  "type": "way",
  "id": 24584247,
  "center": {
    "lat": 50.2913925,
    "lon": 9.1036345
  },
  "nodes": [
    267261359,
    4543816989,
    1771982423,
    7653558100,
    267261505,
    7653558147,
    9697278430,
    259240311,
    10310661388,
    259240312,
    259240313,
    267261419,
    267261510,
    7848679497,
    259240316,
    259240317,
    259240318,
    259240319,
    267261512,
    259240320,
    267261513,
    9690094207,
    267261514,
    4543816829,
    4543816833,
    267261422,
    267261423,
    4543816838,
    267261359
  ],
  "tags": {
    "landuse": "cemetery",
    "name": "Friedhof Büdingen",
    "wikidata": "Q116509021"
  }
},
{
  "type": "way",
  "id": 24642827,
  "center": {
    "lat": 50.5513654,
    "lon": 9.6592739
  },
  "nodes": [
    3547718358,
    267874568,
    267874567,
    267874566,
    267874565,
    267874564,
    267874563,
    267874562,
    267874561,
    267874558,
    10063361348,
    267874555,
    267874581,
    3547718358
  ],
  "tags": {
    "landuse": "cemetery",
    "name": "Friedhof Neuenberg"
  }
},
{
  "type": "way",
  "id": 24655747,
  "center": {
    "lat": 50.3143252,
    "lon": 9.1883149
  },
  "nodes": [
    267989546,
    267989547,
    267989552,
    267989550,
    267989548,
    267989549,
    267989546
  ],
  "tags": {
    "landuse": "cemetery",
    "name": "Friedhof Rinderbügen"
  }
},
{
  "type": "way",
  "id": 24719568,
  "center": {
    "lat": 50.0014597,
    "lon": 9.1823881
  },
  "nodes": [
    268670205,
    268670206,
    4460140521,
    4460140522,
    4460140519,
    268670207,
    268670208,
    268670209,
    322544532,
    4460140503,
    268670210,
    4470972807,
    4470972798,
    268670211,
    268670212,
    268670213,
    268670214,
    322544313,
    268670215,
    322539801,
    322539800,
    268670216,
    4460140508,
    1080997042,
    4460140515,
    4460140516,
    268670205
  ],
  "tags": {
    "landuse": "cemetery",
    "name": "Hauptfriedhof"
  }
},
{
  "type": "way",
  "id": 24758726,
  "center": {
    "lat": 50.0653552,
    "lon": 9.6736732
  },
  "nodes": [
    269054910,
    269054911,
    269054912,
    269054913,
    269054910
  ],
  "tags": {
    "landuse": "cemetery",
    "religion": "christian"
  }
},
{
  "type": "way",
  "id": 24814334,
  "center": {
    "lat": 50.0785272,
    "lon": 9.6634704
  },
  "nodes": [
    269589359,
    269589360,
    269589361,
    269589362,
    4231878911,
    269589359
  ],
  "tags": {
    "landuse": "cemetery",
    "religion": "christian"
  }
},
{
  "type": "way",
  "id": 24818764,
  "center": {
    "lat": 50.5208938,
    "lon": 9.6542682
  },
  "nodes": [
    2577028118,
    2577028121,
    2532660732,
    2535202042,
    2577028112,
    2577028113,
    2577028114,
    2577028115,
    2577028116,
    2577028117,
    2577028118
  ],
  "tags": {
    "landuse": "cemetery",
    "name": "Friedhof Harmerz"
  }
},
{
  "type": "way",
  "id": 24820469,
  "center": {
    "lat": 50.3035441,
    "lon": 9.2278769
  },
  "nodes": [
    269652360,
    1816479828,
    1816479825,
    1816452470,
    269652361,
    269652362,
    1816452453,
    2094175298,
    1816452451,
    2094175295,
    1816452455,
    1816452459,
    1816452462,
    1816452465,
    269652363,
    269652364,
    2094175300,
    1817789928,
    269652358,
    1816479831,
    269652357,
    1816452475,
    269652360
  ],
  "tags": {
    "landuse": "cemetery",
    "name": "Friedhof Waldensberg"
  }
},
{
  "type": "way",
  "id": 24824174,
  "center": {
    "lat": 50.0565109,
    "lon": 9.0643517
  },
  "nodes": [
    269689418,
    12899084326,
    269689419,
    12899010080,
    269689420,
    269689421,
    8951945045,
    269689418
  ],
  "tags": {
    "landuse": "cemetery"
  }
},
{
  "type": "way",
  "id": 24856948,
  "center": {
    "lat": 50.2946008,
    "lon": 9.0280440
  },
  "nodes": [
    270089454,
    2332319917,
    2332319929,
    2332371780,
    270089455,
    2332371821,
    2332371817,
    270089456,
    270089457,
    3471164330,
    270089458,
    3471164329,
    6360094896,
    289745501,
    6360094082,
    275915498,
    11659855684,
    275915499,
    270089459,
    6462567807,
    270089460,
    2332319896,
    2332371768,
    275923648,
    2332371772,
    2332371773,
    270089454
  ],
  "tags": {
    "landuse": "cemetery",
    "name": "Friedhof Düdelsheim"
  }
},
{
  "type": "way",
  "id": 24900069,
  "center": {
    "lat": 50.2974750,
    "lon": 9.1087433
  },
  "nodes": [
    270540937,
    11102151381,
    270540938,
    270540939,
    270540940,
    270540941,
    270540937
  ],
  "tags": {
    "landuse": "cemetery",
    "name": "Jüdischer Friedhof",
    "religion": "jewish"
  }
},
{
  "type": "way",
  "id": 24926945,
  "center": {
    "lat": 50.0509529,
    "lon": 9.3231554
  },
  "nodes": [
    270879657,
    270879658,
    3851503044,
    3851557834,
    3851503035,
    3851503011,
    270879659,
    270879660,
    270879657
  ],
  "tags": {
    "landuse": "cemetery"
  }
},
{
  "type": "way",
  "id": 24928105,
  "center": {
    "lat": 50.5372843,
    "lon": 9.6360838
  },
  "nodes": [
    270892865,
    270892866,
    12831770037,
    270892867,
    270892868,
    270892865
  ],
  "tags": {
    "amenity": "grave_yard",
    "name": "Friedhof Sickels"
  }
},
{
  "type": "way",
  "id": 24976882,
  "center": {
    "lat": 50.5761921,
    "lon": 9.7043037
  },
  "nodes": [
    271400034,
    271400035,
    1929410965,
    1929410967,
    271400036,
    1929410949,
    1929410969,
    12571347053,
    1929410951,
    4060369381,
    1929410953,
    1929410963,
    1929410945,
    1929410947,
    271400034
  ],
  "tags": {
    "landuse": "cemetery",
    "name": "Friedhof Lehnerz",
    "source": "Bing"
  }
},
{
  "type": "way",
  "id": 25023043,
  "center": {
    "lat": 50.5440332,
    "lon": 9.6402644
  },
  "nodes": [
    272070223,
    272070225,
    2576800079,
    2576800078,
    2576800080,
    2576800081,
    272070230,
    272070226,
    272070235,
    272070237,
    267874498,
    267874495,
    2576800077,
    267892771,
    267874493,
    267874490,
    267874488,
    13040684774,
    13040684773,
    267874485,
    13040684766,
    13040684767,
    13040684768,
    13040684769,
    13040684770,
    267874479,
    13040684772,
    13040684771,
    267874501,
    272070422,
    10063361377,
    12976788773,
    12976788772,
    267874503,
    12976788771,
    267874507,
    267874510,
    272070525,
    267874582,
    267874514,
    272070574,
    267874515,
    267874518,
    11711602216,
    11711602215,
    267874521,
    272070753,
    272070749,
    12917905720,
    267874524,
    2576800074,
    1790118988,
    267874526,
    267874529,
    2576800076,
    272070258,
    1790119033,
    272070223
  ],
  "tags": {
    "landuse": "cemetery",
    "name": "Hauptfriedhof West"
  }
},
{
  "type": "way",
  "id": 25023047,
  "center": {
    "lat": 50.5441182,
    "lon": 9.6385562
  },
  "nodes": [
    272070259,
    272070260,
    272070261,
    272070262,
    272070264,
    272070259
  ],
  "tags": {
    "cemetery": "sector",
    "landuse": "cemetery",
    "name": "Muslimischer Friedhof",
    "operator": "Hauptfriedhof West",
    "religion": "muslim"
  }
},
{
  "type": "way",
  "id": 25039635,
  "center": {
    "lat": 50.5437575,
    "lon": 9.6293412
  },
  "nodes": [
    272404291,
    272404292,
    5915339921,
    5915339920,
    272404294,
    272593329,
    272404295,
    1475324408,
    272404291
  ],
  "tags": {
    "landuse": "cemetery",
    "name": "Friedhof Haimbach"
  }
},
{
  "type": "way",
  "id": 25050529,
  "center": {
    "lat": 50.5156051,
    "lon": 9.0268530
  },
  "nodes": [
    272518940,
    272518942,
    11674894825,
    11674894824,
    1243121018,
    1243121037,
    272518940
  ],
  "tags": {
    "landuse": "cemetery",
    "name": "Friedhof Gonterskirchen"
  }
},
{
  "type": "way",
  "id": 25065404,
  "center": {
    "lat": 50.8404361,
    "lon": 9.0128769
  },
  "nodes": [
    272728029,
    6511856540,
    272679274,
    6511856571,
    272728039,
    272728043,
    272728047,
    272728051,
    272728053,
    272728056,
    272728058,
    288147360,
    272728061,
    272728063,
    272728065,
    274550086,
    274550084,
    272728068,
    274550080,
    2631314724,
    272728070,
    2631354663,
    6511856541,
    6511856542,
    2631354613,
    272728029
  ],
  "tags": {
    "landuse": "cemetery",
    "name": "Friedhof Stadtallendorf"
  }
},
{
  "type": "way",
  "id": 25116274,
  "center": {
    "lat": 50.3280451,
    "lon": 9.1757022
  },
  "nodes": [
    273457913,
    4778927288,
    273457924,
    273457929,
    4778927262,
    273457933,
    273457913
  ],
  "tags": {
    "landuse": "cemetery",
    "name": "Friedhof Michelau"
  }
},
{
  "type": "way",
  "id": 25522121,
  "center": {
    "lat": 50.1995503,
    "lon": 9.1889153
  },
  "nodes": [
    278130642,
    12995473762,
    1532881806,
    1532881763,
    1532881736,
    278130643,
    12995473766,
    278130644,
    278130645,
    12995473765,
    1534691602,
    1534691595,
    1532881825,
    1532881849,
    12995473763,
    1534691671,
    12995473764,
    1532881860,
    278130642
  ],
  "tags": {
    "historic": "yes",
    "landuse": "cemetery",
    "name": "Jüdischer Friedhof Gelnhausen",
    "religion": "jewish",
    "wikidata": "Q1323648"
  }
},
{
  "type": "way",
  "id": 25557370,
  "center": {
    "lat": 50.1437101,
    "lon": 9.1392744
  },
  "nodes": [
    278564232,
    1706438218,
    1706438228,
    278564234,
    278564235,
    1708985534,
    278564237,
    278564238,
    1706438117,
    278564239,
    278564240,
    278564232
  ],
  "tags": {
    "denomination": "roman_catholic",
    "landuse": "cemetery",
    "name": "Friedhof Altenmittlau",
    "religion": "christian"
  }
},
{
  "type": "way",
  "id": 25837462,
  "center": {
    "lat": 50.1800411,
    "lon": 9.0348260
  },
  "nodes": [
    281818853,
    281818855,
    281818857,
    281818859,
    281818853
  ],
  "tags": {
    "landuse": "cemetery",
    "name": "Jüdischer Friedhof Langenselbold",
    "religion": "jewish",
    "wikidata": "Q16912569"
  }
},
{
  "type": "way",
  "id": 26150720,
  "center": {
    "lat": 50.1783783,
    "lon": 9.9901413
  },
  "nodes": [
    286374650,
    286374651,
    286374652,
    286374654,
    4228180781,
    4228180782,
    286374650
  ],
  "tags": {
    "landuse": "cemetery"
  }
},
{
  "type": "way",
  "id": 26231005,
  "center": {
    "lat": 50.0236577,
    "lon": 9.2534936
  },
  "nodes": [
    13205447685,
    287232885,
    287232886,
    4168924540,
    4168924539,
    4168924536,
    4168924535,
    287232889,
    4168924534,
    4168924533,
    3364654576,
    4168924532,
    4168924528,
    4168924529,
    4168924530,
    4168924527,
    4168924526,
    4168924531,
    287232890,
    4168924512,
    287579723,
    4168924513,
    287232891,
    4168953264,
    4168924521,
    4168958147,
    4168924522,
    4168958144,
    4168924525,
    4165971064,
    4168924523,
    267611463,
    4168924524,
    1591025150,
    4168924519,
    4168924520,
    1591025179,
    4168924518,
    4168924514,
    4165964411,
    4168924517,
    4168924515,
    4168924516,
    4165956491,
    4165953625,
    4165953624,
    4165956490,
    4165953623,
    3902785827,
    4165956489,
    3902785836,
    4165953688,
    4165953687,
    3902785839,
    287580451,
    3902785832,
    4165953686,
    4165953685,
    4165953684,
    4165953683,
    4165953682,
    4165953681,
    4165953677,
    13202493580,
    13202493583,
    4165953680,
    13205447684,
    4168924511,
    13205447686,
    13205447685
  ],
  "tags": {
    "landuse": "cemetery"
  }
},
{
  "type": "way",
  "id": 26281120,
  "center": {
    "lat": 50.5936876,
    "lon": 9.0281163
  },
  "nodes": [
    287874710,
    287874711,
    287874715,
    287874717,
    287874719,
    287874708,
    7109040838,
    7109040837,
    287874710
  ],
  "tags": {
    "landuse": "cemetery",
    "name": "Friedhof Stockhausen"
  }
},
{
  "type": "way",
  "id": 26361634,
  "center": {
    "lat": 50.2749009,
    "lon": 9.0538770
  },
  "nodes": [
    142284774,
    288958620,
    288958624,
    288822433,
    288822431,
    288957050,
    142284774
  ],
  "tags": {
    "landuse": "cemetery",
    "name": "Friedhof Calbach"
  }
},
{
  "type": "way",
  "id": 26363639,
  "center": {
    "lat": 50.3147269,
    "lon": 9.0016784
  },
  "nodes": [
    288840894,
    288840895,
    11301947113,
    11301947112,
    288840896,
    6394282858,
    288840897,
    288840894
  ],
  "tags": {
    "landuse": "cemetery",
    "name": "Friedhof Glauberg"
  }
},
{
  "type": "way",
  "id": 26413104,
  "center": {
    "lat": 50.2644426,
    "lon": 9.0897443
  },
  "nodes": [
    289385863,
    10828933675,
    7168890960,
    7706539460,
    289385866,
    289385870,
    7706539459,
    289385872,
    289385875,
    289385877,
    289385885,
    289385894,
    289385896,
    289385898,
    289385904,
    289385907,
    289385908,
    289385915,
    289385919,
    289385863
  ],
  "tags": {
    "barrier": "fence",
    "landuse": "cemetery",
    "name": "Friedhof Herrnhaag"
  }
},
{
  "type": "way",
  "id": 26431869,
  "center": {
    "lat": 50.3316596,
    "lon": 9.2050630
  },
  "nodes": [
    289619106,
    2955850188,
    289619107,
    289619108,
    289619109,
    289619110,
    289619111,
    289619116,
    289619120,
    2955850178,
    289619144,
    289619148,
    289619106
  ],
  "tags": {
    "landuse": "cemetery",
    "name": "Friedhof Wolferborn"
  }
},
{
  "type": "way",
  "id": 26462168,
  "center": {
    "lat": 50.2559496,
    "lon": 9.0243651
  },
  "nodes": [
    289993750,
    289993751,
    289993752,
    289993753,
    5113679754,
    289993754,
    2404989057,
    2406919859,
    289993750
  ],
  "tags": {
    "landuse": "cemetery",
    "name": "Friedhof Eckartshausen"
  }
},
{
  "type": "way",
  "id": 26508139,
  "center": {
    "lat": 50.0082701,
    "lon": 9.6096932
  },
  "nodes": [
    1232703377,
    290547390,
    290547391,
    1232703316,
    1232703418,
    290547392,
    12493946109,
    1232703377
  ],
  "tags": {
    "landuse": "cemetery"
  }
},
{
  "type": "way",
  "id": 26815203,
  "center": {
    "lat": 50.1885710,
    "lon": 9.0245638
  },
  "nodes": [
    294155327,
    4897284338,
    294155346,
    783373761,
    294155348,
    2982674779,
    1901134165,
    1789965887,
    1789965888,
    294155351,
    1742587441,
    9949654913,
    294155354,
    783373772,
    294155330,
    4897284339,
    294155327
  ],
  "tags": {
    "landuse": "cemetery",
    "name": "Friedhof Rödelberg",
    "religion": "christian"
  }
},
{
  "type": "way",
  "id": 26928407,
  "center": {
    "lat": 50.5433465,
    "lon": 9.6956408
  },
  "nodes": [
    3670664342,
    3670664350,
    3670664352,
    3670664346,
    3670664341,
    3670664353,
    3670664358,
    295066872,
    12529483543,
    295066873,
    295066889,
    295066807,
    295066891,
    295067966,
    295066893,
    295066879,
    295066813,
    295066814,
    295066815,
    295066816,
    295066817,
    295066818,
    295066819,
    295066820,
    295066821,
    295066822,
    293281433,
    3670664343,
    3670664351,
    3670664344,
    3670664355,
    3670664348,
    3670664349,
    3670664354,
    3670664345,
    3670664357,
    3670664347,
    3670664356,
    3670664342
  ],
  "tags": {
    "landuse": "cemetery",
    "name": "Zentralfriedhof",
    "wikidata": "Q120986065"
  }
},
{
  "type": "way",
  "id": 27047098,
  "center": {
    "lat": 50.2200515,
    "lon": 9.0417587
  },
  "nodes": [
    296511735,
    4309352437,
    296511738,
    296511741,
    4309352435,
    4309352436,
    296511744,
    4309352445,
    296511735
  ],
  "tags": {
    "landuse": "cemetery",
    "name": "Friedhof Hüttengesäß"
  }
},
{
  "type": "way",
  "id": 27150160,
  "center": {
    "lat": 50.6988307,
    "lon": 9.7250955
  },
  "nodes": [
    297889394,
    1662432721,
    297889400,
    1662478323,
    297889412,
    297889430,
    297889428,
    297889415,
    297889417,
    297889420,
    297889394
  ],
  "tags": {
    "landuse": "cemetery",
    "name": "Evangelischer Friedhof Burghaun"
  }
},
{
  "type": "way",
  "id": 27484743,
  "center": {
    "lat": 50.6313396,
    "lon": 9.4491746
  },
  "nodes": [
    301745224,
    301745228,
    301745230,
    301745231,
    5952870273,
    301745233,
    301745234,
    301745235,
    301745239,
    1569452372,
    301745224
  ],
  "tags": {
    "landuse": "cemetery",
    "name": "Friedhof Angersbach"
  }
},
{
  "type": "way",
  "id": 27624201,
  "center": {
    "lat": 50.5652428,
    "lon": 9.4462025
  },
  "nodes": [
    303358939,
    303358940,
    303358941,
    303358942,
    303358943,
    303358944,
    745329280,
    745329268,
    303358939
  ],
  "tags": {
    "landuse": "cemetery",
    "name": "Friedhof Stockhausen"
  }
},
{
  "type": "way",
  "id": 27660401,
  "center": {
    "lat": 50.5912334,
    "lon": 9.4947572
  },
  "nodes": [
    303789257,
    303789258,
    303789260,
    2787185106,
    2787185109,
    303789261,
    303789262,
    303789263,
    303789264,
    303789265,
    2787185098,
    303789257
  ],
  "tags": {
    "landuse": "cemetery",
    "name": "Friedhof Müs"
  }
},
{
  "type": "way",
  "id": 27686992,
  "center": {
    "lat": 50.2501425,
    "lon": 9.0197074
  },
  "nodes": [
    304064806,
    304064808,
    4141219732,
    304064791,
    52859757,
    304064792,
    304064806
  ],
  "tags": {
    "amenity": "grave_yard",
    "description": "Jüdischer Friedhof",
    "religion": "jewish"
  }
},
{
  "type": "way",
  "id": 27810671,
  "center": {
    "lat": 50.0535844,
    "lon": 9.0102989
  },
  "nodes": [
    305368110,
    563943653,
    305368112,
    305368114,
    305368117,
    10017330885,
    3153207558,
    305368119,
    563943649,
    305368110
  ],
  "tags": {
    "amenity": "grave_yard",
    "barrier": "fence",
    "denomination": "catholic",
    "landuse": "cemetery",
    "name": "Waldfriedhof Großwelzheim",
    "religion": "christian"
  }
},
{
  "type": "way",
  "id": 27894787,
  "center": {
    "lat": 50.2356561,
    "lon": 9.0501977
  },
  "nodes": [
    306268559,
    306268564,
    306268567,
    306268570,
    1917385410,
    306268577,
    306268583,
    5718484273,
    306268559
  ],
  "tags": {
    "landuse": "cemetery",
    "name": "Friedhof Altwiedermus"
  }
},
{
  "type": "way",
  "id": 27913519,
  "center": {
    "lat": 50.0596508,
    "lon": 9.6882067
  },
  "nodes": [
    306417115,
    2079991128,
    306417120,
    3101819254,
    3101819253,
    306417123,
    306417124,
    2079991104,
    306417125,
    306417126,
    306417127,
    306417128,
    306417115
  ],
  "tags": {
    "landuse": "cemetery"
  }
},
{
  "type": "way",
  "id": 27933693,
  "center": {
    "lat": 50.7388632,
    "lon": 9.6721509
  },
  "nodes": [
    306601603,
    306601610,
    306601611,
    306601612,
    12018650255,
    2354772078,
    306601621,
    306601615,
    2354772041,
    2354772043,
    2354772045,
    310526499,
    306601613,
    306601614,
    306601603
  ],
  "tags": {
    "landuse": "cemetery",
    "name": "Friedhof Wehrda"
  }
},
{
  "type": "way",
  "id": 28100244,
  "center": {
    "lat": 50.1698131,
    "lon": 9.4774422
  },
  "nodes": [
    308673506,
    308673507,
    1946718710,
    1946718728,
    308673509,
    1946718779,
    1946718782,
    13249708578,
    308673511,
    308673506
  ],
  "tags": {
    "landuse": "cemetery",
    "name": "Friedhof Pfaffenhausen"
  }
},
{
  "type": "way",
  "id": 28144843,
  "center": {
    "lat": 50.5969569,
    "lon": 9.4256644
  },
  "nodes": [
    309130601,
    309130604,
    309130606,
    309130608,
    309130610,
    7731940998,
    309130601
  ],
  "tags": {
    "landuse": "cemetery",
    "name": "Friedhof Rudlos"
  }
},
{
  "type": "way",
  "id": 28154186,
  "center": {
    "lat": 50.6814004,
    "lon": 9.9274750
  },
  "nodes": [
    309243835,
    309243837,
    309243838,
    343339559,
    309243840,
    10219889363,
    309243841,
    343339558,
    309243843,
    343339574,
    10219889362,
    10219889361,
    309243844,
    309243846,
    309243835
  ],
  "tags": {
    "denomination": "catholic",
    "landuse": "cemetery",
    "religion": "christian"
  }
},
{
  "type": "way",
  "id": 28266034,
  "center": {
    "lat": 50.1477760,
    "lon": 9.0277958
  },
  "nodes": [
    310416757,
    1991786992,
    9295784808,
    9295784812,
    9295784810,
    1991787100,
    1991787089,
    9294383150,
    310416758,
    1929238620,
    9294383155,
    9294383153,
    9294383154,
    310416760,
    310416767,
    10936670220,
    310416774,
    2431258306,
    2431258295,
    310416781,
    310416788,
    310416797,
    9294383152,
    310416757
  ],
  "tags": {
    "landuse": "cemetery",
    "name": "Friedhof Niederrodenbach"
  }
},
{
  "type": "way",
  "id": 28266502,
  "center": {
    "lat": 50.6232526,
    "lon": 9.5129719
  },
  "nodes": [
    310421238,
    310421241,
    310421243,
    310421246,
    310421248,
    310421249,
    310421251,
    310421253,
    310421254,
    310421256,
    310421258,
    310421260,
    326096137,
    1069298049,
    1069298050,
    1069298052,
    310421238
  ],
  "tags": {
    "landuse": "cemetery",
    "name": "Friedhof Bad Salzschlirf"
  }
},
{
  "type": "way",
  "id": 28277932,
  "center": {
    "lat": 50.7473246,
    "lon": 9.6729446
  },
  "nodes": [
    310527804,
    310527805,
    310527806,
    310527807,
    310527804
  ],
  "tags": {
    "landuse": "cemetery",
    "name": "Jüdischer Firedhof Wehrda",
    "religion": "jewish"
  }
},
{
  "type": "way",
  "id": 28277933,
  "center": {
    "lat": 50.7440957,
    "lon": 9.6657287
  },
  "nodes": [
    310527808,
    310527809,
    12023861544,
    12023861543,
    12023861542,
    310527810,
    310527811,
    310527808
  ],
  "tags": {
    "landuse": "cemetery"
  }
},
{
  "type": "way",
  "id": 28302691,
  "center": {
    "lat": 50.7114029,
    "lon": 9.9486141
  },
  "nodes": [
    310801042,
    310801046,
    310801051,
    310801054,
    8602632680,
    310801057,
    8602632682,
    8602632681,
    8602632683,
    2480076064,
    310801061,
    310801070,
    310801074,
    310801088,
    310801094,
    310801042
  ],
  "tags": {
    "denomination": "catholic",
    "landuse": "cemetery",
    "religion": "christian",
    "wikidata": "Q113550848"
  }
},
{
  "type": "way",
  "id": 28364424,
  "center": {
    "lat": 50.8519509,
    "lon": 9.1199650
  },
  "nodes": [
    311534137,
    311534139,
    311534140,
    311534141,
    311534143,
    311534144,
    311534145,
    311534147,
    311534148,
    311534149,
    5821365025,
    311534152,
    311534153,
    311534155,
    311534156,
    311534162,
    311534164,
    311534137
  ],
  "tags": {
    "landuse": "cemetery",
    "name": "Friedhof Neustadt"
  }
},
{
  "type": "way",
  "id": 28406560,
  "center": {
    "lat": 50.5788296,
    "lon": 9.3904325
  },
  "nodes": [
    312038275,
    312038278,
    312038279,
    312038280,
    312038275
  ],
  "tags": {
    "landuse": "cemetery",
    "name": "Friedhof Rixfeld"
  }
},
{
  "type": "way",
  "id": 28426812,
  "center": {
    "lat": 50.5701382,
    "lon": 9.4158003
  },
  "nodes": [
    312310454,
    312310456,
    312310458,
    312310461,
    312310454
  ],
  "tags": {
    "landuse": "cemetery",
    "name": "Friedhof Schadges"
  }
},
{
  "type": "way",
  "id": 28508603,
  "center": {
    "lat": 50.6087306,
    "lon": 9.3714290
  },
  "nodes": [
    313171326,
    313171327,
    313171328,
    313171329,
    313171330,
    313171331,
    313171332,
    313171326
  ],
  "tags": {
    "landuse": "cemetery",
    "name": "Friedhof Frischborn"
  }
},
{
  "type": "way",
  "id": 28509698,
  "center": {
    "lat": 50.1311155,
    "lon": 9.4158298
  },
  "nodes": [
    313180120,
    313180121,
    313180125,
    313180122,
    1972858586,
    1972858564,
    313180127,
    8589987968,
    1972858457,
    1972858445,
    1972858433,
    1972858405,
    1972858394,
    313180120
  ],
  "tags": {
    "landuse": "cemetery",
    "name": "Friedhof Flörsbach"
  }
},
{
  "type": "way",
  "id": 28630517,
  "center": {
    "lat": 50.6413033,
    "lon": 9.3963179
  },
  "nodes": [
    314678867,
    314678868,
    492061075,
    314678869,
    1621651421,
    314678870,
    1621651405,
    6816848973,
    6816848972,
    6816848974,
    314678867
  ],
  "tags": {
    "landuse": "cemetery",
    "name": "Friedhof Lauterbach"
  }
},
{
  "type": "way",
  "id": 28657366,
  "center": {
    "lat": 50.6188642,
    "lon": 9.3802688
  },
  "nodes": [
    314946096,
    314946097,
    9327210068,
    702794468,
    702794469,
    702794470,
    315870398,
    315870395,
    315870393,
    315870389,
    9327210067,
    314946098,
    9327210066,
    9327210065,
    1064464052,
    82617598,
    1064464047,
    82617597,
    1064464046,
    1064464044,
    1064464043,
    82617591,
    1064464042,
    9327210064,
    378066448,
    378066441,
    378066431,
    378066412,
    82617586,
    82617584,
    1064464034,
    82617582,
    82617580,
    82617578,
    9327210074,
    9327210073,
    314937668,
    314938313,
    314938311,
    314938309,
    314938307,
    5980805614,
    314938305,
    5980805613,
    314938303,
    9327210072,
    9327210071,
    9327210070,
    9327210069,
    314946096
  ],
  "tags": {
    "email": "info@friedwald.de",
    "landuse": "cemetery",
    "name": "FriedWald Lauterbach",
    "phone": "+49 6155 848 100",
    "source": "https://www.friedwald.de/waldbestattung-lauterbach;www.zaehle.de;streetlevel imagery",
    "website": "https://www.friedwald.de/waldbestattung-lauterbach"
  }
},
{
  "type": "way",
  "id": 28709538,
  "center": {
    "lat": 50.9992832,
    "lon": 9.7363184
  },
  "nodes": [
    315586846,
    315586853,
    315586857,
    315586859,
    315586861,
    1990907977,
    315586863,
    315586866,
    339126302,
    1990907976,
    1990907989,
    1990907995,
    339126301,
    315586846
  ],
  "tags": {
    "landuse": "cemetery",
    "name": "Friedhof Neustadt"
  }
},
{
  "type": "way",
  "id": 28828076,
  "center": {
    "lat": 50.6532495,
    "lon": 9.5192764
  },
  "nodes": [
    316944332,
    316944333,
    316944335,
    316944336,
    316944337,
    316944339,
    316944332
  ],
  "tags": {
    "landuse": "cemetery",
    "name": "Friedhof Nieder-Stoll"
  }
},
{
  "type": "way",
  "id": 28833717,
  "center": {
    "lat": 50.5884621,
    "lon": 9.5440061
  },
  "nodes": [
    316991839,
    316991840,
    316991841,
    2078832555,
    316991843,
    316991844,
    1108359169,
    316991839
  ],
  "tags": {
    "landuse": "cemetery",
    "name": "St. Georgs Park"
  }
},
{
  "type": "way",
  "id": 28873780,
  "center": {
    "lat": 50.5899735,
    "lon": 9.5300159
  },
  "nodes": [
    317404993,
    1176760295,
    317404994,
    322584876,
    322584868,
    317404995,
    322584865,
    317404996,
    317404993
  ],
  "tags": {
    "landuse": "cemetery",
    "name": "Neuer Friedhof"
  }
},
{
  "type": "way",
  "id": 28949241,
  "center": {
    "lat": 50.5456334,
    "lon": 9.4737909
  },
  "nodes": [
    318293135,
    318293136,
    318293137,
    2025202859,
    2025202858,
    2025202860,
    318293138,
    318293135
  ],
  "tags": {
    "landuse": "cemetery",
    "name": "Friedhof Blankenau"
  }
},
{
  "type": "way",
  "id": 28957326,
  "center": {
    "lat": 50.6663317,
    "lon": 9.3934875
  },
  "nodes": [
    318385494,
    318385495,
    318385496,
    318385498,
    318385499,
    318385500,
    318385494
  ],
  "tags": {
    "landuse": "cemetery",
    "name": "Friedhof Maar"
  }
},
{
  "type": "way",
  "id": 29026221,
  "center": {
    "lat": 50.6208066,
    "lon": 9.3935243
  },
  "nodes": [
    319211353,
    11160484576,
    11160484575,
    319211354,
    319211355,
    319211356,
    319211357,
    11160484574,
    319211358,
    319211353
  ],
  "tags": {
    "landuse": "cemetery",
    "name": "Friedhof Blitzenrod"
  }
},
{
  "type": "way",
  "id": 29028895,
  "center": {
    "lat": 50.5642534,
    "lon": 9.3444067
  },
  "nodes": [
    319243846,
    319243847,
    319243848,
    1414890023,
    319243849,
    319243850,
    319243846
  ],
  "tags": {
    "landuse": "cemetery",
    "name": "Friedhof Herbstein",
    "wikidata": "Q116513305"
  }
},
{
  "type": "way",
  "id": 29055910,
  "center": {
    "lat": 50.9793346,
    "lon": 9.7994939
  },
  "nodes": [
    319590004,
    469713891,
    319590022,
    1705516725,
    469713893,
    469713894,
    385448878,
    319590029,
    385448876,
    1705516735,
    1705516719,
    10133812236,
    319590030,
    469713892,
    10133812246,
    319590004
  ],
  "tags": {
    "landuse": "cemetery",
    "name": "Friedhof Bebra",
    "religion": "christian"
  }
},
{
  "type": "way",
  "id": 29222902,
  "center": {
    "lat": 50.9151184,
    "lon": 9.7636478
  },
  "nodes": [
    321422235,
    321422236,
    1274944007,
    12199399392,
    321422237,
    321422238,
    321422235
  ],
  "tags": {
    "landuse": "cemetery",
    "name": "Friedhof Mecklar"
  }
},
{
  "type": "way",
  "id": 29380239,
  "center": {
    "lat": 50.6415231,
    "lon": 9.5161249
  },
  "nodes": [
    323166889,
    323166890,
    323166892,
    323166893,
    323166894,
    323166895,
    323166889
  ],
  "tags": {
    "landuse": "cemetery",
    "name": "Friedhof Ützhausen"
  }
},
{
  "type": "way",
  "id": 29500579,
  "center": {
    "lat": 50.0837923,
    "lon": 9.0771483
  },
  "nodes": [
    559084670,
    701724586,
    325184445,
    1883111129,
    1883111127,
    559084670
  ],
  "tags": {
    "landuse": "cemetery",
    "name": "Neuer Friedhof"
  }
},
{
  "type": "way",
  "id": 29974884,
  "center": {
    "lat": 50.5936076,
    "lon": 9.9047737
  },
  "nodes": [
    329990779,
    329990770,
    329990771,
    329990777,
    329990775,
    329990779
  ],
  "tags": {
    "landuse": "cemetery",
    "name": "Friedhof Langenberg",
    "religion": "christian"
  }
},
{
  "type": "way",
  "id": 30000425,
  "center": {
    "lat": 50.0726530,
    "lon": 9.7497253
  },
  "nodes": [
    330261990,
    330261991,
    330261993,
    330261994,
    330261990
  ],
  "tags": {
    "denomination": "catholic",
    "landuse": "cemetery",
    "name": "Friedhof Seifriedsburg",
    "religion": "christian"
  }
},
{
  "type": "way",
  "id": 30022568,
  "center": {
    "lat": 50.0233932,
    "lon": 9.7214879
  },
  "nodes": [
    330538290,
    9565554310,
    330538300,
    330538302,
    330538287,
    330538288,
    330538290
  ],
  "tags": {
    "denomination": "catholic",
    "landuse": "cemetery",
    "name": "Friedhof Wernfeld",
    "religion": "christian"
  }
},
{
  "type": "way",
  "id": 30022577,
  "center": {
    "lat": 50.0642777,
    "lon": 9.6564621
  },
  "nodes": [
    330538516,
    330538518,
    9540174521,
    330538512,
    330538433,
    3478318958,
    330538516
  ],
  "tags": {
    "denomination": "catholic",
    "landuse": "cemetery",
    "name": "Friedhof Langenprozelten",
    "religion": "christian"
  }
},
{
  "type": "way",
  "id": 30060965,
  "center": {
    "lat": 50.0964367,
    "lon": 9.6451763
  },
  "nodes": [
    7623372471,
    331107764,
    2632669243,
    2632669245,
    331107765,
    12830352932,
    2632669284,
    12830352941,
    2632669272,
    12830352955,
    331107767,
    12830352945,
    2632669309,
    568604563,
    2632669293,
    2632669253,
    331107763,
    2711187334,
    568604561,
    7623372471
  ],
  "tags": {
    "denomination": "catholic",
    "landuse": "cemetery",
    "name": "Friedhof Rieneck",
    "religion": "christian"
  }
},
{
  "type": "way",
  "id": 30080457,
  "center": {
    "lat": 50.9885570,
    "lon": 9.2750891
  },
  "nodes": [
    331322693,
    1115312355,
    1194832367,
    1115312450,
    1194832373,
    1194832370,
    1194832368,
    331322694,
    7680165181,
    331322695,
    331322693
  ],
  "tags": {
    "landuse": "cemetery",
    "name": "Friedhof Neuenhain"
  }
},
{
  "type": "way",
  "id": 30490948,
  "center": {
    "lat": 50.9872932,
    "lon": 9.8277756
  },
  "nodes": [
    458105074,
    5471093783,
    458105075,
    5471093787,
    1744432759,
    336474813,
    458105074
  ],
  "tags": {
    "landuse": "cemetery",
    "name": "Friedhof Gilfershausen",
    "religion": "christian"
  }
},
{
  "type": "way",
  "id": 30573163,
  "center": {
    "lat": 50.3156204,
    "lon": 9.2349377
  },
  "nodes": [
    337852258,
    1816452724,
    337852266,
    1816452639,
    1816452637,
    1816452634,
    1816452623,
    1816452592,
    1816452626,
    1816452621,
    1816452599,
    1816452628,
    1816452596,
    1816452589,
    337852276,
    1816452636,
    1816452694,
    337852282,
    337852258
  ],
  "tags": {
    "landuse": "cemetery",
    "name": "Friedhof Leisenwald.",
    "source": "local_knowledge"
  }
},
{
  "type": "way",
  "id": 30623237,
  "center": {
    "lat": 50.5512726,
    "lon": 9.5194487
  },
  "nodes": [
    338691830,
    338691831,
    338691832,
    338691833,
    338691830
  ],
  "tags": {
    "landuse": "cemetery",
    "name": "Friedhof Kleinlüder"
  }
},
{
  "type": "way",
  "id": 30691967,
  "center": {
    "lat": 50.6445697,
    "lon": 9.3627917
  },
  "nodes": [
    339400041,
    339400044,
    339400047,
    1736625071,
    339400050,
    339400041
  ],
  "tags": {
    "landuse": "cemetery",
    "layer": "1",
    "name": "Friedhof Heblos"
  }
},
{
  "type": "way",
  "id": 30693615,
  "center": {
    "lat": 50.6357241,
    "lon": 9.3440830
  },
  "nodes": [
    339413217,
    1799714670,
    339413218,
    1799714665,
    339413219,
    339413220,
    1799714681,
    1799714679,
    339413217
  ],
  "tags": {
    "barrier": "wall",
    "landuse": "cemetery",
    "name": "Friedhof Sickendorf"
  }
},
{
  "type": "way",
  "id": 30767695,
  "center": {
    "lat": 50.6800742,
    "lon": 9.5566889
  },
  "nodes": [
    340254433,
    1324173330,
    340254434,
    2326297565,
    2326297566,
    340254435,
    340254436,
    2326297588,
    340254437,
    2326297613,
    2326297618,
    340254438,
    2326297599,
    340254439,
    2326297589,
    340254433
  ],
  "tags": {
    "landuse": "cemetery",
    "name": "Friedhof Schlitz",
    "wikidata": "Q115595929"
  }
},
{
  "type": "way",
  "id": 30819764,
  "center": {
    "lat": 50.6304442,
    "lon": 9.5805029
  },
  "nodes": [
    342133151,
    342133153,
    1259052367,
    12583069188,
    1259052387,
    342133155,
    342133158,
    12583069253,
    342133151
  ],
  "tags": {
    "landuse": "cemetery",
    "name": "Friedhof Hartershausen"
  }
},
{
  "type": "way",
  "id": 31239339,
  "center": {
    "lat": 50.7010231,
    "lon": 9.2946779
  },
  "nodes": [
    347326860,
    1125992907,
    1667890426,
    347326861,
    1125992897,
    347326862,
    1125992871,
    1125992864,
    1667890484,
    347326863,
    1125992901,
    1125992892,
    1667890455,
    347326860
  ],
  "tags": {
    "barrier": "wall",
    "landuse": "cemetery",
    "name": "Friedhof Hopfgarten"
  }
},
{
  "type": "way",
  "id": 31242799,
  "center": {
    "lat": 50.6953343,
    "lon": 9.3235085
  },
  "nodes": [
    2123016353,
    2123016351,
    2123016349,
    347361419,
    2123016348,
    347361420,
    2123016347,
    2123016352,
    347361421,
    2123016353
  ],
  "tags": {
    "landuse": "cemetery",
    "name": "Friedhof Brauerschwend"
  }
},
{
  "type": "way",
  "id": 31284568,
  "center": {
    "lat": 50.3557311,
    "lon": 9.5270822
  },
  "nodes": [
    348072681,
    1449710965,
    1449710964,
    12965290371,
    348072706,
    348072684,
    348072689,
    348072686,
    1449710942,
    348072683,
    2395190104,
    348072688,
    1449710948,
    2392728924,
    348072678,
    1449710961,
    348072690,
    348072687,
    2392729039,
    2392729038,
    2392729037,
    348072692,
    348072681
  ],
  "tags": {
    "landuse": "cemetery",
    "name": "Friedhof Schlüchtern"
  }
},
{
  "type": "way",
  "id": 31308056,
  "center": {
    "lat": 50.7325298,
    "lon": 9.2699273
  },
  "nodes": [
    348367169,
    348367170,
    348367173,
    348367175,
    1666465790,
    2121635909,
    2121635905,
    348367169
  ],
  "tags": {
    "landuse": "cemetery",
    "name": "Friedhof Altenburg"
  }
},
{
  "type": "way",
  "id": 31648196,
  "center": {
    "lat": 50.7325666,
    "lon": 9.1913837
  },
  "nodes": [
    353974048,
    353974052,
    353974055,
    1273457886,
    1273458391,
    353974060,
    353974048
  ],
  "tags": {
    "landuse": "cemetery",
    "name": "Friedhof Zell"
  }
},
{
  "type": "way",
  "id": 31690441,
  "center": {
    "lat": 50.3464161,
    "lon": 9.2030358
  },
  "nodes": [
    354638097,
    354638102,
    354638107,
    12809624035,
    354638111,
    354638097
  ],
  "tags": {
    "landuse": "cemetery",
    "name": "Friedhof Kefenrod"
  }
},
{
  "type": "way",
  "id": 31748435,
  "center": {
    "lat": 50.3732204,
    "lon": 9.0670439
  },
  "nodes": [
    355292486,
    355292491,
    1829288205,
    355292499,
    1829288287,
    355292503,
    1829288285,
    355292486
  ],
  "tags": {
    "landuse": "cemetery",
    "name": "Friedhof Eckartsborn"
  }
},
{
  "type": "way",
  "id": 31772019,
  "center": {
    "lat": 50.5115820,
    "lon": 9.2135547
  },
  "nodes": [
    355668343,
    2436568529,
    2441091096,
    2436568542,
    12963700445,
    2436568543,
    355668353,
    355668343
  ],
  "tags": {
    "barrier": "wall",
    "landuse": "cemetery",
    "name": "Friedhof Breungeshain"
  }
},
{
  "type": "way",
  "id": 32241251,
  "center": {
    "lat": 50.7856682,
    "lon": 9.8926516
  },
  "nodes": [
    361543989,
    13050558226,
    2122445257,
    361544010,
    361544001,
    361543994,
    361543989
  ],
  "tags": {
    "landuse": "cemetery",
    "name": "Friedhof Soislieden"
  }
},
{
  "type": "way",
  "id": 32273733,
  "center": {
    "lat": 50.0506725,
    "lon": 9.1150431
  },
  "nodes": [
    362768819,
    4717532624,
    362768825,
    5469162523,
    1395029454,
    362768832,
    4717532623,
    362768838,
    362768819
  ],
  "tags": {
    "amenity": "grave_yard",
    "denomination": "catholic",
    "religion": "christian"
  }
},
{
  "type": "way",
  "id": 32425855,
  "center": {
    "lat": 50.3418635,
    "lon": 9.2511274
  },
  "nodes": [
    364637471,
    364637472,
    364637478,
    364637474,
    364637484,
    1876245877,
    1876245874,
    1876245879,
    364637476,
    364637485,
    1876245891,
    1876245907,
    364637471
  ],
  "tags": {
    "landuse": "cemetery",
    "name": "Friedhof Hitzkirchen",
    "religion": "christian"
  }
},
{
  "type": "way",
  "id": 32725730,
  "center": {
    "lat": 50.5262586,
    "lon": 9.4078344
  },
  "nodes": [
    368241179,
    368241181,
    11032804234,
    368241182,
    11032804235,
    368241179
  ],
  "tags": {
    "landuse": "cemetery",
    "name": "Friedhof Steinfurt"
  }
},
{
  "type": "way",
  "id": 32913561,
  "center": {
    "lat": 50.5850449,
    "lon": 9.2679725
  },
  "nodes": [
    370662882,
    370662886,
    370662891,
    370662895,
    370662882
  ],
  "tags": {
    "landuse": "cemetery",
    "name": "Friedhof Engelrod"
  }
},
{
  "type": "way",
  "id": 32915779,
  "center": {
    "lat": 50.5864971,
    "lon": 9.3083736
  },
  "nodes": [
    370685782,
    1852180388,
    370685784,
    370685785,
    370685786,
    12540924205,
    370685782
  ],
  "tags": {
    "landuse": "cemetery",
    "name": "Friedhof Hopfmannsfeld"
  }
},
{
  "type": "way",
  "id": 32943199,
  "center": {
    "lat": 50.5836260,
    "lon": 9.2887255
  },
  "nodes": [
    370955635,
    370955636,
    370955637,
    370955638,
    370955639,
    370955635
  ],
  "tags": {
    "landuse": "cemetery",
    "name": "Friedhof Hörgenau"
  }
},
{
  "type": "way",
  "id": 33070732,
  "center": {
    "lat": 50.2471364,
    "lon": 9.9248456
  },
  "nodes": [
    373097247,
    1577886274,
    373097248,
    373097249,
    1577886262,
    1577886260,
    373097250,
    373097247
  ],
  "tags": {
    "landuse": "cemetery",
    "religion": "christian"
  }
},
{
  "type": "way",
  "id": 33073782,
  "center": {
    "lat": 50.7834118,
    "lon": 9.2945200
  },
  "nodes": [
    373127884,
    373127885,
    373127887,
    373127888,
    373127884
  ],
  "tags": {
    "amenity": "grave_yard",
    "denomination": "lutheran",
    "name": "Freiherren von Rotsmann",
    "religion": "christian"
  }
},
{
  "type": "way",
  "id": 33082192,
  "center": {
    "lat": 50.7938478,
    "lon": 9.3106111
  },
  "nodes": [
    373319365,
    373319371,
    373319376,
    373319381,
    373319384,
    373319389,
    373319393,
    373319397,
    373319400,
    373319404,
    373319409,
    373319413,
    373319365
  ],
  "tags": {
    "landuse": "cemetery",
    "name": "Friedhof Hattendorf"
  }
},
{
  "type": "way",
  "id": 33098585,
  "center": {
    "lat": 50.8137495,
    "lon": 9.8916162
  },
  "nodes": [
    373468698,
    13049762651,
    13049762646,
    373468703,
    373468707,
    373468715,
    11952719156,
    11952719155,
    373468725,
    373468728,
    11952719149,
    373468731,
    13049762676,
    373468698
  ],
  "tags": {
    "landuse": "cemetery",
    "name": "Friedhof Wehrshausen"
  }
},
{
  "type": "way",
  "id": 33185142,
  "center": {
    "lat": 50.8289789,
    "lon": 9.9121683
  },
  "nodes": [
    375998326,
    13054581706,
    13054581708,
    13054581707,
    375999263,
    13128900829,
    13054581709,
    13128900831,
    375999296,
    13128900830,
    13054581711,
    375999312,
    375998326
  ],
  "tags": {
    "landuse": "cemetery",
    "loc_name": "Alter Friedhof"
  }
},
{
  "type": "way",
  "id": 33283579,
  "center": {
    "lat": 50.5643775,
    "lon": 9.1031867
  },
  "nodes": [
    378207009,
    1995751064,
    378207015,
    1995751041,
    378207021,
    378207034,
    1995751053,
    1995751069,
    378207009
  ],
  "tags": {
    "landuse": "cemetery",
    "name": "Friedhof Altenhain"
  }
},
{
  "type": "way",
  "id": 33330849,
  "center": {
    "lat": 50.6332775,
    "lon": 9.3278215
  },
  "nodes": [
    379079493,
    379079497,
    1799744998,
    379079501,
    379079504,
    379079493
  ],
  "tags": {
    "landuse": "cemetery",
    "name": "Friedhof Allmenrod"
  }
},
{
  "type": "way",
  "id": 33332423,
  "center": {
    "lat": 50.6086213,
    "lon": 9.3014528
  },
  "nodes": [
    379122202,
    379122203,
    379122204,
    1445048950,
    379122205,
    1445041511,
    379122199,
    379122198,
    379122197,
    379122206,
    379122207,
    379122202
  ],
  "tags": {
    "landuse": "cemetery",
    "name": "Friedhof Dirlammen"
  }
},
{
  "type": "way",
  "id": 33361013,
  "center": {
    "lat": 50.8486757,
    "lon": 9.1927514
  },
  "nodes": [
    379582270,
    3228653838,
    379582275,
    3228837279,
    379582281,
    3228837248,
    3228837302,
    379582284,
    379582270
  ],
  "tags": {
    "landuse": "cemetery"
  }
},
{
  "type": "way",
  "id": 33429357,
  "center": {
    "lat": 50.0069858,
    "lon": 9.5917147
  },
  "nodes": [
    380400476,
    380400477,
    7809951227,
    380400475,
    380400474,
    7809951228,
    380400476
  ],
  "tags": {
    "denomination": "catholic",
    "landuse": "cemetery",
    "name": "Friedhof Sackenbach",
    "religion": "christian"
  }
},
{
  "type": "way",
  "id": 33528502,
  "center": {
    "lat": 50.1566303,
    "lon": 9.1447346
  },
  "nodes": [
    382420419,
    382420429,
    382420425,
    1700948969,
    382420421,
    382420419
  ],
  "tags": {
    "landuse": "cemetery",
    "religion": "christian"
  }
},
{
  "type": "way",
  "id": 33528503,
  "center": {
    "lat": 50.1568325,
    "lon": 9.1458098
  },
  "nodes": [
    382420441,
    1713344266,
    382420456,
    382420433,
    381171238,
    382420255,
    382420259,
    382420447,
    382420263,
    382420441
  ],
  "tags": {
    "landuse": "cemetery",
    "name": "Friedhof Bernbach",
    "religion": "christian"
  }
},
{
  "type": "way",
  "id": 33576637,
  "center": {
    "lat": 50.5252226,
    "lon": 9.3330583
  },
  "nodes": [
    383643078,
    383643081,
    383643084,
    383643087,
    383643078
  ],
  "tags": {
    "landuse": "cemetery",
    "name": "Friedhof Ilbeshausen"
  }
},
{
  "type": "way",
  "id": 33650774,
  "center": {
    "lat": 50.7234432,
    "lon": 9.4268551
  },
  "nodes": [
    384951482,
    1267295660,
    384951483,
    384951484,
    1261275943,
    1261275886,
    1261276062,
    384951485,
    384951486,
    384951482
  ],
  "tags": {
    "landuse": "cemetery",
    "name": "Friedhof Schwarz"
  }
},
{
  "type": "way",
  "id": 33652073,
  "center": {
    "lat": 50.3377557,
    "lon": 9.2576304
  },
  "nodes": [
    384967548,
    1818826738,
    354966505,
    354966524,
    384967551,
    384967555,
    2583434333,
    2583434332,
    384967548
  ],
  "tags": {
    "barrier": "hedge",
    "landuse": "cemetery",
    "name": "Friedhof Helfersdorf"
  }
},
{
  "type": "way",
  "id": 33716249,
  "center": {
    "lat": 50.3477751,
    "lon": 9.2771231
  },
  "nodes": [
    385511611,
    385511628,
    1819192521,
    1819192525,
    385511615,
    385511621,
    385511634,
    385511611
  ],
  "tags": {
    "landuse": "cemetery",
    "name": "Friedhof Hettersroth",
    "religion": "christian"
  }
},
{
  "type": "way",
  "id": 33728847,
  "center": {
    "lat": 50.4724268,
    "lon": 9.2723788
  },
  "nodes": [
    385666541,
    8828763484,
    1984995705,
    385666542,
    385666543,
    1984995797,
    385666544,
    385666541
  ],
  "tags": {
    "landuse": "cemetery"
  }
},
{
  "type": "way",
  "id": 33911548,
  "center": {
    "lat": 50.5199109,
    "lon": 9.4969706
  },
  "nodes": [
    388541393,
    388541394,
    388541395,
    388541396,
    388541397,
    388541398,
    388541393
  ],
  "tags": {
    "landuse": "cemetery",
    "name": "Friedhof Schletzenhausen"
  }
},
{
  "type": "way",
  "id": 33911838,
  "center": {
    "lat": 50.5057089,
    "lon": 9.4741965
  },
  "nodes": [
    388550624,
    388550631,
    388550649,
    388550657,
    1039699594,
    1039698882,
    1039698051,
    388550624
  ],
  "tags": {
    "landuse": "cemetery",
    "name": "Friedhof Hosenfeld"
  }
},
{
  "type": "way",
  "id": 34012700,
  "center": {
    "lat": 50.1112430,
    "lon": 9.4375064
  },
  "nodes": [
    389689174,
    1970089884,
    1969771163,
    389689176,
    389689177,
    1969771234,
    389689178,
    1969771245,
    389689179,
    1089333369,
    1970206567,
    1970206544,
    389689174
  ],
  "tags": {
    "landuse": "cemetery",
    "name": "Friedhof Kempfenbrunn"
  }
},
{
  "type": "way",
  "id": 34026317,
  "center": {
    "lat": 50.5968505,
    "lon": 9.5919521
  },
  "nodes": [
    389943689,
    389943690,
    389943691,
    389943692,
    3578105218,
    389943689
  ],
  "tags": {
    "landuse": "cemetery"
  }
},
{
  "type": "way",
  "id": 34140297,
  "center": {
    "lat": 50.7062294,
    "lon": 9.9271644
  },
  "nodes": [
    391466474,
    391466477,
    391466478,
    391466475,
    391466474
  ],
  "tags": {
    "denomination": "catholic",
    "landuse": "cemetery",
    "name": "Gemeindefriedhof",
    "religion": "christian"
  }
},
{
  "type": "way",
  "id": 34175551,
  "center": {
    "lat": 50.6784950,
    "lon": 9.9646384
  },
  "nodes": [
    392054630,
    2952441407,
    392054632,
    392054612,
    2952441405,
    2952441403,
    2952441400,
    2952441402,
    392054633,
    2952441404,
    392054631,
    392054630
  ],
  "tags": {
    "denomination": "catholic",
    "landuse": "cemetery",
    "religion": "christian",
    "wikidata": "Q130717894"
  }
},
{
  "type": "way",
  "id": 34258564,
  "center": {
    "lat": 50.7138798,
    "lon": 9.2428665
  },
  "nodes": [
    392905165,
    392905172,
    1795802864,
    392905176,
    392905177,
    392905165
  ],
  "tags": {
    "landuse": "cemetery",
    "name": "Friedhof Liederbach"
  }
},
{
  "type": "way",
  "id": 34259294,
  "center": {
    "lat": 50.6891313,
    "lon": 9.2458276
  },
  "nodes": [
    392914045,
    1306092532,
    392914046,
    2592039561,
    392914047,
    392914048,
    2592039564,
    392914045
  ],
  "tags": {
    "landuse": "cemetery",
    "name": "Friedhof Strebendorf"
  }
},
{
  "type": "way",
  "id": 34262110,
  "center": {
    "lat": 50.6505414,
    "lon": 9.2657413
  },
  "nodes": [
    392950989,
    392950990,
    3112813875,
    392950991,
    3112813898,
    392950992,
    3112813888,
    3112813882,
    1278518236,
    1278518235,
    3112813866,
    3112813865,
    392950995,
    3112813864,
    392950989
  ],
  "tags": {
    "landuse": "cemetery",
    "name": "Friedhof Storndorf"
  }
},
{
  "type": "way",
  "id": 34387016,
  "center": {
    "lat": 50.6846202,
    "lon": 9.0349104
  },
  "nodes": [
    394807758,
    394807759,
    394807761,
    394807762,
    394807764,
    394807765,
    507645949,
    394807758
  ],
  "tags": {
    "barrier": "wall",
    "landuse": "cemetery",
    "name": "Friedhof Burg-Gemünden"
  }
},
{
  "type": "way",
  "id": 34410633,
  "center": {
    "lat": 50.8812463,
    "lon": 9.2466922
  },
  "nodes": [
    395246089,
    395246092,
    3294881613,
    395246094,
    395246091,
    3294881638,
    395246089
  ],
  "tags": {
    "landuse": "cemetery",
    "religion": "christian"
  }
},
{
  "type": "way",
  "id": 34410634,
  "center": {
    "lat": 50.8827895,
    "lon": 9.2494530
  },
  "nodes": [
    395246096,
    395246098,
    3294883984,
    3294883981,
    3294883977,
    3294883971,
    395246099,
    9901201523,
    3240246711,
    1072626130,
    395246097,
    395246096
  ],
  "tags": {
    "landuse": "cemetery",
    "name": "Friedhof Loshausen"
  }
},
{
  "type": "way",
  "id": 34565167,
  "center": {
    "lat": 50.6691402,
    "lon": 9.3230324
  },
  "nodes": [
    401267916,
    10730001835,
    10730001828,
    10730001827,
    10730001824,
    401267917,
    10730001840,
    401267918,
    401267919,
    401267916
  ],
  "tags": {
    "landuse": "cemetery",
    "name": "Friedhof Wallenrod"
  }
},
{
  "type": "way",
  "id": 34639308,
  "center": {
    "lat": 50.3265018,
    "lon": 9.0176234
  },
  "nodes": [
    402918057,
    1871803172,
    402918060,
    1871803048,
    1871802989,
    402918061,
    1871802972,
    1871802943,
    1871803013,
    402918058,
    7473993041,
    402918057
  ],
  "tags": {
    "landuse": "cemetery",
    "name": "Friedhof Stockheim"
  }
},
{
  "type": "way",
  "id": 34654249,
  "center": {
    "lat": 50.7066021,
    "lon": 9.1162619
  },
  "nodes": [
    403150726,
    403150743,
    1276821924,
    1276821129,
    403150753,
    403150761,
    403150726
  ],
  "tags": {
    "landuse": "cemetery",
    "name": "Friedhof Ehringshausen",
    "wikidata": "Q116519456"
  }
},
{
  "type": "way",
  "id": 34663101,
  "center": {
    "lat": 50.7061461,
    "lon": 9.0873362
  },
  "nodes": [
    403296739,
    403296742,
    1276821843,
    403296746,
    403296750,
    403296739
  ],
  "tags": {
    "landuse": "cemetery",
    "name": "Friedhof Rülfenrod"
  }
},
{
  "type": "way",
  "id": 34921804,
  "center": {
    "lat": 50.5194322,
    "lon": 9.3677912
  },
  "nodes": [
    409743170,
    409743171,
    409743172,
    409743173,
    409743170
  ],
  "tags": {
    "landuse": "cemetery",
    "name": "Friedhof Nösberts-Weidmoos"
  }
},
{
  "type": "way",
  "id": 34921805,
  "center": {
    "lat": 50.5218736,
    "lon": 9.3749715
  },
  "nodes": [
    409743174,
    409743175,
    409743176,
    409743177,
    409743174
  ],
  "tags": {
    "landuse": "cemetery"
  }
},
{
  "type": "way",
  "id": 34962826,
  "center": {
    "lat": 50.6797914,
    "lon": 9.4276283
  },
  "nodes": [
    410298685,
    410298686,
    410298687,
    410298688,
    410298685
  ],
  "tags": {
    "landuse": "cemetery",
    "name": "Friedhof Wernges"
  }
},
{
  "type": "way",
  "id": 34990541,
  "center": {
    "lat": 50.2503634,
    "lon": 9.3237695
  },
  "nodes": [
    410414330,
    410414331,
    410414332,
    410414333,
    2153296768,
    1749553826,
    410414334,
    1751711299,
    1739972526,
    1749057551,
    1749553846,
    410414335,
    1749057550,
    1749057545,
    1749057547,
    410414336,
    1749553804,
    1749057514,
    1749057511,
    1749057503,
    410414330
  ],
  "tags": {
    "landuse": "cemetery",
    "name": "Friedhof Aufenau"
  }
},
{
  "type": "way",
  "id": 35104145,
  "center": {
    "lat": 50.9956880,
    "lon": 9.1423584
  },
  "nodes": [
    411826056,
    5878784074,
    5878784075,
    411826064,
    411826062,
    411826061,
    411826060,
    411826059,
    436364981,
    411826057,
    411826056
  ],
  "tags": {
    "landuse": "cemetery",
    "name": "Friedhof Jesberg"
  }
},
{
  "type": "way",
  "id": 35178551,
  "center": {
    "lat": 50.6651806,
    "lon": 9.2725552
  },
  "nodes": [
    412637849,
    412637850,
    412637851,
    2971278632,
    2971289433,
    2971278627,
    412637852,
    2971289435,
    2971289437,
    412637849
  ],
  "tags": {
    "landuse": "cemetery",
    "name": "Friedhof Vadenrod"
  }
},
{
  "type": "way",
  "id": 35276762,
  "center": {
    "lat": 50.5382325,
    "lon": 9.3009658
  },
  "nodes": [
    413512503,
    2936036110,
    413512506,
    2936036005,
    413512508,
    2936036215,
    2936030385,
    2936036212,
    413512511,
    2936036004,
    413512503
  ],
  "tags": {
    "landuse": "cemetery",
    "name": "Friedhof Lanzenhain"
  }
},
{
  "type": "way",
  "id": 35281143,
  "center": {
    "lat": 50.5374463,
    "lon": 9.3907713
  },
  "nodes": [
    413558234,
    1828009455,
    413558235,
    1828009472,
    413558236,
    413558237,
    413558234
  ],
  "tags": {
    "landuse": "cemetery",
    "name": "Friedhof Altenschlirf"
  }
},
{
  "type": "way",
  "id": 35288024,
  "center": {
    "lat": 50.4199528,
    "lon": 9.0411272
  },
  "nodes": [
    413667805,
    413667810,
    2099877499,
    413667807,
    413667805
  ],
  "tags": {
    "landuse": "cemetery",
    "name": "Friedhof Michelnau",
    "source": "extrapolation"
  }
},
{
  "type": "way",
  "id": 35558853,
  "center": {
    "lat": 50.6875352,
    "lon": 9.5759725
  },
  "nodes": [
    416672434,
    416672436,
    416672437,
    416672438,
    416672434
  ],
  "tags": {
    "landuse": "cemetery",
    "name": "Friedhof Hutzdorf"
  }
},
{
  "type": "way",
  "id": 35830885,
  "center": {
    "lat": 50.6604669,
    "lon": 9.5971863
  },
  "nodes": [
    418906838,
    418906844,
    418906848,
    418906852,
    418906838
  ],
  "tags": {
    "landuse": "cemetery",
    "name": "Friedhof Pfordt"
  }
},
{
  "type": "way",
  "id": 35835068,
  "center": {
    "lat": 50.2459080,
    "lon": 9.6250504
  },
  "nodes": [
    418975415,
    418975434,
    418975416,
    418975417,
    418975418,
    419207035,
    418975419,
    418975420,
    418975421,
    418975430,
    418975431,
    418975422,
    4698565115,
    418975423,
    418975424,
    4460747413,
    418975426,
    418975427,
    418975428,
    418975429,
    419207038,
    418975415
  ],
  "tags": {
    "landuse": "cemetery",
    "name": "Jüdischer Friedhof Altengronau",
    "religion": "jewish",
    "wikidata": "Q1716633"
  }
},
{
  "type": "way",
  "id": 35877183,
  "center": {
    "lat": 50.7157584,
    "lon": 9.5765492
  },
  "nodes": [
    419315700,
    12524577576,
    12524577577,
    12524577578,
    419315701,
    12524577579,
    419315702,
    12524577575,
    12524577574,
    419315703,
    419315700
  ],
  "tags": {
    "landuse": "cemetery",
    "name": "Friedhof Queck"
  }
},
{
  "type": "way",
  "id": 35881707,
  "center": {
    "lat": 50.6819543,
    "lon": 9.5544107
  },
  "nodes": [
    419357845,
    3803936810,
    3803936809,
    419357846,
    419357847,
    419357848,
    419357845
  ],
  "tags": {
    "barrier": "wall",
    "denomination": "jewish",
    "landuse": "cemetery",
    "name": "Jüdischer Friedhof",
    "religion": "jewish",
    "start_date": "1899",
    "website": "http://www.alemannia-judaica.de/schlitz_friedhof.htm",
    "wikidata": "Q116519821"
  }
},
{
  "type": "way",
  "id": 35914289,
  "center": {
    "lat": 50.0493595,
    "lon": 9.0081346
  },
  "nodes": [
    567072756,
    567072733,
    1042907071,
    419822037,
    567072756
  ],
  "tags": {
    "amenity": "grave_yard",
    "landuse": "cemetery",
    "name": "Alter Friedhof"
  }
},
{
  "type": "way",
  "id": 36286095,
  "center": {
    "lat": 50.6825454,
    "lon": 9.3021229
  },
  "nodes": [
    423348023,
    423348028,
    423348033,
    423348038,
    423348043,
    423348047,
    423348023
  ],
  "tags": {
    "landuse": "cemetery",
    "name": "Friedhof Ober-Sorg"
  }
},
{
  "type": "way",
  "id": 36957055,
  "center": {
    "lat": 50.5572266,
    "lon": 9.6727659
  },
  "nodes": [
    429719099,
    429732001,
    429719101,
    429719102,
    429732002,
    429731999,
    429731989,
    429732004,
    2791602456,
    429719099
  ],
  "tags": {
    "barrier": "wall",
    "contact:website": "http://www.fulda.de/buergerservice/stadt-der-gaerten-des-gruens/gruenanlagen.html",
    "denomination": "catholic",
    "landuse": "cemetery",
    "name": "Alter Dompfarrlicher Friedhof",
    "religion": "christian",
    "wikidata": "Q106147999"
  }
},
{
  "type": "way",
  "id": 36976381,
  "center": {
    "lat": 50.6846492,
    "lon": 9.4708883
  },
  "nodes": [
    429962376,
    429962378,
    429962379,
    429962382,
    429962384,
    429962376
  ],
  "tags": {
    "landuse": "cemetery",
    "name": "Friedhof Willofs"
  }
},
{
  "type": "way",
  "id": 37013711,
  "center": {
    "lat": 50.5613613,
    "lon": 9.6701875
  },
  "nodes": [
    430465783,
    430465784,
    12479032330,
    430465786,
    430465779,
    5983330191,
    430465778,
    430465789,
    430465790,
    430465791,
    430465794,
    430465795,
    430465796,
    430465783
  ],
  "tags": {
    "addr:city": "Fulda",
    "addr:postcode": "36039",
    "addr:street": "Klosterweg",
    "denomination": "catholic",
    "landuse": "cemetery",
    "name": "Klosterfriedhof Frauenberg",
    "religion": "christian"
  }
},
{
  "type": "way",
  "id": 37014615,
  "center": {
    "lat": 50.5640305,
    "lon": 9.6703305
  },
  "nodes": [
    430486352,
    5573419148,
    430676418,
    430676419,
    10207980709,
    430676415,
    10207980708,
    430676421,
    430676424,
    430676426,
    431433210,
    431433208,
    431159328,
    431159340,
    431159341,
    430676425,
    3873684432,
    3873684412,
    430676422,
    430676500,
    2562520947,
    431159197,
    3873684403,
    430676433,
    3900610160,
    430676371,
    430676372,
    430676374,
    430676396,
    3873684449,
    430676400,
    430486353,
    430486354,
    430486355,
    430465860,
    430486356,
    430486357,
    430486358,
    430486359,
    430486360,
    430676416,
    431159449,
    431159459,
    430676417,
    5573419149,
    430486352
  ],
  "tags": {
    "landuse": "cemetery",
    "name": "Friedhof Frauenberg",
    "wikidata": "Q63479662"
  }
},
{
  "type": "way",
  "id": 37024618,
  "center": {
    "lat": 50.2569742,
    "lon": 9.2866102
  },
  "nodes": [
    430600326,
    1736442008,
    1736442028,
    1736442032,
    1736442035,
    1736442039,
    430600329,
    1736442075,
    1736442076,
    1736442086,
    1736604874,
    1736604869,
    1736604898,
    1736604909,
    430600330,
    1736442153,
    1736442162,
    1736442182,
    1736442152,
    1736442154,
    1736442136,
    1736442046,
    1736442051,
    1736442038,
    1736442030,
    430600328,
    1736442000,
    430600326
  ],
  "tags": {
    "landuse": "cemetery",
    "name": "Alter Friedhof",
    "source": "extrapolated"
  }
},
{
  "type": "way",
  "id": 37024620,
  "center": {
    "lat": 50.2575655,
    "lon": 9.2833063
  },
  "nodes": [
    430600331,
    1736442042,
    1310957087,
    1310957088,
    430600334,
    1736442384,
    1736442388,
    1736442468,
    1310957086,
    1310957085,
    430600335,
    1736442302,
    430600332,
    1736604729,
    430600331
  ],
  "tags": {
    "landuse": "cemetery",
    "name": "Friedhof Wächtersbach",
    "religion": "christian",
    "source": "extrapolated"
  }
},
{
  "type": "way",
  "id": 37278755,
  "center": {
    "lat": 50.6248940,
    "lon": 9.0824029
  },
  "nodes": [
    7132766378,
    7132766379,
    1228951260,
    7132766377,
    1228951259,
    434351485,
    7132766440,
    434351486,
    7132766439,
    7132766437,
    7132766436,
    7132766438,
    7132766435,
    7132766378
  ],
  "tags": {
    "landuse": "cemetery",
    "name": "Friedhof Ruppertenrod"
  }
},
{
  "type": "way",
  "id": 37563235,
  "center": {
    "lat": 50.1381909,
    "lon": 9.0652958
  },
  "nodes": [
    440136239,
    440136240,
    2448329493,
    434024176,
    440136241,
    2448329485,
    2448329486,
    440136242,
    2449736354,
    440136243,
    440136244,
    440136245,
    440136246,
    440136247,
    440136239
  ],
  "tags": {
    "landuse": "cemetery",
    "name": "Friedhof Oberrodenbach"
  }
},
{
  "type": "way",
  "id": 37571134,
  "center": {
    "lat": 50.5018412,
    "lon": 9.5738671
  },
  "nodes": [
    440284068,
    440284079,
    2503035659,
    440284080,
    2503035667,
    440284068
  ],
  "tags": {
    "landuse": "cemetery",
    "name": "Friedhof Giesel",
    "wikidata": "Q67450440"
  }
},
{
  "type": "way",
  "id": 37766745,
  "center": {
    "lat": 50.6544220,
    "lon": 9.2046427
  },
  "nodes": [
    443014597,
    1302948791,
    443014609,
    1302950346,
    443014616,
    443014621,
    443014625,
    443014597
  ],
  "tags": {
    "landuse": "cemetery",
    "name": "Friedhof Windhausen"
  }
},
{
  "type": "way",
  "id": 37769759,
  "center": {
    "lat": 50.5864929,
    "lon": 9.6320658
  },
  "nodes": [
    443056402,
    12607969226,
    12607969227,
    12607969228,
    3578105112,
    3578105104,
    443056403,
    443056404,
    12607969354,
    443056405,
    443056402
  ],
  "tags": {
    "landuse": "cemetery",
    "name": "Friedhof Trätzhof",
    "note": "improve me"
  }
},
{
  "type": "way",
  "id": 37773277,
  "center": {
    "lat": 50.6063331,
    "lon": 9.6397084
  },
  "nodes": [
    443112709,
    12593842707,
    12593842708,
    12593842709,
    443112715,
    443112723,
    443112726,
    443112732,
    443112734,
    12593842713,
    12593842712,
    12593842711,
    12593842710,
    443112709
  ],
  "tags": {
    "landuse": "cemetery",
    "name": "Friedhof Kämmerzell",
    "note": "improve me"
  }
},
{
  "type": "way",
  "id": 37813126,
  "center": {
    "lat": 50.0590338,
    "lon": 9.4053967
  },
  "nodes": [
    443523548,
    444619238,
    443523551,
    443523553,
    443523554,
    443523555,
    443523556,
    444619236,
    444619234,
    444619231,
    444619229,
    444619282,
    443523557,
    443523559,
    443523548
  ],
  "tags": {
    "addr:city": "Frammersbach",
    "addr:postcode": "97833",
    "addr:street": "Falterweg",
    "addr:suburb": "Habichsthal",
    "denomination": "catholic",
    "landuse": "cemetery",
    "name": "Friedhof Habichsthal",
    "religion": "christian"
  }
},
{
  "type": "way",
  "id": 38283856,
  "center": {
    "lat": 50.8210899,
    "lon": 9.8426993
  },
  "nodes": [
    451719272,
    451719273,
    451719279,
    451719281,
    451719283,
    451719286,
    451719288,
    451719291,
    451719293,
    6340614195,
    6340614194,
    451719295,
    451719272
  ],
  "tags": {
    "landuse": "cemetery",
    "name": "Friedhof Schenklengsfeld"
  }
},
{
  "type": "way",
  "id": 38283857,
  "center": {
    "lat": 50.8153556,
    "lon": 9.8524142
  },
  "nodes": [
    451719308,
    451719310,
    451719313,
    451719316,
    451719319,
    451719308
  ],
  "tags": {
    "landuse": "cemetery",
    "name": "Jüdischer Friedhof Schenklengsfeld",
    "religion": "jewish",
    "wikidata": "Q110154092"
  }
},
{
  "type": "way",
  "id": 38506537,
  "center": {
    "lat": 50.5732399,
    "lon": 9.2969800
  },
  "nodes": [
    455567253,
    455567254,
    12534789611,
    455567255,
    12534789612,
    12534789610,
    455567256,
    455567253
  ],
  "tags": {
    "landuse": "cemetery",
    "name": "Friedhof Eichenrod"
  }
},
{
  "type": "way",
  "id": 38507232,
  "center": {
    "lat": 50.5719819,
    "lon": 9.2776838
  },
  "nodes": [
    455576850,
    455576851,
    455576852,
    455576853,
    455576850
  ],
  "tags": {
    "landuse": "cemetery",
    "name": "Friedhof Eichelhain"
  }
},
{
  "type": "way",
  "id": 38508875,
  "center": {
    "lat": 50.5683084,
    "lon": 9.2438865
  },
  "nodes": [
    455609716,
    2106282526,
    1241523116,
    1241522745,
    455609738,
    2106282542,
    455609716
  ],
  "tags": {
    "landuse": "cemetery",
    "name": "Friedhof Rebgeshain"
  }
},
{
  "type": "way",
  "id": 38578504,
  "center": {
    "lat": 50.7066349,
    "lon": 9.9454279
  },
  "nodes": [
    456963113,
    10304980048,
    10304980046,
    10304980047,
    10304980045,
    456963115,
    456963116,
    456963117,
    4373997101,
    456963113
  ],
  "tags": {
    "landuse": "cemetery",
    "name": "Jüdischer Friedhof",
    "religion": "jewish",
    "source": "geschätzt",
    "wikidata": "Q61883182"
  }
},
{
  "type": "way",
  "id": 38581743,
  "center": {
    "lat": 50.6584704,
    "lon": 9.9140581
  },
  "nodes": [
    457012787,
    457012798,
    457012788,
    457012789,
    457012790,
    1057448801,
    457012791,
    457012793,
    3514751753,
    457012795,
    457012787
  ],
  "tags": {
    "denomination": "catholic",
    "landuse": "cemetery",
    "name": "Friedhof Spahl",
    "note:de": "Lage in etwa",
    "religion": "christian",
    "wikidata": "Q113550827"
  }
},
{
  "type": "way",
  "id": 38608620,
  "center": {
    "lat": 50.7296042,
    "lon": 9.5736796
  },
  "nodes": [
    457316583,
    457316584,
    457316585,
    457316586,
    12519412920,
    12519412919,
    12519412918,
    457316583
  ],
  "tags": {
    "landuse": "cemetery",
    "name": "Friedhof Rimbach"
  }
},
{
  "type": "way",
  "id": 38610313,
  "center": {
    "lat": 50.7470683,
    "lon": 9.5774279
  },
  "nodes": [
    457334755,
    4512218895,
    457334756,
    4512218894,
    12509870301,
    12509870300,
    12509870299,
    4512218893,
    4512218892,
    4512218891,
    4512218890,
    12509870298,
    4512218889,
    12509870297,
    457334757,
    457334758,
    457334755
  ],
  "tags": {
    "landuse": "cemetery",
    "name": "Friedhof Ober-Wegfurth",
    "note": "improve me"
  }
},
{
  "type": "way",
  "id": 38703080,
  "center": {
    "lat": 50.6132951,
    "lon": 9.2598012
  },
  "nodes": [
    458721819,
    458721820,
    9084407335,
    9084407336,
    458721821,
    458721822,
    9084407337,
    9084407338,
    9084407339,
    458721823,
    9084407340,
    458721824,
    9084395013,
    458721825,
    458721826,
    2092722307,
    458721819
  ],
  "tags": {
    "barrier": "wall",
    "landuse": "cemetery"
  }
},
{
  "type": "way",
  "id": 39022848,
  "center": {
    "lat": 50.4328078,
    "lon": 9.5869580
  },
  "nodes": [
    465236631,
    465236633,
    465236634,
    465236632,
    465236631
  ],
  "tags": {
    "landuse": "cemetery",
    "name": "Jüdischer Friedhof Flieden/Neuhof",
    "religion": "jewish"
  }
},
{
  "type": "way",
  "id": 39172533,
  "center": {
    "lat": 50.3436113,
    "lon": 9.0075111
  },
  "nodes": [
    469225131,
    469225133,
    469225135,
    469225141,
    1827963508,
    1827862679,
    469225131
  ],
  "tags": {
    "landuse": "cemetery",
    "name": "Friedhof Effolderbach",
    "religion": "christian"
  }
},
{
  "type": "way",
  "id": 39825411,
  "center": {
    "lat": 50.9578828,
    "lon": 9.9535659
  },
  "nodes": [
    477409571,
    477409574,
    11795942595,
    11795942594,
    477409576,
    477409579,
    477409571
  ],
  "tags": {
    "amenity": "grave_yard",
    "description": "Historischer Friedhof von Schloss Blumenstein",
    "image": "https://commons.wikimedia.org/wiki/File:Schloss_Blumenstein_Friedhof.jpg",
    "religion": "christian"
  }
},
{
  "type": "way",
  "id": 40131108,
  "center": {
    "lat": 50.3609043,
    "lon": 9.5541472
  },
  "nodes": [
    482987582,
    482987583,
    482987585,
    482987586,
    482987582
  ],
  "tags": {
    "landuse": "cemetery",
    "religion": "christian"
  }
},
{
  "type": "way",
  "id": 40131111,
  "center": {
    "lat": 50.3614248,
    "lon": 9.5541103
  },
  "nodes": [
    482987596,
    482987597,
    3508181753,
    3508181755,
    2194160454,
    12957257470,
    12957257469,
    482987599,
    482987600,
    482987596
  ],
  "tags": {
    "landuse": "cemetery",
    "name": "Friedhof Elm"
  }
},
{
  "type": "way",
  "id": 40235707,
  "center": {
    "lat": 50.1626274,
    "lon": 9.1804118
  },
  "nodes": [
    1720831570,
    1720831547,
    1720831529,
    1720831526,
    1720831532,
    1720831531,
    1720831523,
    1720831512,
    1720831507,
    1720831498,
    485093677,
    485093676,
    485093666,
    485093665,
    1720831373,
    485093664,
    1720831385,
    485093662,
    485093659,
    485093657,
    485093656,
    485093654,
    485093648,
    485093645,
    1720831570
  ],
  "tags": {
    "landuse": "cemetery",
    "name": "Friedhof Lützelhausen",
    "religion": "christian",
    "wheelchair": "yes"
  }
},
{
  "type": "way",
  "id": 40432031,
  "center": {
    "lat": 50.0126993,
    "lon": 9.3238452
  },
  "nodes": [
    489458832,
    2139101810,
    489458833,
    2982285509,
    489458835,
    489458837,
    2139101812,
    2139101808,
    489458832
  ],
  "tags": {
    "barrier": "yes",
    "landuse": "cemetery",
    "name": "Friedhof Hain"
  }
},
{
  "type": "way",
  "id": 40448916,
  "center": {
    "lat": 50.3481596,
    "lon": 9.5531769
  },
  "nodes": [
    489870502,
    2106952887,
    489870504,
    489870505,
    2106952881,
    489870506,
    489870502
  ],
  "tags": {
    "landuse": "cemetery",
    "name": "Friedhof Herolz"
  }
},
{
  "type": "way",
  "id": 40501327,
  "center": {
    "lat": 50.2050448,
    "lon": 9.2770482
  },
  "nodes": [
    491031153,
    1790329623,
    491031156,
    1790329556,
    1790329554,
    491031159,
    491031161,
    1790329460,
    1790329546,
    1790329549,
    491031153
  ],
  "tags": {
    "landuse": "cemetery",
    "name": "Alter Friedhof",
    "religion": "christian",
    "wheelchair": "yes"
  }
},
{
  "type": "way",
  "id": 40700296,
  "center": {
    "lat": 50.3348781,
    "lon": 9.6100688
  },
  "nodes": [
    494344749,
    10565137053,
    10565137052,
    494344750,
    494344752,
    10565137051,
    494344753,
    494344749
  ],
  "tags": {
    "landuse": "cemetery",
    "name": "Friedhof Vollmerz"
  }
},
{
  "type": "way",
  "id": 40948394,
  "center": {
    "lat": 50.2943891,
    "lon": 9.6532362
  },
  "nodes": [
    498779205,
    4040773588,
    12776365965,
    498779209,
    12776365849,
    498779213,
    498779242,
    12776365979,
    498779246,
    12776365980,
    12776365981,
    12776365982,
    4040773587,
    498779249,
    498779205
  ],
  "tags": {
    "landuse": "cemetery",
    "name": "Friedhof Mottgers"
  }
},
{
  "type": "way",
  "id": 41075876,
  "center": {
    "lat": 50.8349298,
    "lon": 9.2902492
  },
  "nodes": [
    500849620,
    500849638,
    500849637,
    500849636,
    500849635,
    500849622,
    500849623,
    500849625,
    500849626,
    500849627,
    500849629,
    1328580922,
    500849630,
    500849620
  ],
  "tags": {
    "landuse": "cemetery"
  }
},
{
  "type": "way",
  "id": 41111099,
  "center": {
    "lat": 50.6053348,
    "lon": 9.1448419
  },
  "nodes": [
    501590010,
    2391515518,
    2391515515,
    1251721242,
    7294937609,
    501590018,
    2391515553,
    501590020,
    501590010
  ],
  "tags": {
    "landuse": "cemetery",
    "name": "Friedhof Unter-Seibertenrod"
  }
},
{
  "type": "way",
  "id": 41112820,
  "center": {
    "lat": 50.5783144,
    "lon": 9.1855280
  },
  "nodes": [
    12545655457,
    12545655458,
    12545655459,
    2030980883,
    2030980879,
    2030980869,
    12545655460,
    12545655461,
    12545655462,
    12545655463,
    12545655464,
    12545655465,
    12545655466,
    12545602174,
    12545655467,
    12545655468,
    12545655457
  ],
  "tags": {
    "landuse": "cemetery",
    "name": "Friedhof Ulrichstein",
    "wikidata": "Q116747423"
  }
},
{
  "type": "way",
  "id": 41112823,
  "center": {
    "lat": 50.5752237,
    "lon": 9.1862253
  },
  "nodes": [
    12545602010,
    11495835997,
    11495835998,
    12545602007,
    12545602008,
    12545602009,
    12545602010
  ],
  "tags": {
    "landuse": "cemetery",
    "religion": "jewish",
    "url": "http://www.alemannia-judaica.de/vogelsbergkreis_friedhoefe.htm#Ulrichstein"
  }
},
{
  "type": "way",
  "id": 41124339,
  "center": {
    "lat": 50.2008990,
    "lon": 9.2768048
  },
  "nodes": [
    501843523,
    698842373,
    1790108391,
    1790108393,
    1790108386,
    1790108385,
    501843526,
    1790108359,
    1790108343,
    501843527,
    1790108434,
    501843529,
    501843523
  ],
  "tags": {
    "landuse": "cemetery",
    "name": "Friedhof Kassel"
  }
},
{
  "type": "way",
  "id": 41180058,
  "center": {
    "lat": 50.3728817,
    "lon": 9.6053564
  },
  "nodes": [
    502981180,
    10249941733,
    10249941734,
    10249941735,
    10251829042,
    502981181,
    3814922715,
    10249941738,
    10249941737,
    502981182,
    10249941736,
    502981183,
    502981180
  ],
  "tags": {
    "landuse": "cemetery",
    "name": "Friedhof Hutten"
  }
},
{
  "type": "way",
  "id": 41195582,
  "center": {
    "lat": 50.3050602,
    "lon": 9.4976696
  },
  "nodes": [
    503303173,
    503303174,
    503303176,
    503303177,
    503303178,
    503303180,
    503303173
  ],
  "tags": {
    "landuse": "cemetery",
    "name": "Friedhof Bellings"
  }
},
{
  "type": "way",
  "id": 41246167,
  "center": {
    "lat": 50.5411941,
    "lon": 9.9906499
  },
  "nodes": [
    504018061,
    504018062,
    504018063,
    504018064,
    504018061
  ],
  "tags": {
    "landuse": "cemetery",
    "name": "Friedhof Wickers"
  }
},
{
  "type": "way",
  "id": 41264126,
  "center": {
    "lat": 50.3666178,
    "lon": 9.6289429
  },
  "nodes": [
    504449610,
    2100195874,
    2100195873,
    504449613,
    2100195864,
    2100195865,
    504449614,
    504449616,
    9956479045,
    9956479044,
    2100195876,
    504449610
  ],
  "tags": {
    "landuse": "cemetery",
    "name": "Friedhof Gundhelm"
  }
},
{
  "type": "way",
  "id": 41332135,
  "center": {
    "lat": 50.3884393,
    "lon": 9.6460272
  },
  "nodes": [
    505334965,
    12845244084,
    12845244085,
    505334969,
    12845244086,
    3798932685,
    3798932682,
    12845244087,
    3798932680,
    12845244088,
    3798932677,
    505334970,
    11932776440,
    505334972,
    3798932681,
    505334965
  ],
  "tags": {
    "denomination": "roman_catholic",
    "landuse": "cemetery",
    "name": "Friedhof Veitsteinbach",
    "religion": "christian"
  }
},
{
  "type": "way",
  "id": 41339518,
  "center": {
    "lat": 50.3853593,
    "lon": 9.7186149
  },
  "nodes": [
    505439683,
    10215867094,
    10215867093,
    505439685,
    3811625097,
    3755157964,
    505439689,
    505439691,
    505439683
  ],
  "tags": {
    "landuse": "cemetery",
    "name": "Friedhof Heubach"
  }
},
{
  "type": "way",
  "id": 41339554,
  "center": {
    "lat": 50.3718982,
    "lon": 9.7636214
  },
  "nodes": [
    3846260825,
    3846260781,
    505440263,
    505440268,
    3846260823,
    3846260825
  ],
  "tags": {
    "landuse": "cemetery",
    "religion": "christian"
  }
},
{
  "type": "way",
  "id": 41402728,
  "center": {
    "lat": 50.6793652,
    "lon": 9.3558484
  },
  "nodes": [
    506344854,
    506344855,
    506344856,
    506344857,
    506344854
  ],
  "tags": {
    "landuse": "cemetery",
    "name": "Friedhof Reuters"
  }
},
{
  "type": "way",
  "id": 41480750,
  "center": {
    "lat": 50.6938433,
    "lon": 9.0182463
  },
  "nodes": [
    507646250,
    4704139277,
    507646253,
    4704139279,
    507646255,
    507646258,
    4704139278,
    507646250
  ],
  "tags": {
    "landuse": "cemetery",
    "name": "Friedhof Bleidenrod"
  }
},
{
  "type": "way",
  "id": 41875372,
  "center": {
    "lat": 50.7558327,
    "lon": 9.2648782
  },
  "nodes": [
    517963641,
    517963653,
    517963660,
    1665268643,
    1665268642,
    1665268638,
    517963673,
    544026572,
    517963697,
    517963761,
    517963839,
    1987122685,
    1987122694,
    1987122698,
    1987122696,
    517963958,
    995504293,
    995504292,
    517964089,
    517964266,
    1987122706,
    517964850,
    995504296,
    1987122710,
    517964976,
    517965074,
    1987122722,
    1987122727,
    517963641
  ],
  "tags": {
    "landuse": "cemetery",
    "name": "Friedhof Alsfeld"
  }
},
{
  "type": "way",
  "id": 41875820,
  "center": {
    "lat": 50.7554629,
    "lon": 9.2019490
  },
  "nodes": [
    517969953,
    517969967,
    517969975,
    517969978,
    517969985,
    3782613218,
    3895239861,
    3895239858,
    3782613601,
    3782613217,
    517969993,
    517969953
  ],
  "tags": {
    "landuse": "cemetery",
    "name": "Friedhof Angenrod u. Billertshausen"
  }
},
{
  "type": "way",
  "id": 41979359,
  "center": {
    "lat": 50.1680786,
    "lon": 9.1926043
  },
  "nodes": [
    520371657,
    1742191362,
    1742191359,
    1742191364,
    520371662,
    1742191317,
    1742191294,
    520371660,
    520371659,
    520371657
  ],
  "tags": {
    "landuse": "cemetery",
    "name": "Friedhof Großenhausen",
    "religion": "christian",
    "surface": "asphalt"
  }
},
{
  "type": "way",
  "id": 42019142,
  "center": {
    "lat": 50.9384728,
    "lon": 9.9372543
  },
  "nodes": [
    521246390,
    521246396,
    12236290577,
    12236266175,
    521246397,
    521246401,
    521246402,
    12236290586,
    521246403,
    521246390
  ],
  "tags": {
    "addr:city": "Wildeck",
    "addr:postcode": "36208",
    "addr:suburb": "Hönebach",
    "landuse": "cemetery",
    "name": "Friedhof Hönebach"
  }
},
{
  "type": "way",
  "id": 42138365,
  "center": {
    "lat": 50.9947909,
    "lon": 9.1342785
  },
  "nodes": [
    5876502174,
    524164204,
    524164205,
    524164206,
    524164207,
    5876502173,
    5876502174
  ],
  "tags": {
    "landuse": "cemetery",
    "name": "Jüdischer Friedhof Jesberg",
    "religion": "jewish",
    "wikidata": "Q109119306"
  }
},
{
  "type": "way",
  "id": 42160291,
  "center": {
    "lat": 50.7671096,
    "lon": 9.2940260
  },
  "nodes": [
    524683365,
    8611709856,
    8611709855,
    524683369,
    524683372,
    524683365
  ],
  "tags": {
    "landuse": "cemetery",
    "name": "Friedhof Eudorf"
  }
},
{
  "type": "way",
  "id": 42225955,
  "center": {
    "lat": 50.7580117,
    "lon": 9.2390329
  },
  "nodes": [
    526168329,
    1926803066,
    526168341,
    526168357,
    2916499051,
    526168376,
    526168399,
    526168329
  ],
  "tags": {
    "landuse": "cemetery",
    "name": "Friedhof Leusel"
  }
},
{
  "type": "way",
  "id": 42230112,
  "center": {
    "lat": 50.0524414,
    "lon": 9.6544017
  },
  "nodes": [
    526247873,
    526247872,
    7903193902,
    526247865,
    526247864,
    526247873
  ],
  "tags": {
    "landuse": "cemetery"
  }
},
{
  "type": "way",
  "id": 42262106,
  "center": {
    "lat": 50.8285868,
    "lon": 9.6557133
  },
  "nodes": [
    527025133,
    527025136,
    527025140,
    527025149,
    527025144,
    527025133
  ],
  "tags": {
    "landuse": "cemetery",
    "name": "Friedhof Beiershausen"
  }
},
{
  "type": "way",
  "id": 42285441,
  "center": {
    "lat": 50.2103119,
    "lon": 9.2262404
  },
  "nodes": [
    527527863,
    1725871565,
    1727145158,
    1727145201,
    1725871629,
    1725871632,
    1727005536,
    527527892,
    1725871613,
    527527894,
    527527866,
    1725871518,
    1725871517,
    527527863
  ],
  "tags": {
    "landuse": "cemetery",
    "name": "Friedhof Haitz"
  }
},
{
  "type": "way",
  "id": 42299652,
  "center": {
    "lat": 50.6131572,
    "lon": 9.1801278
  },
  "nodes": [
    527830650,
    11901383436,
    11901383437,
    527830651,
    11901383438,
    527830652,
    527830653,
    527830650
  ],
  "tags": {
    "landuse": "cemetery",
    "name": "Friedhof Stumpertenrod"
  }
},
{
  "type": "way",
  "id": 42492091,
  "center": {
    "lat": 50.5537282,
    "lon": 9.1850735
  },
  "nodes": [
    530668393,
    530668394,
    2038777672,
    530668437,
    530668438,
    2038777762,
    2038777714,
    530668393
  ],
  "tags": {
    "landuse": "cemetery",
    "name": "Friedhof Feldkrücken"
  }
},
{
  "type": "way",
  "id": 42494383,
  "center": {
    "lat": 50.3159560,
    "lon": 9.6185797
  },
  "nodes": [
    530684890,
    530684892,
    530684893,
    530684894,
    8550550778,
    530684896,
    530684890
  ],
  "tags": {
    "landuse": "cemetery",
    "name": "Neuer Friedhof"
  }
},
{
  "type": "way",
  "id": 42616998,
  "center": {
    "lat": 50.5173591,
    "lon": 9.6833255
  },
  "nodes": [
    532432675,
    532429064,
    532430623,
    532430628,
    532430631,
    532432683,
    532432675
  ],
  "tags": {
    "landuse": "cemetery"
  }
},
{
  "type": "way",
  "id": 42761410,
  "center": {
    "lat": 50.4095409,
    "lon": 9.0169087
  },
  "nodes": [
    534703917,
    1927681874,
    1927681786,
    1927681777,
    534703920,
    1487732526,
    1487732533,
    11423005800,
    534703922,
    1927681338,
    534703924,
    1927681401,
    534703926,
    534703927,
    1927681512,
    1824738661,
    1927681510,
    534703930,
    1927681566,
    1927681574,
    534703933,
    534703937,
    1927681587,
    1927681595,
    1927681599,
    1927681637,
    534703938,
    1927681670,
    534703941,
    534703942,
    534703917
  ],
  "tags": {
    "landuse": "cemetery",
    "name": "Friedhof Nidda"
  }
},
{
  "type": "way",
  "id": 42762826,
  "center": {
    "lat": 50.3948198,
    "lon": 9.0173964
  },
  "nodes": [
    534722428,
    1912565236,
    1913360931,
    1913360926,
    1913360921,
    1913360917,
    1912565216,
    534722930,
    534722416,
    1913377225,
    1913377228,
    534722421,
    534723160,
    534722423,
    534722425,
    1912565264,
    1912565269,
    534722428
  ],
  "tags": {
    "landuse": "cemetery",
    "name": "Friedhof Wallernhausen"
  }
},
{
  "type": "way",
  "id": 43052933,
  "center": {
    "lat": 50.9106598,
    "lon": 9.1927490
  },
  "nodes": [
    3831505331,
    3831505330,
    539344531,
    1960928486,
    1960928487,
    1960934921,
    1960928485,
    1960928484,
    3372258407,
    3372258411,
    3372258414,
    3372258416,
    3372258423,
    3372258428,
    305185953,
    5822207115,
    1960928492,
    1960928497,
    1960928503,
    5822207067,
    1091791215,
    1091791120,
    400900093,
    1960928489,
    1960928488,
    539344523,
    3831505331
  ],
  "tags": {
    "landuse": "cemetery",
    "name": "Friedhof Treysa",
    "religion": "christian"
  }
},
{
  "type": "way",
  "id": 43128533,
  "center": {
    "lat": 50.5759456,
    "lon": 9.1896722
  },
  "nodes": [
    540339127,
    540339136,
    540339154,
    540339217,
    540339221,
    434076489,
    540339127
  ],
  "tags": {
    "amenity": "grave_yard",
    "name": "Kriegsgräberstätte"
  }
},
{
  "type": "way",
  "id": 43961261,
  "center": {
    "lat": 50.0839452,
    "lon": 9.0746431
  },
  "nodes": [
    559084652,
    1883111123,
    1883111125,
    1883111120,
    559084650,
    846869357,
    559084674,
    846869393,
    846869377,
    559084677,
    559084652
  ],
  "tags": {
    "landuse": "cemetery",
    "name": "Alter Friedhof"
  }
},
{
  "type": "way",
  "id": 43990849,
  "center": {
    "lat": 50.4801959,
    "lon": 9.4807196
  },
  "nodes": [
    559375846,
    4096566664,
    559375847,
    559375848,
    559375849,
    559375846
  ],
  "tags": {
    "landuse": "cemetery",
    "name": "Friedhof Brandlos",
    "note": "improve me"
  }
},
{
  "type": "way",
  "id": 44803472,
  "center": {
    "lat": 50.7782387,
    "lon": 9.2269709
  },
  "nodes": [
    568085024,
    568085026,
    568085027,
    568085028,
    12556866402,
    568085029,
    568085024
  ],
  "tags": {
    "landuse": "cemetery",
    "name": "Friedhof Vockenrod"
  }
},
{
  "type": "way",
  "id": 44804849,
  "center": {
    "lat": 50.7849746,
    "lon": 9.2567473
  },
  "nodes": [
    568096373,
    568096374,
    568096375,
    568096371,
    568096376,
    568096373
  ],
  "tags": {
    "landuse": "cemetery",
    "name": "Friedhof Schwabenrod",
    "note": "improve me"
  }
},
{
  "type": "way",
  "id": 45568645,
  "center": {
    "lat": 50.4271995,
    "lon": 9.0136065
  },
  "nodes": [
    581058930,
    11421919348,
    11421919347,
    11421919346,
    11421919345,
    11421919344,
    11421919343,
    581058928,
    581058929,
    581058930
  ],
  "tags": {
    "landuse": "cemetery",
    "name": "Friedhof Kohden"
  }
},
{
  "type": "way",
  "id": 45835004,
  "center": {
    "lat": 50.0366890,
    "lon": 9.0387194
  },
  "nodes": [
    583375460,
    2041704162,
    583375461,
    830233184,
    9904924568,
    830233080,
    9904924566,
    9904924567,
    830233047,
    5759100910,
    583375464,
    583375465,
    9898993300,
    9898993301,
    9898993302,
    583375460
  ],
  "tags": {
    "amenity": "grave_yard",
    "landuse": "cemetery",
    "name": "Friedhof Dettingen am Main",
    "religion": "christian"
  }
},
{
  "type": "way",
  "id": 46343156,
  "center": {
    "lat": 50.5151039,
    "lon": 9.1254638
  },
  "nodes": [
    2267612846,
    2267612844,
    2267612841,
    2267612827,
    2267612826,
    2267612829,
    592158845,
    2267612846
  ],
  "tags": {
    "landuse": "cemetery",
    "name": "Friedhof Betzenrod"
  }
},
{
  "type": "way",
  "id": 46343162,
  "center": {
    "lat": 50.5174933,
    "lon": 9.1373188
  },
  "nodes": [
    592158918,
    592158919,
    1956443123,
    592158920,
    852706797,
    592158921,
    1956443174,
    592158918
  ],
  "tags": {
    "landuse": "cemetery",
    "name": "Friedhof Götzen"
  }
},
{
  "type": "way",
  "id": 46347617,
  "center": {
    "lat": 50.6950516,
    "lon": 9.9539256
  },
  "nodes": [
    592347737,
    1073014491,
    1073014401,
    592347739,
    1073014354,
    1073014434,
    1486150689,
    592347741,
    592347723,
    592347743,
    592347725,
    1486150676,
    592347737
  ],
  "tags": {
    "denomination": "catholic",
    "landuse": "cemetery",
    "religion": "christian",
    "wikidata": "Q136378458"
  }
},
{
  "type": "way",
  "id": 46421292,
  "center": {
    "lat": 50.7004268,
    "lon": 9.9915320
  },
  "nodes": [
    593375524,
    593375530,
    593375526,
    593375520,
    11373771924,
    11373771925,
    11373771927,
    11373771923,
    593375522,
    2300120602,
    593375524
  ],
  "tags": {
    "amenity": "grave_yard",
    "denomination": "catholic",
    "landuse": "cemetery",
    "religion": "christian",
    "wikidata": "Q134313103"
  }
},
{
  "type": "way",
  "id": 46522030,
  "center": {
    "lat": 50.6454618,
    "lon": 9.9293515
  },
  "nodes": [
    595193125,
    595193127,
    595193130,
    595193114,
    595193112,
    595193125
  ],
  "tags": {
    "amenity": "grave_yard",
    "denomination": "catholic",
    "landuse": "cemetery",
    "name": "Gemeindefriedhof",
    "religion": "christian"
  }
},
{
  "type": "way",
  "id": 46963058,
  "center": {
    "lat": 50.5818450,
    "lon": 9.6469222
  },
  "nodes": [
    599305073,
    599305074,
    9250997268,
    599305075,
    599305076,
    599305077,
    599305078,
    599305079,
    599305080,
    599305081,
    599305073
  ],
  "tags": {
    "landuse": "cemetery",
    "name": "Friedhof Gläserzell"
  }
},
{
  "type": "way",
  "id": 47109039,
  "center": {
    "lat": 50.6102650,
    "lon": 9.4804030
  },
  "nodes": [
    600664295,
    600664296,
    600664299,
    314200193,
    600495130,
    600664295
  ],
  "tags": {
    "landuse": "cemetery",
    "name": "Friedhof Landenhausen"
  }
},
{
  "type": "way",
  "id": 47193549,
  "center": {
    "lat": 50.7581251,
    "lon": 9.5060610
  },
  "nodes": [
    601445476,
    601445477,
    601445478,
    1266356296,
    1266356591,
    601445479,
    601445480,
    601445476
  ],
  "tags": {
    "landuse": "cemetery",
    "name": "Friedhof Hatterode",
    "source": "extrapolation;gps;bing"
  }
},
{
  "type": "way",
  "id": 47280003,
  "center": {
    "lat": 50.5993102,
    "lon": 9.3870336
  },
  "nodes": [
    602360830,
    602360831,
    602360832,
    602360837,
    602360830
  ],
  "tags": {
    "landuse": "cemetery",
    "name": "Friedhof Schloss Eisenbach"
  }
},
{
  "type": "way",
  "id": 47371494,
  "center": {
    "lat": 50.2384700,
    "lon": 9.1294871
  },
  "nodes": [
    603103654,
    1628964427,
    603103658,
    603103657,
    1628964436,
    603103653,
    11234054444,
    1628964450,
    11234054443,
    603103678,
    11234054438,
    11234054437,
    11234054439,
    11234026836,
    11234054440,
    603103677,
    1628964622,
    603103656,
    603103652,
    603103654
  ],
  "tags": {
    "landuse": "cemetery",
    "name": "Friedhof Hain-Gründau"
  }
},
{
  "type": "way",
  "id": 47853785,
  "center": {
    "lat": 50.6437112,
    "lon": 9.2526681
  },
  "nodes": [
    608615459,
    608615461,
    608615462,
    608615463,
    608615459
  ],
  "tags": {
    "landuse": "cemetery",
    "name": "Judenfriedhof Storndorf",
    "religion": "jewish",
    "source": "local_knowledge",
    "website": "https://www.kulturverein-storndorf.de/index.php/der-kulturraum/juden-in-storndorf.html"
  }
},
{
  "type": "way",
  "id": 47888524,
  "center": {
    "lat": 50.4038165,
    "lon": 9.6862461
  },
  "nodes": [
    609003793,
    609003794,
    609003795,
    12138637427,
    609003796,
    10049720929,
    10049720930,
    10049720931,
    10049720934,
    10049720933,
    10049720932,
    609003793
  ],
  "tags": {
    "addr:city": "Kalbach",
    "addr:postcode": "36148",
    "addr:street": "Uttrichshausener Straße",
    "landuse": "cemetery",
    "name": "Friedhof Oberkalbach",
    "religion": "christian"
  }
},
{
  "type": "way",
  "id": 49753651,
  "center": {
    "lat": 50.6551089,
    "lon": 9.4346078
  },
  "nodes": [
    632331557,
    632331566,
    632331576,
    632331587,
    632331557
  ],
  "tags": {
    "landuse": "cemetery"
  }
},
{
  "type": "way",
  "id": 51774617,
  "center": {
    "lat": 50.1771420,
    "lon": 9.1558050
  },
  "nodes": [
    660697734,
    660697735,
    660697736,
    12003274955,
    660697737,
    660697738,
    660697739,
    660697734
  ],
  "tags": {
    "landuse": "cemetery",
    "name": "Waldfriedhof Hailer",
    "religion": "christian"
  }
},
{
  "type": "way",
  "id": 52405523,
  "center": {
    "lat": 50.9812882,
    "lon": 9.7482151
  },
  "nodes": [
    666165191,
    666302598,
    5418604149,
    5418604156,
    666302604,
    5418604155,
    5418604152,
    5418604153,
    5418604154,
    666302603,
    666302599,
    5418604151,
    666302600,
    666302601,
    5418781445,
    666165191
  ],
  "tags": {
    "landuse": "cemetery",
    "name": "Friedhof Altstadt"
  }
},
{
  "type": "way",
  "id": 52780466,
  "center": {
    "lat": 50.7828542,
    "lon": 9.1972631
  },
  "nodes": [
    669632672,
    669632673,
    12338686787,
    12338686788,
    669632676,
    12338686790,
    12338686789,
    669632672
  ],
  "tags": {
    "landuse": "cemetery",
    "name": "Friedhof Seibelsdorf"
  }
},
{
  "type": "way",
  "id": 52783571,
  "center": {
    "lat": 50.7719728,
    "lon": 9.1734696
  },
  "nodes": [
    669674712,
    669674727,
    669674740,
    669674742,
    669674712
  ],
  "tags": {
    "landuse": "cemetery",
    "name": "Friedhof Ohmes"
  }
},
{
  "type": "way",
  "id": 52795741,
  "center": {
    "lat": 50.7400339,
    "lon": 9.1605476
  },
  "nodes": [
    669788758,
    669788760,
    669788761,
    669788762,
    669788758
  ],
  "tags": {
    "landuse": "cemetery",
    "name": "Friedhof Heimertshausen"
  }
},
{
  "type": "way",
  "id": 54229162,
  "center": {
    "lat": 50.4622851,
    "lon": 9.4684159
  },
  "nodes": [
    683821661,
    683821662,
    683821663,
    683821664,
    7004811810,
    683821661
  ],
  "tags": {
    "landuse": "cemetery",
    "name": "Friedhof Hauswurz"
  }
},
{
  "type": "way",
  "id": 54929910,
  "center": {
    "lat": 50.6470602,
    "lon": 9.0257439
  },
  "nodes": [
    691175011,
    691175013,
    7090807520,
    691175014,
    691175015,
    1716802958,
    7090584399,
    695757194,
    691175017,
    695757165,
    695757140,
    7090584400,
    691175018,
    7090584394,
    691175011
  ],
  "tags": {
    "landuse": "cemetery",
    "name": "Friedhof Nieder-Ohmen",
    "wikidata": "Q116748006"
  }
},
{
  "type": "way",
  "id": 54932571,
  "center": {
    "lat": 50.6941171,
    "lon": 9.0909647
  },
  "nodes": [
    691210175,
    691210180,
    691210183,
    691210184,
    691210185,
    691210187,
    691210175
  ],
  "tags": {
    "landuse": "cemetery",
    "name": "Friedhof Otterbach"
  }
},
{
  "type": "way",
  "id": 55149514,
  "center": {
    "lat": 50.8928076,
    "lon": 9.9797176
  },
  "nodes": [
    693439369,
    693439347,
    693439362,
    693439372,
    693439369
  ],
  "tags": {
    "landuse": "cemetery",
    "name": "Friedhof Bengendorf"
  }
},
{
  "type": "way",
  "id": 55890235,
  "center": {
    "lat": 50.5154365,
    "lon": 9.6019040
  },
  "nodes": [
    701793719,
    12626831133,
    12626831134,
    12626831135,
    4790361185,
    701793705,
    701793707,
    12626831132,
    12626831136,
    701793721,
    4790361166,
    701793719
  ],
  "tags": {
    "landuse": "cemetery",
    "name": "Friedhof Istergiesel"
  }
},
{
  "type": "way",
  "id": 56226426,
  "center": {
    "lat": 50.4976774,
    "lon": 9.6783943
  },
  "nodes": [
    705591485,
    705591494,
    705591496,
    3688443150,
    3688443149,
    3688443156,
    3688443155,
    705591498,
    705591505,
    10761213550,
    705591634,
    705591499,
    3688443144,
    705591500,
    705591503,
    705591485
  ],
  "tags": {
    "denomination": "catholic",
    "landuse": "cemetery",
    "name": "Friedhof Löschenrod",
    "religion": "christian"
  }
},
{
  "type": "way",
  "id": 56240592,
  "center": {
    "lat": 50.4915222,
    "lon": 9.6705724
  },
  "nodes": [
    705808338,
    705808330,
    705808311,
    12779827602,
    12779820695,
    705808317,
    4929430073,
    705808336,
    4929430072,
    705808338
  ],
  "tags": {
    "barrier": "fence",
    "landuse": "cemetery",
    "name": "Neuer Friedhof"
  }
},
{
  "type": "way",
  "id": 56307745,
  "center": {
    "lat": 50.0529839,
    "lon": 9.1815100
  },
  "nodes": [
    706451239,
    706451234,
    706451249,
    706451244,
    706451229,
    706451246,
    706451242,
    706451250,
    2611372919,
    2611372921,
    2611372920,
    706451237,
    706451239
  ],
  "tags": {
    "landuse": "cemetery"
  }
},
{
  "type": "way",
  "id": 56313279,
  "center": {
    "lat": 50.0407252,
    "lon": 9.1682264
  },
  "nodes": [
    706494024,
    706494007,
    706493965,
    706494020,
    706494002,
    706493959,
    706494024
  ],
  "tags": {
    "landuse": "cemetery"
  }
},
{
  "type": "way",
  "id": 56856686,
  "center": {
    "lat": 50.4462256,
    "lon": 9.0333718
  },
  "nodes": [
    710747013,
    710747015,
    3430196419,
    3430196416,
    3430196410,
    710747016,
    710747018,
    3430196405,
    5486065933,
    3430196421,
    3430196423,
    710747013
  ],
  "tags": {
    "landuse": "cemetery",
    "name": "Friedhof Ober-Schmitten"
  }
},
{
  "type": "way",
  "id": 57402327,
  "center": {
    "lat": 50.7811650,
    "lon": 9.3327381
  },