{
  "version": 0.6,
  "generator": "Overpass API 0.7.62.8 e802775f",
  "osm3s": {
    "timestamp_osm_base": "2025-11-02T22:52:14Z",
    "copyright": "The data included in this document is from www.openstreetmap.org. The data is made available under ODbL."
  },
  "elements": [

{
  "type": "way",
  "id": 4225512,
  "center": {
    "lat": 48.9704962,
    "lon": 8.3993278
  },
  "nodes": [
    937608293,
    1399073864,
    1399073855,
    1399073857,
    937608291,
    9233088262,
    9233088259,
    9233088243,
    9233088242,
    9233088261,
    9233088260,
    937608302,
    29031158,
    24554472,
    1399073910,
    29031159,
    1698278812,
    1698278808,
    25185213,
    25187524,
    30479877,
    25185496,
    1698336413,
    1698336415,
    1698336416,
    1698336417,
    1698336418,
    1698336420,
    25187604,
    1698336447,
    1698336454,
    1698336483,
    1698336493,
    1698336504,
    937608293
  ],
  "tags": {
    "landuse": "cemetery",
    "name": "Friedhof Rüppurr",
    "website": "https://www.friedhof-karlsruhe.de/friedhoefe/stadtteilfriedhoefe/rueppurr/",
    "wikidata": "Q15810545"
  }
},
{
  "type": "way",
  "id": 4407030,
  "center": {
    "lat": 48.9871857,
    "lon": 8.4544917
  },
  "nodes": [
    26963510,
    1618736699,
    1618736703,
    26963511,
    9645246079,
    9645352267,
    9645246074,
    9645246075,
    9645246076,
    9645246077,
    9645246078,
    9645352276,
    9645352277,
    1144634216,
    26963509,
    1144634262,
    1144634173,
    5695219015,
    1144634214,
    5695219016,
    26963510
  ],
  "tags": {
    "landuse": "cemetery",
    "name": "Friedhof Durlach-Aue",
    "website": "https://www.friedhof-karlsruhe.de/friedhoefe/stadtteilfriedhoefe/durlach-aue/"
  }
},
{
  "type": "way",
  "id": 4407175,
  "center": {
    "lat": 48.9739568,
    "lon": 8.4490890
  },
  "nodes": [
    26964522,
    27007370,
    9707392609,
    9707392607,
    1204387079,
    9707392608,
    9707392606,
    26964523,
    26964524,
    1204387093,
    1623981926,
    26964525,
    9707392605,
    26964522
  ],
  "tags": {
    "landuse": "cemetery",
    "name": "Friedhof Merge­lacker",
    "website": "https://www.friedhof-karlsruhe.de/friedhoefe/stadtteilfriedhoefe/wolfartsweier/"
  }
},
{
  "type": "way",
  "id": 4624982,
  "center": {
    "lat": 48.9490561,
    "lon": 8.4152522
  },
  "nodes": [
    29376009,
    298113975,
    298113919,
    12732221413,
    301511310,
    301511312,
    12732221445,
    299979058,
    298113921,
    301511309,
    29376002,
    30116839,
    29376003,
    2638223260,
    29376004,
    2638223285,
    30116838,
    29376005,
    301511314,
    848924885,
    9532234857,
    795644264,
    9532234854,
    9759729118,
    299978994,
    9532234853,
    29376007,
    9532234851,
    29376008,
    9759702816,
    29376009
  ],
  "tags": {
    "landuse": "cemetery",
    "name": "Friedhof Ettlingen",
    "website": "https://www.ettlingen.de/-/Behoerdenwegweiser/garten--und-friedhofsabteilung-stadtbauamt/oe6013920"
  }
},
{
  "type": "way",
  "id": 4701601,
  "center": {
    "lat": 48.9170119,
    "lon": 8.4377470
  },
  "nodes": [
    9324890301,
    9703403122,
    9204510521,
    9324890303,
    9703403123,
    8567542226,
    29909238,
    29909236,
    9703403124,
    29909235,
    9703403117,
    9703403118,
    3433612547,
    10152090889,
    9703403119,
    10152090890,
    10152090891,
    9703403120,
    9204510523,
    9324890301
  ],
  "tags": {
    "landuse": "cemetery",
    "name": "Friedhof Spessart",
    "note": "only very rough outline",
    "website": "https://www.ettlingen.de/-/Behoerdenwegweiser/garten--und-friedhofsabteilung-stadtbauamt/oe6013920"
  }
},
{
  "type": "way",
  "id": 4960862,
  "center": {
    "lat": 48.9341345,
    "lon": 8.6375072
  },
  "nodes": [
    11492727213,
    11492727215,
    11492727219,
    11492727218,
    11492727216,
    11492727217,
    11492727209,
    11492727220,
    11492727205,
    11492727203,
    11492727200,
    11492727196,
    11492727202,
    11492727201,
    11492727223,
    11492727225,
    11492727224,
    11492727226,
    11492727227,
    11492727255,
    11492727256,
    11492727254,
    11492727253,
    11492727250,
    11492727249,
    11492727246,
    11492727243,
    11492727211,
    11492727212,
    11492727214,
    11492727213
  ],
  "tags": {
    "landuse": "cemetery",
    "name": "Friedhof Ersingen"
  }
},
{
  "type": "way",
  "id": 5028544,
  "center": {
    "lat": 48.9795773,
    "lon": 8.3096091
  },
  "nodes": [
    33569736,
    9745028908,
    2956072907,
    33569737,
    3198315548,
    3198315531,
    1948807358,
    9745028902,
    9745028901,
    33569739,
    2956072901,
    3024756554,
    3024756555,
    33569733,
    3198315526,
    3198315520,
    3024756561,
    9745108524,
    33571293,
    2956072903,
    2956072904,
    3198315530,
    3198315536,
    2956072905,
    2956072906,
    33569736
  ],
  "tags": {
    "amenity": "grave_yard",
    "landuse": "cemetery",
    "name": "Friedhof Forchheim"
  }
},
{
  "type": "way",
  "id": 5060894,
  "center": {
    "lat": 48.9838428,
    "lon": 8.3746043
  },
  "nodes": [
    768750644,
    1550279917,
    768750648,
    768750652,
    1550279913,
    768749240,
    1550279908,
    768808697,
    768808698,
    768749569,
    323192189,
    768808693,
    323192192,
    768750033,
    9483781933,
    3499560210,
    3499560209,
    3499560207,
    768750676,
    768750051,
    768750682,
    768750754,
    768750763,
    768750759,
    9809878259,
    9812213633,
    1550247791,
    1550247808,
    9809878261,
    1550247828,
    1550247837,
    1550247845,
    34064951,
    768750147,
    768750072,
    768750784,
    768750789,
    34065170,
    34064700,
    1125116179,
    34064788,
    1125115926,
    768750644
  ],
  "tags": {
    "landuse": "cemetery",
    "name": "Friedhof Bulach",
    "website": "https://www.friedhof-karlsruhe.de/friedhoefe/stadtteilfriedhoefe/bulach/"
  }
},
{
  "type": "way",
  "id": 5116753,
  "center": {
    "lat": 48.6311968,
    "lon": 8.9943972
  },
  "nodes": [
    35223408,
    35223409,
    35223410,
    35223411,
    35223412,
    35223408
  ],
  "tags": {
    "landuse": "cemetery",
    "religion": "christian"
  }
},
{
  "type": "way",
  "id": 5121845,
  "center": {
    "lat": 48.9333227,
    "lon": 8.3691841
  },
  "nodes": [
    32861750,
    10222477633,
    32861747,
    10222477632,
    10222477631,
    10222477630,
    10222477629,
    10222477628,
    10222477627,
    10222477626,
    32861749,
    32861750
  ],
  "tags": {
    "landuse": "cemetery",
    "name": "Friedhof Bruchhausen",
    "website": "https://www.ettlingen.de/-/Behoerdenwegweiser/garten--und-friedhofsabteilung-stadtbauamt/oe6013920"
  }
},
{
  "type": "way",
  "id": 5135094,
  "center": {
    "lat": 48.0526115,
    "lon": 8.4700599
  },
  "nodes": [
    35526236,
    1663240524,
    1663240627,
    1663240796,
    1663241396,
    1663241485,
    1663242153,
    1663242156,
    1663242124,
    1663242047,
    1663242007,
    1663242013,
    1663241942,
    1663242044,
    1663243061,
    1663243223,
    1663243416,
    35526237,
    1663243754,
    1663243790,
    1663243814,
    35526234,
    1663243748,
    1663243521,
    1663243339,
    1663243267,
    1663243160,
    1663243081,
    35526235,
    1663242655,
    1663242547,
    1663242476,
    8828129896,
    8828129895,
    1663241872,
    1663241736,
    1663241487,
    1663241069,
    1663240920,
    1663240725,
    1663240637,
    1663240588,
    1663240528,
    35526236
  ],
  "tags": {
    "landuse": "cemetery",
    "name": "Friedhof Villingen",
    "website": "https://www.villingen-schwenningen.de/rathaus-leben/sterbefaelle-in-vs/friedhoefe-villingen-schwenningen/"
  }
},
{
  "type": "way",
  "id": 5204465,
  "center": {
    "lat": 48.7319250,
    "lon": 8.9933232
  },
  "nodes": [
    417059238,
    605051390,
    36418786,
    36418787,
    36418788,
    7674596965,
    10130265620,
    417059240,
    36418790,
    6641490134,
    36418174,
    36418176,
    36418793,
    571633391,
    759233118,
    36418798,
    36417575,
    610954867,
    1704224022,
    417059239,
    417059238
  ],
  "tags": {
    "landuse": "cemetery",
    "name": "Waldfriedhof"
  }
},
{
  "type": "way",
  "id": 5211965,
  "center": {
    "lat": 48.9506098,
    "lon": 8.2412583
  },
  "nodes": [
    36509810,
    9744026740,
    9744026739,
    9814413940,
    36509806,
    3653039649,
    3653039648,
    3653039650,
    3653039651,
    36509807,
    9744026717,
    2048015172,
    9744026733,
    9744026724,
    36509808,
    9744026735,
    9744026734,
    9744026736,
    9744026737,
    9744026738,
    36509810
  ],
  "tags": {
    "landuse": "cemetery",
    "name": "Friedhof Au am Rhein"
  }
},
{
  "type": "way",
  "id": 5249448,
  "center": {
    "lat": 48.9815833,
    "lon": 8.2480102
  },
  "nodes": [
    37000113,
    11361409219,
    11361409220,
    37000100,
    11250645054,
    59380214,
    11250645048,
    11250645049,
    11250645050,
    11250645051,
    8315139604,
    37000098,
    59380206,
    2672375006,
    37000114,
    37000113
  ],
  "tags": {
    "landuse": "cemetery"
  }
},
{
  "type": "way",
  "id": 6149615,
  "center": {
    "lat": 48.9735658,
    "lon": 8.2699868
  },
  "nodes": [
    9332081618,
    9332153874,
    9332081622,
    50928640,
    6699504161,
    2881827825,
    9332090652,
    9332090653,
    3140849407,
    3140849403,
    50928630,
    6699504158,
    3140849383,
    9332081618
  ],
  "tags": {
    "landuse": "cemetery"
  }
},
{
  "type": "way",
  "id": 7852086,
  "center": {
    "lat": 48.9166329,
    "lon": 8.2565042
  },
  "nodes": [
    57779661,
    10140152574,
    10140152585,
    3148836875,
    57779667,
    10140152587,
    57779670,
    3148836854,
    473207130,
    10140152569,
    3148836848,
    3148836851,
    10140152581,
    10140152580,
    57779659,
    10140152582,
    10140152583,
    443001053,
    10140152584,
    57779661
  ],
  "tags": {
    "landuse": "cemetery",
    "name": "Friedhof Bietigheim"
  }
},
{
  "type": "way",
  "id": 8025659,
  "center": {
    "lat": 48.9317849,
    "lon": 8.2722055
  },
  "nodes": [
    59995362,
    301398364,
    59995363,
    301398366,
    301398365,
    59995364,
    301398354,
    10143202140,
    59995361,
    301398363,
    59995362
  ],
  "tags": {
    "landuse": "cemetery",
    "name": "Alter Friedhof Durmersheim"
  }
},
{
  "type": "way",
  "id": 8038937,
  "center": {
    "lat": 48.9286185,
    "lon": 8.2618184
  },
  "nodes": [
    310461199,
    9757882652,
    9757866847,
    9757866845,
    9757866844,
    60102051,
    60102042,
    1339692162,
    1339692148,
    1339692100,
    1339692153,
    1339692106,
    1339692088,
    60102043,
    60102044,
    9757866905,
    9757866906,
    60102045,
    9757866907,
    9757866889,
    60102046,
    60102049,
    9757866890,
    310461244,
    310461234,
    9757866852,
    310461199
  ],
  "tags": {
    "landuse": "cemetery",
    "name": "Neuer Friedhof Durmersheim"
  }
},
{
  "type": "way",
  "id": 8614373,
  "center": {
    "lat": 48.8395237,
    "lon": 8.3812419
  },
  "nodes": [
    61318762,
    61318763,
    61318764,
    61318765,
    13073102739,
    13073102741,
    13073102737,
    13073102740,
    13073102738,
    61318762
  ],
  "tags": {
    "landuse": "cemetery",
    "name": "Friedhof Freiolsheim"
  }
},
{
  "type": "way",
  "id": 10201797,
  "center": {
    "lat": 48.7226929,
    "lon": 8.9664946
  },
  "nodes": [
    84343590,
    2091993324,
    5167630333,
    573599605,
    573599609,
    573599613,
    573599593,
    573599596,
    573599598,
    84343597,
    1732991442,
    573599629,
    84343598,
    84343599,
    84343601,
    2091993325,
    84343590
  ],
  "tags": {
    "landuse": "cemetery"
  }
},
{
  "type": "way",
  "id": 10626470,
  "center": {
    "lat": 48.5543471,
    "lon": 8.8329254
  },
  "nodes": [
    1876056286,
    1876056282,
    1876056284,
    93144409,
    1876090330,
    346868106,
    93144410,
    346868113,
    1876056286
  ],
  "tags": {
    "landuse": "cemetery"
  }
},
{
  "type": "way",
  "id": 10766022,
  "center": {
    "lat": 48.8636793,
    "lon": 8.2137848
  },
  "nodes": [
    95871057,
    95871052,
    440115298,
    95871061,
    2180114338,
    2180114343,
    2180114350,
    2180114356,
    2180114372,
    1020604870,
    2139225630,
    988572326,
    973832175,
    973832185,
    440115297,
    95871066,
    988572355,
    2138825235,
    988572386,
    2180114578,
    1020604875,
    95871071,
    95871074,
    3651014378,
    1020604873,
    2180114441,
    95871057
  ],
  "tags": {
    "landuse": "cemetery",
    "name": "Stadtfriedhof Rastatt",
    "wheelchair": "yes"
  }
},
{
  "type": "way",
  "id": 11562474,
  "center": {
    "lat": 48.8130712,
    "lon": 8.9741206
  },
  "nodes": [
    107998315,
    10262262357,
    103099260,
    103095079,
    103095083,
    103095099,
    1261072532,
    10262243157,
    107998290,
    1261072531,
    103095104,
    107998308,
    103095114,
    103095119,
    107998315
  ],
  "tags": {
    "landuse": "cemetery"
  }
},
{
  "type": "way",
  "id": 11691698,
  "center": {
    "lat": 48.0873634,
    "lon": 8.5549116
  },
  "nodes": [
    104600935,
    104600940,
    104600949,
    5117377589,
    5117377590,
    2358637177,
    2358637169,
    104600953,
    104600935
  ],
  "tags": {
    "landuse": "cemetery"
  }
},
{
  "type": "way",
  "id": 12879012,
  "center": {
    "lat": 48.8121083,
    "lon": 8.9508166
  },
  "nodes": [
    118087071,
    118087077,
    1401998850,
    1401998847,
    118087081,
    1455599174,
    346945765,
    1418449498,
    1418454716,
    118087091,
    1418454713,
    118087092,
    339322730,
    118087093,
    1418454714,
    1418454717,
    194034218,
    354619729,
    118087096,
    194034227,
    1010803140,
    194034223,
    9382416403,
    118087071
  ],
  "tags": {
    "landuse": "cemetery"
  }
},
{
  "type": "way",
  "id": 15260136,
  "center": {
    "lat": 48.6689157,
    "lon": 8.9920417
  },
  "nodes": [
    151237558,
    1213922813,
    151237559,
    1213922700,
    151237560,
    1213922829,
    2842940236,
    2842940232,
    279177586,
    151237561,
    2842940227,
    2842940224,
    2842940225,
    2842940226,
    35420681,
    35420680,
    2842940230,
    279176886,
    35420679,
    268747875,
    35420677,
    2842940248,
    35420676,
    2842940250,
    2842940252,
    151236599,
    263388434,
    10042469423,
    10042469424,
    10042469425,
    35420674,
    35420673,
    32519196,
    151237558
  ],
  "tags": {
    "landuse": "cemetery",
    "name": "Waldfriedhof",
    "wikidata": "Q107467121"
  }
},
{
  "type": "way",
  "id": 16194793,
  "center": {
    "lat": 48.7582984,
    "lon": 8.2508685
  },
  "nodes": [
    164178919,
    11375744772,
    11375744768,
    164179406,
    3194608034,
    11380493299,
    3194608427,
    164179412,
    3194608581,
    11380493306,
    11380493305,
    3194608636,
    11380493323,
    164179417,
    11380493320,
    3194609065,
    3194609115,
    3194609117,
    164178951,
    11380493369,
    164178943,
    3194608626,
    164178938,
    11375744486,
    164178933,
    11375744507,
    164179385,
    11375744472,
    11375744476,
    164179387,
    11380493291,
    11375741359,
    11375741358,
    164178928,
    11380493295,
    164179392,
    164178924,
    164178919
  ],
  "tags": {
    "landuse": "cemetery",
    "name": "Hauptfriedhof Baden-Baden",
    "url": "https://www.baden-baden.de/mam/files/service/sterbefall/ratgebertrauerfall.pdf"
  }
},
{
  "type": "way",
  "id": 16614689,
  "center": {
    "lat": 48.8220384,
    "lon": 8.2512260
  },
  "nodes": [
    171592414,
    2882009867,
    171592451,
    1014454667,
    1014454629,
    171592461,
    899564425,
    171592478,
    7173077871,
    1710468818,
    9887431029,
    9887431028,
    1710489203,
    171592414
  ],
  "tags": {
    "landuse": "cemetery",
    "name": "Friedhof Kuppenheim"
  }
},
{
  "type": "way",
  "id": 16967796,
  "center": {
    "lat": 48.7478709,
    "lon": 8.8776103
  },
  "nodes": [
    175934031,
    175934033,
    3350317999,
    175934034,
    3350317994,
    3350317189,
    3350317181,
    3350317169,
    3350317165,
    3350317166,
    1728997988,
    5714185434,
    3350317160,
    3350317156,
    143209501,
    3350317146,
    175934038,
    3350317144,
    3350317145,
    175934039,
    392721498,
    175934040,
    3350317176,
    175934041,
    175934043,
    3350317995,
    175934044,
    175934031
  ],
  "tags": {
    "landuse": "cemetery",
    "name": "Friedhof Weil der Stadt"
  }
},
{
  "type": "way",
  "id": 17707469,
  "center": {
    "lat": 48.5063227,
    "lon": 8.9817152
  },
  "nodes": [
    183488834,
    11347129093,
    183488844,
    13053375748,
    183488849,
    183488858,
    7693097569,
    13053723265,
    13053723266,
    13053723267,
    7693097570,
    6541199173,
    7693097571,
    183488834
  ],
  "tags": {
    "landuse": "cemetery"
  }
},
{
  "type": "way",
  "id": 17758612,
  "center": {
    "lat": 48.7793479,
    "lon": 8.2727417
  },
  "nodes": [
    184030001,
    184030005,
    184030012,
    184030001
  ],
  "tags": {
    "landuse": "cemetery",
    "name": "Alter Friedhof Ebersteinburg"
  }
},
{
  "type": "way",
  "id": 18618566,
  "center": {
    "lat": 48.5063474,
    "lon": 8.9794618
  },
  "nodes": [
    192076745,
    192076751,
    192076760,
    192076767,
    192076771,
    192076798,
    6876078471,
    192076830,
    192076834,
    192076845,
    2501927538,
    192076853,
    6876078470,
    192076862,
    192076868,
    192076902,
    192076908,
    192076919,
    7693097557,
    192076941,
    192076745
  ],
  "tags": {
    "landuse": "cemetery"
  }
},
{
  "type": "way",
  "id": 18618568,
  "center": {
    "lat": 48.5062686,
    "lon": 8.9820478
  },
  "nodes": [
    192076971,
    192076979,
    192076988,
    192076997,
    192076971
  ],
  "tags": {
    "created_by": "JOSM",
    "landuse": "cemetery"
  }
},
{
  "type": "way",
  "id": 18618569,
  "center": {
    "lat": 48.5061943,
    "lon": 8.9822932
  },
  "nodes": [
    192077016,
    2305630281,
    192077023,
    2305630282,
    192077030,
    192077040,
    192077016
  ],
  "tags": {
    "landuse": "cemetery"
  }
},
{
  "type": "way",
  "id": 22806711,
  "center": {
    "lat": 48.4326556,
    "lon": 8.5886251
  },
  "nodes": [
    245356682,
    9764608327,
    245356685,
    245356686,
    245356689,
    9764608317,
    245356682
  ],
  "tags": {
    "landuse": "cemetery"
  }
},
{
  "type": "way",
  "id": 22891344,
  "center": {
    "lat": 48.0176809,
    "lon": 8.0329118
  },
  "nodes": [
    291772955,
    4771472833,
    4771472832,
    2241390004,
    4771472834,
    291772960,
    246277168,
    2241389999,
    9938015644,
    2241389998,
    246277170,
    291772955
  ],
  "tags": {
    "landuse": "cemetery",
    "name": "Friedhof St Peter"
  }
},
{
  "type": "way",
  "id": 22932159,
  "center": {
    "lat": 48.5249271,
    "lon": 8.9572703
  },
  "nodes": [
    247041418,
    1758311596,
    2374268314,
    301553090,
    301553101,
    247041419,
    301553097,
    247041420,
    301553098,
    247041421,
    247041422,
    247041418
  ],
  "tags": {
    "landuse": "cemetery",
    "name": "Friedhof Pfäffingen"
  }
},
{
  "type": "way",
  "id": 22987047,
  "center": {
    "lat": 48.8372507,
    "lon": 8.5962451
  },
  "nodes": [
    247802224,
    308081364,
    247802225,
    308081371,
    308081360,
    308081348,
    474597662,
    247802226,
    247802227,
    474597467,
    474597655,
    2979567323,
    474597658,
    474597659,
    474597660,
    247802231,
    474597661,
    247802224
  ],
  "tags": {
    "landuse": "cemetery",
    "name": "Friedhof Neuenbürg"
  }
},
{
  "type": "way",
  "id": 23015845,
  "center": {
    "lat": 48.6197448,
    "lon": 8.8988101
  },
  "nodes": [
    1508808350,
    3670328912,
    3670328916,
    248151969,
    248151970,
    1508808200,
    13162132168,
    13162132200,
    1508808266,
    13162148118,
    1508808350
  ],
  "tags": {
    "landuse": "cemetery",
    "name": "Friedhof"
  }
},
{
  "type": "way",
  "id": 23042310,
  "center": {
    "lat": 48.8483925,
    "lon": 8.5414882
  },
  "nodes": [
    248604433,
    321313438,
    321313439,
    321313440,
    248604434,
    248604435,
    301889026,
    301889025,
    301889024,
    339512376,
    248604433
  ],
  "tags": {
    "landuse": "cemetery",
    "name": "Friedhof Schwann"
  }
},
{
  "type": "way",
  "id": 23124952,
  "center": {
    "lat": 48.5690003,
    "lon": 8.8797711
  },
  "nodes": [
    249674462,
    1898729293,
    249674463,
    249674464,
    249674465,
    249674466,
    249674467,
    249674469,
    616794240,
    249674462
  ],
  "tags": {
    "landuse": "cemetery",
    "name": "Friedhof Gültstein"
  }
},
{
  "type": "way",
  "id": 23166529,
  "center": {
    "lat": 48.9341171,
    "lon": 8.4685954
  },
  "nodes": [
    250401514,
    250401516,
    250401517,
    2280117423,
    250401519,
    250401520,
    250401523,
    250401524,
    250401526,
    250401527,
    250401514
  ],
  "tags": {
    "landuse": "cemetery",
    "name": "Friedhof Busenbach"
  }
},
{
  "type": "way",
  "id": 23345222,
  "center": {
    "lat": 48.9585843,
    "lon": 8.5673907
  },
  "nodes": [
    252794086,
    1230364178,
    1230364177,
    252794087,
    2483960835,
    2326302109,
    10302064199,
    252794088,
    252794090,
    252794091,
    2496688524,
    2483960830,
    252794093,
    25899800,
    2627772407,
    252794095,
    252794096,
    4341772385,
    4341772387,
    2483960834,
    4341775389,
    4341772388,
    252794100,
    252794102,
    252794086
  ],
  "tags": {
    "landuse": "cemetery",
    "name": "Friedhof Singen"
  }
},
{
  "type": "way",
  "id": 23528213,
  "center": {
    "lat": 48.9886100,
    "lon": 8.3694578
  },
  "nodes": [
    254784497,
    10307550797,
    254784495,
    10307618505,
    254784500,
    254784502,
    254784504,
    254784505,
    254784506,
    10307622129,
    254784507,
    254784511,
    8566998715,
    8566998716,
    8567006219,
    8567006217,
    8567006218,
    9426820604,
    8567006220,
    1387486345,
    25642602,
    254784514,
    254784520,
    1387486414,
    254784521,
    1387486446,
    10307550796,
    254784522,
    254784497
  ],
  "tags": {
    "landuse": "cemetery",
    "name": "Friedhof Oberreut",
    "source": "LA-KA",
    "website": "https://www.friedhof-karlsruhe.de/friedhoefe/stadtteilfriedhoefe/oberreut/"
  }
},
{
  "type": "way",
  "id": 23559476,
  "center": {
    "lat": 48.7887702,
    "lon": 8.1977061
  },
  "nodes": [
    255117469,
    255117470,
    11387522542,
    255117471,
    255117472,
    255298123,
    11387522476,
    255117473,
    11387522475,
    35964919,
    35964920,
    11387522474,
    12422590210,
    12422590213,
    12422590207,
    12422590205,
    12422590202,
    11387522473,
    255117469
  ],
  "tags": {
    "landuse": "cemetery",
    "name": "Friedhof Baden-Oos"
  }
},
{
  "type": "way",
  "id": 23580931,
  "center": {
    "lat": 48.5825765,
    "lon": 8.6176033
  },
  "nodes": [
    255360099,
    501612901,
    255360100,
    9774700814,
    9774700819,
    255360102,
    7359293822,
    255360108,
    255360099
  ],
  "tags": {
    "landuse": "cemetery",
    "name": "Waldfriedhof Altensteig",
    "note": "incomplete!",
    "source": "knowledge"
  }
},
{
  "type": "way",
  "id": 23589396,
  "center": {
    "lat": 48.9439527,
    "lon": 8.5799648
  },
  "nodes": [
    255444171,
    1468154133,
    9496515337,
    12874936945,
    12874936944,
    12874936943,
    12874936942,
    255444173,
    12874936966,
    12874936970,
    554800494,
    12874936968,
    554800503,
    255444174,
    12874936965,
    12874936957,
    12874936961,
    1369510285,
    12874832809,
    2119069162,
    1369510286,
    255444171
  ],
  "tags": {
    "landuse": "cemetery",
    "name": "Alter Friedhof Wilferdingen"
  }
},
{
  "type": "way",
  "id": 23647587,
  "center": {
    "lat": 48.5997613,
    "lon": 8.9054664
  },
  "nodes": [
    256195370,
    256195371,
    256195372,
    282087874,
    2887838021,
    2887838014,
    256195373,
    2887838008,
    2887838018,
    304094355,
    2830217442,
    2830217441,
    2830217440,
    256195374,
    1792184269,
    256195375,
    256195376,
    256195377,
    256195378,
    2830217447,
    256195379,
    2830217448,
    1792183894,
    1792183904,
    2830217446,
    256195380,
    2830217445,
    256195370
  ],
  "tags": {
    "addr:housenumber": "102",
    "addr:street": "Hildrizhauser Straße",
    "landuse": "cemetery",
    "name": "Waldfriedhof",
    "opening_hours": "Winter 09:00-17:00; Summer 07:00-sunset"
  }
},
{
  "type": "way",
  "id": 23756035,
  "center": {
    "lat": 48.9310383,
    "lon": 8.3905391
  },
  "nodes": [
    9350512203,
    9350512200,
    9350512199,
    9350512194,
    1012057532,
    9063107422,
    9063107438,
    1010628625,
    9063107421,
    257390278,
    257390180,
    2657572812,
    2657572811,
    1010628639,
    10122783077,
    10122783078,
    1010628738,
    10122783080,
    10122783079,
    10122783081,
    10122783082,
    10122783083,
    1010628787,
    9350512205,
    9350512203
  ],
  "tags": {
    "amenity": "grave_yard",
    "name": "Friedhof Ettlingenweier",
    "website": "https://www.ettlingen.de/-/Behoerdenwegweiser/garten--und-friedhofsabteilung-stadtbauamt/oe6013920"
  }
},
{
  "type": "way",
  "id": 23758339,
  "center": {
    "lat": 48.8971023,
    "lon": 8.4734924
  },
  "nodes": [
    257408140,
    257408142,
    257408144,
    1784621838,
    1784621836,
    1880633253,
    257408146,
    1840831023,
    257408140
  ],
  "tags": {
    "landuse": "cemetery",
    "name": "Friedhof Spielberg"
  }
},
{
  "type": "way",
  "id": 23840640,
  "center": {
    "lat": 48.6919873,
    "lon": 8.9295022
  },
  "nodes": [
    258346242,
    258346243,
    258555501,
    258346244,
    258346245,
    300574928,
    258346247,
    258346249,
    258346252,
    258346254,
    258346256,
    258346242
  ],
  "tags": {
    "landuse": "cemetery",
    "name": "Friedhof Aidlinger Weg",
    "wikidata": "Q108697188"
  }
},
{
  "type": "way",
  "id": 23888740,
  "center": {
    "lat": 48.6687226,
    "lon": 8.9525729
  },
  "nodes": [
    258933163,
    258933164,
    258933173,
    258933180,
    258933181,
    258933182,
    258933183,
    258933185,
    258933186,
    258933189,
    258933163
  ],
  "tags": {
    "landuse": "cemetery",
    "name": "Waldfriedhof Eschbach"
  }
},
{
  "type": "way",
  "id": 23898756,
  "center": {
    "lat": 48.4964226,
    "lon": 8.8146070
  },
  "nodes": [
    2097810738,
    259034142,
    2099564970,
    2099565145,
    259034182,
    259034191,
    2097810741,
    259034192,
    259034193,
    259034194,
    259034195,
    259034196,
    9858218040,
    9858218039,
    259190837,
    2097810738
  ],
  "tags": {
    "landuse": "cemetery",
    "name": "Friedhof Ergenzingen"
  }
},
{
  "type": "way",
  "id": 23936459,
  "center": {
    "lat": 48.6560906,
    "lon": 8.9439076
  },
  "nodes": [
    259442816,
    3107133791,
    259442817,
    1916160113,
    1916160114,
    259442818,
    3107133800,
    259442819,
    3107133789,
    259442821,
    3107133783,
    259442822,
    259442816
  ],
  "tags": {
    "barrier": "wall",
    "landuse": "cemetery",
    "name": "Alter Friedhof",
    "wheelchair": "yes"
  }
},
{
  "type": "way",
  "id": 23937847,
  "center": {
    "lat": 48.7152222,
    "lon": 8.8867198
  },
  "nodes": [
    259459812,
    3109278979,
    259459813,
    259459814,
    259459815,
    2829873449,
    2829873446,
    259459816,
    3109278980,
    259459817,
    3109278976,
    3109278973,
    3109278974,
    259459818,
    3109278966,
    259459819,
    3109278967,
    259459820,
    259459812
  ],
  "tags": {
    "barrier": "wall",
    "landuse": "cemetery",
    "name": "Alter Friedhof"
  }
},
{
  "type": "way",
  "id": 23956465,
  "center": {
    "lat": 48.7464990,
    "lon": 8.9649667
  },
  "nodes": [
    259707668,
    259707669,
    259707671,
    259707672,
    11649549710,
    259707673,
    259707675,
    259707676,
    1208984707,
    259707678,
    259707681,
    1208984698,
    1208984700,
    259707689,
    259707690,
    259707668
  ],
  "tags": {
    "landuse": "cemetery",
    "name": "Friedhof Magstadt"
  }
},
{
  "type": "way",
  "id": 23970415,
  "center": {
    "lat": 48.5734774,
    "lon": 8.6519401
  },
  "nodes": [
    259849745,
    2858297941,
    259849741,
    2858297947,
    2858297949,
    259849742,
    259849744,
    259849745
  ],
  "tags": {
    "landuse": "cemetery",
    "name": "Friedhof Walddorf"
  }
},
{
  "type": "way",
  "id": 24228201,
  "center": {
    "lat": 48.6073081,
    "lon": 8.8428695
  },
  "nodes": [
    262328525,
    1349434343,
    37941258,
    262328527,
    2017144325,
    262328528,
    1796034621,
    1796034620,
    262328529,
    2017144268,
    262328531,
    337400638,
    262328532,
    41762107,
    262328534,
    37941257,
    855328371,
    262328525
  ],
  "tags": {
    "landuse": "cemetery",
    "name": "Friedhof Kuppingen"
  }
},
{
  "type": "way",
  "id": 24332870,
  "center": {
    "lat": 48.6092444,
    "lon": 8.8634379
  },
  "nodes": [
    263952458,
    263952459,
    263952460,
    1064092865,
    263952461,
    263952458
  ],
  "tags": {
    "addr:housenumber": "31",
    "addr:street": "Conrad-Weiser-Straße",
    "landuse": "cemetery"
  }
},
{
  "type": "way",
  "id": 24340604,
  "center": {
    "lat": 48.6934320,
    "lon": 8.1456225
  },
  "nodes": [
    358527840,
    358527842,
    1295369215,
    1295369120,
    264050388,
    358527843,
    6699163110,
    264050389,
    1295369091,
    1295369151,
    1295369283,
    1295369359,
    264050390,
    264050391,
    264050392,
    264050393,
    358527840
  ],
  "tags": {
    "addr:city": "Bühl",
    "landuse": "cemetery",
    "name": "Friedhof Bühl"
  }
},
{
  "type": "way",
  "id": 24351884,
  "center": {
    "lat": 48.9794967,
    "lon": 8.1445885
  },
  "nodes": [
    264165160,
    264165161,
    264165162,
    2131616504,
    2131616507,
    264165163,
    264165164,
    264165160
  ],
  "tags": {
    "landuse": "cemetery"
  }
},
{
  "type": "way",
  "id": 24491467,
  "center": {
    "lat": 48.5937801,
    "lon": 8.8702537
  },
  "nodes": [
    266310390,
    683070343,
    266310391,
    266310392,
    683070347,
    683070350,
    266310394,
    1826786404,
    1956653382,
    1956653385,
    1826786398,
    266310395,
    266310390
  ],
  "tags": {
    "landuse": "cemetery",
    "name": "Alter Friedhof"
  }
},
{
  "type": "way",
  "id": 24541847,
  "center": {
    "lat": 48.6951792,
    "lon": 8.1602956
  },
  "nodes": [
    266848024,
    266848028,
    266848031,
    266848035,
    1402528765,
    266848055,
    266848066,
    266848070,
    266848073,
    12889086589,
    266848024
  ],
  "tags": {
    "landuse": "cemetery",
    "name": "Friedhof Altschweier"
  }
},
{
  "type": "way",
  "id": 24557760,
  "center": {
    "lat": 48.8494613,
    "lon": 8.1417578
  },
  "nodes": [
    267018666,
    267018663,
    10227975626,
    10227975625,
    10227975624,
    267018662,
    10227975623,
    267018665,
    267018667,
    3144589302,
    267018666
  ],
  "tags": {
    "landuse": "cemetery"
  }
},
{
  "type": "way",
  "id": 24568273,
  "center": {
    "lat": 48.4475557,
    "lon": 8.6965868
  },
  "nodes": [
    267118810,
    2796302856,
    276584586,
    268008460,
    1338017835,
    267118811,
    3922634426,
    264397313,
    267118812,
    410873890,
    267118813,
    267118814,
    3922634417,
    267118816,
    267072542,
    7548211306,
    3922634384,
    686579883,
    267118810
  ],
  "tags": {
    "landuse": "cemetery",
    "name": "Friedhof Horb"
  }
},
{
  "type": "way",
  "id": 24573982,
  "center": {
    "lat": 48.0610156,
    "lon": 8.7897740
  },
  "nodes": [
    267170007,
    267170008,
    267170009,
    267170010,
    267170011,
    267170012,
    267170007
  ],
  "tags": {
    "landuse": "cemetery"
  }
},
{
  "type": "way",
  "id": 24690823,
  "center": {
    "lat": 48.4490969,
    "lon": 8.7244696
  },
  "nodes": [
    268386376,
    268386377,
    268386378,
    1349191368,
    1349191566,
    268386376
  ],
  "tags": {
    "landuse": "cemetery",
    "name": "Jüdischer Friedhof Mühlen",
    "religion": "jewish",
    "wikidata": "Q996873"
  }
},
{
  "type": "way",
  "id": 24714379,
  "center": {
    "lat": 48.2490676,
    "lon": 8.5974175
  },
  "nodes": [
    268624555,
    268624556,
    5065431663,
    4339009973,
    268624557,
    4339009975,
    268624558,
    268624559,
    268624560,
    4339009972,
    268624561,
    4339009969,
    268624555
  ],
  "tags": {
    "denomination": "catholic",
    "description": "Friedhof",
    "landuse": "cemetery",
    "religion": "christian"
  }
},
{
  "type": "way",
  "id": 24881684,
  "center": {
    "lat": 48.6225350,
    "lon": 8.7168552
  },
  "nodes": [
    270369937,
    270369938,
    270369939,
    4146937341,
    4146937342,
    270369940,
    270369937
  ],
  "tags": {
    "denomination": "protestant",
    "landuse": "cemetery",
    "name": "Friedhof Effringen",
    "religion": "christian"
  }
},
{
  "type": "way",
  "id": 24882470,
  "center": {
    "lat": 48.9348126,
    "lon": 8.9163953
  },
  "nodes": [
    8413064386,
    8413064384,
    8413077767,
    4087166122,
    4087166117,
    270375932,
    4087166114,
    8413065734,
    8413077772,
    8413065730,
    8413065732,
    8413077771,
    8413065733,
    8413065731,
    270375929,
    8413074625,
    270375930,
    8413077765,
    8413077764,
    8413074627,
    8413064386
  ],
  "tags": {
    "barrier": "wall",
    "landuse": "cemetery",
    "name": "Friedhof Roßwag"
  }
},
{
  "type": "way",
  "id": 24927020,
  "center": {
    "lat": 48.7908741,
    "lon": 8.2322513
  },
  "nodes": [
    270880430,
    11386920688,
    11386920685,
    11386920659,
    11386920666,
    270880432,
    270880434,
    270880437,
    270880430
  ],
  "tags": {
    "landuse": "cemetery",
    "name": "Friedhof Balg"
  }
},
{
  "type": "way",
  "id": 24930442,
  "center": {
    "lat": 49.0002525,
    "lon": 8.5692262
  },
  "nodes": [
    270916822,
    9270518285,
    9270455349,
    9270455350,
    9270455351,
    9270455352,
    274909740,
    25899719,
    270916823,
    9270571678,
    9270455342,
    9270455344,
    270916824,
    9270455382,
    9270455347,
    10916347691,
    10916347689,
    274909741,
    9270557867,
    9270557869,
    9270455364,
    9270557827,
    270916825,
    9270518290,
    9270455348,
    9270455360,
    270916822
  ],
  "tags": {
    "landuse": "cemetery",
    "name": "Friedhof Wöschbach"
  }
},
{
  "type": "way",
  "id": 24985911,
  "center": {
    "lat": 48.8091388,
    "lon": 8.1904773
  },
  "nodes": [
    282177238,
    1997647693,
    2863381844,
    271613007,
    3164400922,
    10171688977,
    271613008,
    271613009,
    2863381843,
    282177238
  ],
  "tags": {
    "landuse": "cemetery",
    "name": "Friedhof Sandweier"
  }
},
{
  "type": "way",
  "id": 25013377,
  "center": {
    "lat": 48.0516837,
    "lon": 8.2021024
  },
  "nodes": [
    271925318,
    271925319,
    10557359143,
    10557359144,
    12879002706,
    271925320,
    12879002705,
    12879002704,
    287234599,
    12879002703,
    12879002702,
    12879002701,
    10557359145,
    13143080177,
    271925321,
    13143080139,
    4755908468,
    276377324,
    4755908465,
    271925318
  ],
  "tags": {
    "landuse": "cemetery"
  }
},
{
  "type": "way",
  "id": 25014224,
  "center": {
    "lat": 48.9313430,
    "lon": 8.5699012
  },
  "nodes": [
    271934869,
    271934870,
    271934871,
    271934872,
    12587784823,
    12587784828,
    271934873,
    10576056570,
    10576056571,
    271934874,
    271934875,
    10576056572,
    271934877,
    271934878,
    10576056573,
    10576056574,
    271934869
  ],
  "tags": {
    "landuse": "cemetery",
    "name": "Friedhof Nöttingen"
  }
},
{
  "type": "way",
  "id": 25016374,
  "center": {
    "lat": 48.5548831,
    "lon": 8.9716060
  },
  "nodes": [
    271951918,
    3559936287,
    3559936282,
    271951919,
    3559936349,
    3559936387,
    271951920,
    3559936413,
    271951921,
    482885554,
    3559936401,
    271951922,
    271951924,
    3261848785,
    271951925,
    3559936291,
    271951926,
    271951927,
    11418145956,
    271951918
  ],
  "tags": {
    "landuse": "cemetery",
    "name": "Friedhof Entringen",
    "wikidata": "Q111371476"
  }
},
{
  "type": "way",
  "id": 25065006,
  "center": {
    "lat": 48.4803426,
    "lon": 8.9980150
  },
  "nodes": [
    272722766,
    272722767,
    272722768,
    272722769,
    272722770,
    272722773,
    272722774,
    272722775,
    272722776,
    272722777,
    2752365847,
    2752365832,
    272722778,
    2752365833,
    272722766
  ],
  "tags": {
    "landuse": "cemetery",
    "name": "Friedhof Bühl",
    "source": "Yahoo Aerial"
  }
},
{
  "type": "way",
  "id": 25079998,
  "center": {
    "lat": 48.7511907,
    "lon": 8.2621144
  },
  "nodes": [
    272912132,
    272912151,
    11375744595,
    272912150,
    272912148,
    272912146,
    11375744596,
    272912145,
    1482097481,
    1482097479,
    276915169,
    272912143,
    280115686,
    280115688,
    280115692,
    280115690,
    280115684,
    272912141,
    11307889000,
    272912140,
    109558420,
    272912137,
    272912133,
    272912132
  ],
  "tags": {
    "landuse": "cemetery",
    "name": "Friedhof Lichtental"
  }
},
{
  "type": "way",
  "id": 25094696,
  "center": {
    "lat": 48.9450123,
    "lon": 8.5324608
  },
  "nodes": [
    4038925767,
    4034733824,
    4034732566,
    4034733825,
    2562661269,
    2562661266,
    13078033797,
    2562661263,
    4016402378,
    1539351360,
    2562661244,
    10009654432,
    10009654431,
    10009654433,
    273116000,
    2562661242,
    2562661245,
    2562661268,
    4016405808,
    4038925767
  ],
  "tags": {
    "landuse": "cemetery",
    "name": "Friedhof Untermutschelbach"
  }
},
{
  "type": "way",
  "id": 25115831,
  "center": {
    "lat": 48.6247473,
    "lon": 8.8393827
  },
  "nodes": [
    273451764,
    273451765,
    12068042317,
    12068042318,
    12068042319,
    12068042320,
    273451767,
    273451768,
    273451769,
    273451770,
    273451764
  ],
  "tags": {
    "addr:housenumber": "40",
    "addr:street": "Kocherstraße",
    "landuse": "cemetery",
    "name": "Friedhof Oberjesingen"
  }
},
{
  "type": "way",
  "id": 25308352,
  "center": {
    "lat": 48.5704416,
    "lon": 8.9601326
  },
  "nodes": [
    275671200,
    6432771928,
    39856965,
    1408915014,
    1408915015,
    275669394,
    275671201,
    275671200
  ],
  "tags": {
    "landuse": "cemetery",
    "name": "Friedhof Breitenholz",
    "wikidata": "Q105243571"
  }
},
{
  "type": "way",
  "id": 25315904,
  "center": {
    "lat": 48.2391625,
    "lon": 8.5632486
  },
  "nodes": [
    275792642,
    12628918634,
    275792645,
    275792646,
    275792648,
    275792649,
    275792652,
    275792642
  ],
  "tags": {
    "denomination": "catholic",
    "landuse": "cemetery",
    "name": "Friedhof Bösingen",
    "religion": "christian"
  }
},
{
  "type": "way",
  "id": 25318100,
  "center": {
    "lat": 48.7173002,
    "lon": 8.8810247
  },
  "nodes": [
    275822872,
    738266476,
    681504092,
    681504095,
    731461719,
    731461691,
    731461689,
    731461688,
    731461686,
    275822875,
    1313358199,
    564762052,
    1313358180,
    564762051,
    275822872
  ],
  "tags": {
    "landuse": "cemetery",
    "name": "Friedhof Dätzingen"
  }
},
{
  "type": "way",
  "id": 25361169,
  "center": {
    "lat": 48.5361111,
    "lon": 8.9384860
  },
  "nodes": [
    276384472,
    3424495983,
    3424470825,
    3424855950,
    3424470824,
    291384518,
    3424855949,
    299679893,
    276384477,
    299679887,
    276384478,
    2168131296,
    2168131297,
    2168131299,
    2168131306,
    2168131312,
    299679886,
    276384479,
    299679892,
    2168131335,
    2168131341,
    299679890,
    2168131347,
    276384472
  ],
  "tags": {
    "landuse": "cemetery",
    "name": "Friedhof Poltringen"
  }
},
{
  "type": "way",
  "id": 25362381,
  "center": {
    "lat": 48.8066003,
    "lon": 8.2251748
  },
  "nodes": [
    276402551,
    10584762409,
    10584762410,
    10584762411,
    10584762408,
    10584762412,
    10584762413,
    10584762414,
    10584762415,
    276402552,
    10584762419,
    276402553,
    10584762417,
    10584762421,
    276402554,
    10584762425,
    10584762423,
    276402555,
    276402556,
    276402557,
    276402558,
    276402559,
    276402551
  ],
  "tags": {
    "landuse": "cemetery",
    "name": "Friedhof Haueneberstein"
  }
},
{
  "type": "way",
  "id": 25379626,
  "center": {
    "lat": 48.9306897,
    "lon": 8.1524476
  },
  "nodes": [
    276630556,
    1972859889,
    1972859882,
    276630557,
    11250779516,
    1972859877,
    1972859880,
    1042460559,
    1972859884,
    1042460541,
    11250779518,
    4515846658,
    276630562,
    11250779507,
    766950811,
    766950810,
    276630558,
    766950808,
    766950807,
    766950806,
    766950804,
    766950803,
    766950802,
    276630560,
    766950800,
    766950799,
    276630561,
    4515846656,
    4515846657,
    276630556
  ],
  "tags": {
    "landuse": "cemetery",
    "note": "guesswork",
    "source": "Bing",
    "wikidata": "Q110330827"
  }
},
{
  "type": "way",
  "id": 25383837,
  "center": {
    "lat": 48.7992713,
    "lon": 8.6969681
  },
  "nodes": [
    276668810,
    690689744,
    276668811,
    276668812,
    276668813,
    276668810
  ],
  "tags": {
    "landuse": "cemetery",
    "name": "Friedhof Bieselsberg"
  }
},
{
  "type": "way",
  "id": 25483098,
  "center": {
    "lat": 48.2937219,
    "lon": 8.5786863
  },
  "nodes": [
    277676197,
    12872953178,
    12186555905,
    277676198,
    9589548345,
    9589548346,
    3400441828,
    3400441830,
    3400441831,
    277676199,
    277676200,
    9589548344,
    9589548343,
    277676201,
    3400441824,
    277676203,
    9589548342,
    277676205,
    277676206,
    277676197
  ],
  "tags": {
    "denomination": "catholic",
    "landuse": "cemetery",
    "religion": "christian"
  }
},
{
  "type": "way",
  "id": 25491563,
  "center": {
    "lat": 48.9128210,
    "lon": 8.5109090
  },
  "nodes": [
    277767852,
    9337038886,
    9337038888,
    9337038887,
    9337038872,
    9337038856,
    277767853,
    9337038857,
    9337038881,
    9337038860,
    277767854,
    9337038862,
    9337038863,
    9337038864,
    9337038880,
    9337038865,
    9337038869,
    9337038870,
    9337038867,
    9337038868,
    294197077,
    277767855,
    9337038878,
    9337038879,
    277767856,
    9337038854,
    9337038877,
    9337038895,
    9337038876,
    277767857,
    9337038875,
    1483240771,
    9337038874,
    9337038873,
    1483240783,
    277767852
  ],
  "tags": {
    "landuse": "cemetery",
    "name": "Friedhof Langensteinbach"
  }
},
{
  "type": "way",
  "id": 25543761,
  "center": {
    "lat": 48.2518097,
    "lon": 8.4890824
  },
  "nodes": [
    278380746,
    278380747,
    278380748,
    278380749,
    278380751,
    278380752,
    278380753,
    278380754,
    278380746
  ],
  "tags": {
    "denomination": "catholic",
    "landuse": "cemetery",
    "name": "Friedhof Seedorf",
    "religion": "christian"
  }
},
{
  "type": "way",
  "id": 25566512,
  "center": {
    "lat": 48.5672919,
    "lon": 8.8502566
  },
  "nodes": [
    354622708,
    354622709,
    278675895,
    278675894,
    1879396909,
    278675893,
    254506671,
    278676566,
    278676567,
    1879396958,
    1879396943,
    1879396940,
    1879396899,
    354622708
  ],
  "tags": {
    "landuse": "cemetery",
    "name": "Neuer Friedhof",
    "religion": "christian"
  }
},
{
  "type": "way",
  "id": 25617861,
  "center": {
    "lat": 48.4888342,
    "lon": 8.6092033
  },
  "nodes": [
    279213673,
    279213674,
    279213675,
    279213676,
    279213677,
    279213678,
    10800973643,
    279213679,
    279213673
  ],
  "tags": {
    "landuse": "cemetery",
    "name": "Friedhof Salzstetten"
  }
},
{
  "type": "way",
  "id": 25630263,
  "center": {
    "lat": 48.7801517,
    "lon": 8.2777392
  },
  "nodes": [
    279346203,
    279346205,
    279346207,
    279346209,
    279346203
  ],
  "tags": {
    "landuse": "cemetery",
    "name": "Neuer Friedhof Ebersteinburg"
  }
},
{
  "type": "way",
  "id": 25643389,
  "center": {
    "lat": 48.4888902,
    "lon": 8.5691016
  },
  "nodes": [
    9764456842,
    9764456840,
    279536103,
    279536104,
    9764471047,
    1368703502,
    279536106,
    279536107,
    9764456845,
    9764456843,
    9764456844,
    9764456841,
    9764456842
  ],
  "tags": {
    "landuse": "cemetery",
    "name": "Friedhof Lützenhardt"
  }
},
{
  "type": "way",
  "id": 25647143,
  "center": {
    "lat": 48.5619134,
    "lon": 8.8450415
  },
  "nodes": [
    1879396859,
    279574114,
    279576018,
    1879396844,
    1879396859
  ],
  "tags": {
    "landuse": "cemetery"
  }
},
{
  "type": "way",
  "id": 25692044,
  "center": {
    "lat": 48.7515666,
    "lon": 8.2628189
  },
  "nodes": [
    280115723,
    280115725,
    280115727,
    280115729,
    280115731,
    280115723
  ],
  "tags": {
    "landuse": "cemetery",
    "name": "Jüdischer Friedhof Baden-Baden",
    "religion": "jewish",
    "start_date": "1920",
    "wikidata": "Q1454527"
  }
},
{
  "type": "way",
  "id": 25793565,
  "center": {
    "lat": 48.4575789,
    "lon": 8.8697267
  },
  "nodes": [
    281344677,
    1395043704,
    281344424,
    1395043700,
    281344678,
    281344426,
    281344679,
    281344429,
    1395043694,
    281344677
  ],
  "tags": {
    "denomination": "roman_catholic",
    "landuse": "cemetery",
    "name": "Friedhof Obernau",
    "religion": "christian"
  }
},
{
  "type": "way",
  "id": 25815858,
  "center": {
    "lat": 48.8937379,
    "lon": 8.2383774
  },
  "nodes": [
    281578434,
    12734579911,
    281578436,
    10166513113,
    10166510812,
    12734579913,
    281578437,
    12735174394,
    12735174393,
    281578439,
    10166510815,
    10166510814,
    10166510813,
    281578441,
    12734579915,
    12734579914,
    281578442,
    10166564024,
    12734579916,
    10166564030,
    281578434
  ],
  "tags": {
    "landuse": "cemetery",
    "name": "Friedhof Ötigheim"
  }
},
{
  "type": "way",
  "id": 25922370,
  "center": {
    "lat": 48.5251319,
    "lon": 8.8684362
  },
  "nodes": [
    282767850,
    2867953272,
    2871784409,
    2871784410,
    282767851,
    282767852,
    2868589336,
    282767853,
    2867953271,
    2867349566,
    2867349565,
    282767850
  ],
  "tags": {
    "landuse": "cemetery"
  }
},
{
  "type": "way",
  "id": 25982110,
  "center": {
    "lat": 48.4540056,
    "lon": 8.7417505
  },
  "nodes": [
    283443881,
    283443882,
    9855871037,
    9855871036,
    431296856,
    283443884,
    283443885,
    283443886,
    283443881
  ],
  "tags": {
    "landuse": "cemetery",
    "name": "Friedhof Mühlen"
  }
},
{
  "type": "way",
  "id": 26220141,
  "center": {
    "lat": 48.6904957,
    "lon": 8.9547732
  },
  "nodes": [
    287102643,
    41098602,
    287102758,
    799243917,
    300376667,
    287103172,
    808729516,
    287102760,
    1746057264,
    807996549,
    3921776038,
    41098606,
    807996649,
    287102761,
    41098603,
    1746057265,
    1746057273,
    1746057284,
    287102643
  ],
  "tags": {
    "barrier": "wall",
    "landuse": "cemetery"
  }
},
{
  "type": "way",
  "id": 26355271,
  "center": {
    "lat": 48.4855104,
    "lon": 8.9487944
  },
  "nodes": [
    288753742,
    6242624745,
    288753745,
    288753753,
    10014124083,
    9863925590,
    288753754,
    12736872734,
    288753755,
    12736872732,
    288753756,
    288753742
  ],
  "tags": {
    "bicycle": "no",
    "denomination": "catholic",
    "dog": "no",
    "landuse": "cemetery",
    "name": "Sülchenfriedhof",
    "religion": "christian"
  }
},
{
  "type": "way",
  "id": 26363670,
  "center": {
    "lat": 48.9062326,
    "lon": 8.5726853
  },
  "nodes": [
    288841342,
    10576406315,
    288841345,
    288841346,
    288841347,
    288841348,
    288841349,
    288841350,
    288841351,
    288841354,
    288841355,
    9493076284,
    9493076287,
    288841357,
    288841359,
    288841360,
    288841361,
    288841362,
    288841363,
    288841342
  ],
  "tags": {
    "landuse": "cemetery",
    "name": "Friedhof Ellmendingen"
  }
},
{
  "type": "way",
  "id": 26396188,
  "center": {
    "lat": 48.6774951,
    "lon": 8.8687806
  },
  "nodes": [
    277634141,
    289176280,
    289176290,
    289176296,
    289176302,
    276438250,
    9499395523,
    277634141
  ],
  "tags": {
    "landuse": "cemetery",
    "name": "Friedhof Deufringen",
    "religion": "christian"
  }
},
{
  "type": "way",
  "id": 26413880,
  "center": {
    "lat": 48.5290430,
    "lon": 8.9333156
  },
  "nodes": [
    289398418,
    277289244,
    3937002487,
    277289243,
    2181487765,
    3937002545,
    2181487762,
    2181487759,
    275542193,
    3937002520,
    3937002515,
    289398421,
    3937002488,
    289398425,
    3937003582,
    289398426,
    289398424,
    289398423,
    289398418
  ],
  "tags": {
    "landuse": "cemetery",
    "name": "Friedhof Oberndorf"
  }
},
{
  "type": "way",
  "id": 26479639,
  "center": {
    "lat": 48.4472857,
    "lon": 8.7476690
  },
  "nodes": [
    290202740,
    290202742,
    290202743,
    243530891,
    290202745,
    290202740
  ],
  "tags": {
    "landuse": "cemetery",
    "name": "Friedhof Ahldorf"
  }
},
{
  "type": "way",
  "id": 26499640,
  "center": {
    "lat": 48.5533221,
    "lon": 8.8794707
  },
  "nodes": [
    290441823,
    290441829,
    290441831,
    290441832,
    1885703252,
    290441833,
    290441834,
    290441835,
    1885703613,
    1885703628,
    290441836,
    290441837,
    1885703173,
    1885703174,
    290441839,
    1885703053,
    1885703060,
    1885703058,
    290441823
  ],
  "tags": {
    "amenity": "grave_yard",
    "landuse": "cemetery",
    "name": "Friedhof Tailfingen",
    "wheelchair": "yes"
  }
},
{
  "type": "way",
  "id": 26509493,
  "center": {
    "lat": 48.2752445,
    "lon": 8.9940267
  },
  "nodes": [
    3479050065,
    10133150825,
    1409523243,
    2483312456,
    1409523244,
    8380029648,
    4967798044,
    3479050016,
    290561534,
    260007208,
    3479050011,
    290561537,
    290561539,
    4967798039,
    4967798038,
    3479050065
  ],
  "tags": {
    "landuse": "cemetery",
    "name": "Friedhof Onstmettingen",
    "religion": "christian",
    "wheelchair": "yes"
  }
},
{
  "type": "way",
  "id": 26553817,
  "center": {
    "lat": 48.4144985,
    "lon": 8.6713385
  },
  "nodes": [
    291059193,
    291059194,
    291059195,
    291059196,
    291059193
  ],
  "tags": {
    "landuse": "cemetery",
    "name": "Friedhof Betra"
  }
},
{
  "type": "way",
  "id": 26586543,
  "center": {
    "lat": 48.5407146,
    "lon": 8.9187015
  },
  "nodes": [
    291563333,
    291563341,
    2885975328,
    291563342,
    291563343,
    291563344,
    291563345,
    1340006710,
    291563339,
    291563346,
    291563347,
    291563348,
    291563349,
    291563333
  ],
  "tags": {
    "landuse": "cemetery",
    "name": "Friedhof Reusten"
  }
},
{
  "type": "way",
  "id": 26622244,
  "center": {
    "lat": 48.5895208,
    "lon": 8.1090869
  },
  "nodes": [
    292001949,
    292001951,
    5416429523,
    292001954,
    292001958,
    5416426718,
    5416426719,
    292001961,
    292001962,
    12486387539,
    12486387540,
    12486387541,
    292001964,
    292001966,
    292001967,
    12486387544,
    292001969,
    292001971,
    292001973,
    292001949
  ],
  "tags": {
    "landuse": "cemetery"
  }
},
{
  "type": "way",
  "id": 26700604,
  "center": {
    "lat": 48.2487148,
    "lon": 8.2143242
  },
  "nodes": [
    292823357,
    6455243813,
    292823358,
    292823359,
    292823365,
    8130400386,
    8130400385,
    292823367,
    292823368,
    6455258152,
    8130400383,
    292823369,
    292823370,
    292823371,
    292823372,
    8130400384,
    292823373,
    292823719,
    292823357
  ],
  "tags": {
    "denomination": "protestant",
    "landuse": "cemetery",
    "religion": "christian"
  }
},
{
  "type": "way",
  "id": 26772680,
  "center": {
    "lat": 48.6665911,
    "lon": 8.1128798
  },
  "nodes": [
    293661664,
    293661665,
    7929044998,
    293661666,
    7929045015,
    293661667,
    293661664
  ],
  "tags": {
    "denomination": "catholic",
    "landuse": "cemetery",
    "name": "Ehemaliger Friedhof Ottersweier",
    "religion": "christian"
  }
},
{
  "type": "way",
  "id": 26777457,
  "center": {
    "lat": 48.1590548,
    "lon": 8.0894786
  },
  "nodes": [
    293713647,
    293713648,
    293713649,
    4798233198,
    1247637120,
    1247637528,
    5742359663,
    1247635659,
    1247636035,
    5742359664,
    10148254879,
    293713650,
    293713651,
    10138439309,
    10138439310,
    10148254892,
    10138439311,
    293713647
  ],
  "tags": {
    "landuse": "cemetery"
  }
},
{
  "type": "way",
  "id": 26797636,
  "center": {
    "lat": 48.6940283,
    "lon": 8.8263859
  },
  "nodes": [
    293971742,
    2009099360,
    2009099372,
    293971743,
    2009099478,
    2009099517,
    2009099537,
    293971744,
    293971745,
    2009099433,
    2009099376,
    2009099339,
    2009099202,
    293971742
  ],
  "tags": {
    "landuse": "cemetery",
    "name": "Friedhof"
  }
},
{
  "type": "way",
  "id": 26816832,
  "center": {
    "lat": 48.9377531,
    "lon": 8.8947405
  },
  "nodes": [
    294170115,
    9726606369,
    9726557475,
    9177941796,
    9177941795,
    4461888300,
    294170118,
    9726557473,
    9726557291,
    9726557293,
    4461798276,
    4461891213,
    4461891214,
    9726557481,
    9726557480,
    294171536,
    294153512,
    2506229748,
    9177941743,
    9177941744,
    294170115
  ],
  "tags": {
    "landuse": "cemetery",
    "name": "Friedhof Mühlhausen"
  }
},
{
  "type": "way",
  "id": 26818879,
  "center": {
    "lat": 48.8622088,
    "lon": 8.6655173
  },
  "nodes": [
    294191436,
    294191449,
    294191440,
    294191441,
    7905147693,
    1207514858,
    294191442,
    294191443,
    294191444,
    294191446,
    294191456,
    294191436
  ],
  "tags": {
    "landuse": "cemetery",
    "name": "Neuer Friedhof Büchenbronn"
  }
},
{
  "type": "way",
  "id": 26841607,
  "center": {
    "lat": 48.5549599,
    "lon": 8.9015762
  },
  "nodes": [
    299116138,
    294801048,
    294801049,
    294801051,
    2857897470,
    2857897471,
    2857897468,
    2857897469,
    299116138
  ],
  "tags": {
    "denomination": "catholic;protestant",
    "landuse": "cemetery",
    "name": "Friedhof Altingen",
    "religion": "christian",
    "wheelchair": "yes"
  }
},
{
  "type": "way",
  "id": 26934048,
  "center": {
    "lat": 48.5325435,
    "lon": 8.7779527
  },
  "nodes": [
    295132367,
    295132368,
    295132369,
    295132370,
    295132367
  ],
  "tags": {
    "landuse": "cemetery",
    "name": "Alter Friedhof Mötzingen"
  }
},
{
  "type": "way",
  "id": 26937735,
  "center": {
    "lat": 48.6453316,
    "lon": 8.1254323
  },
  "nodes": [
    295178737,
    6456275955,
    1336705079,
    295178740,
    295178743,
    295178745,
    6456275919,
    6456275920,
    6456276139,
    295178748,
    295178750,
    295178753,
    6456275975,
    6456275974,
    295178758,
    1336705067,
    295178737
  ],
  "tags": {
    "denomination": "catholic",
    "landuse": "cemetery",
    "name": "Laufer Friedhof",
    "religion": "christian"
  }
},
{
  "type": "way",
  "id": 26945823,
  "center": {
    "lat": 48.9508734,
    "lon": 8.5100380
  },
  "nodes": [
    295247907,
    1632853684,
    1632853694,
    1632853699,
    295247908,
    295248234,
    295248235,
    295248236,
    295248237,
    295247915,
    295247916,
    295247917,
    295247907
  ],
  "tags": {
    "landuse": "cemetery",
    "name": "Friedhof Stupferich",
    "website": "https://www.friedhof-karlsruhe.de/friedhoefe/stadtteilfriedhoefe/stupferich/"
  }
},
{
  "type": "way",
  "id": 26996160,
  "center": {
    "lat": 48.7662611,
    "lon": 8.5555472
  },
  "nodes": [
    9999886959,
    9999855576,
    9999855578,
    9999886956,
    9999886954,
    9999886952,
    9999855584,
    9999855585,
    1025654065,
    9999855583,
    1512080572,
    295902892,
    105706959,
    105706955,
    9999855574,
    105706950,
    9999855581,
    105706939,
    295902894,
    295902896,
    295902897,
    295902900,
    295560296,
    295560292,
    295560290,
    295560288,
    9999886959
  ],
  "tags": {
    "landuse": "cemetery",
    "name": "Waldfriedhof Bad Wildbad"
  }
},
{
  "type": "way",
  "id": 26996700,
  "center": {
    "lat": 48.9585309,
    "lon": 8.7788013
  },
  "nodes": [
    295907928,
    295907871,
    295907929,
    295907873,
    295907928
  ],
  "tags": {
    "landuse": "cemetery",
    "name": "Friedhof Corres",
    "wikidata": "Q97319234"
  }
},
{
  "type": "way",
  "id": 27032360,
  "center": {
    "lat": 48.7678559,
    "lon": 8.8462375
  },
  "nodes": [
    296309078,
    10610854914,
    797390340,
    10610854916,
    1739037925,
    1739037929,
    296309081,
    1739120899,
    297998530,
    240333010,
    130099041,
    10543647483,
    296309078
  ],
  "tags": {
    "landuse": "cemetery",
    "name": "Friedhof Merklingen"
  }
},
{
  "type": "way",
  "id": 27045670,
  "center": {
    "lat": 48.9020094,
    "lon": 8.6965579
  },
  "nodes": [
    296480113,
    497154236,
    296480123,
    497154217,
    296480129,
    497154219,
    302030754,
    296480406,
    296480138,
    296480145,
    296480154,
    318370170,
    296480300,
    296480302,
    296480330,
    296480332,
    296480337,
    286504244,
    1622280750,
    296480340,
    296480342,
    296480345,
    1579257666,
    496785640,
    496785637,
    296480351,
    296480353,
    296480357,
    296480359,
    296480360,
    296480361,
    296480365,
    296480367,
    296480369,
    296480372,
    296480374,
    296480376,
    296480379,
    294853952,
    296480381,
    296480387,
    296480389,
    497154240,
    296480390,
    296480113
  ],
  "tags": {
    "landuse": "cemetery",
    "name": "Hauptfriedhof",
    "wikidata": "Q1470961",
    "wikipedia": "de:Hauptfriedhof (Pforzheim)"
  }
},
{
  "type": "way",
  "id": 27069881,
  "center": {
    "lat": 48.9118263,
    "lon": 8.8457658
  },
  "nodes": [
    296988000,
    296988001,
    296988002,
    3770254832,
    296988003,
    296988000
  ],
  "tags": {
    "landuse": "cemetery",
    "name": "Friedhof Pinache"
  }
},
{
  "type": "way",
  "id": 27119959,
  "center": {
    "lat": 48.5268474,
    "lon": 8.7746916
  },
  "nodes": [
    297545494,
    12056943672,
    9622872659,
    297545496,
    1200030532,
    1200030595,
    1200030717,
    297545498,
    9622872654,
    9622872653,
    297545500,
    9622872657,
    12056943671,
    297545494
  ],
  "tags": {
    "landuse": "cemetery"
  }
},
{
  "type": "way",
  "id": 27135009,
  "center": {
    "lat": 48.6061633,
    "lon": 8.0409190
  },
  "nodes": [
    297708603,
    297708417,
    297708254,
    3961214462,
    6249170175,
    297708271,
    297708292,
    3038586786,
    3038586787,
    297708603
  ],
  "tags": {
    "denomination": "catholic",
    "landuse": "cemetery",
    "name": "Friedhof Önsbach",
    "religion": "christian"
  }
},
{
  "type": "way",
  "id": 27146389,
  "center": {
    "lat": 48.7289852,
    "lon": 8.1650102
  },
  "nodes": [
    2240044307,
    12997660691,
    2240044305,
    297848503,
    297848504,
    7105744267,
    297848505,
    297848507,
    297848508,
    297848509,
    297848510,
    4423914652,
    297848511,
    297848512,
    12997660693,
    12997660692,
    2240044307
  ],
  "tags": {
    "landuse": "cemetery",
    "name": "Friedhof Steinbach"
  }
},
{
  "type": "way",
  "id": 27196138,
  "center": {
    "lat": 48.4705998,
    "lon": 8.8607453
  },
  "nodes": [
    298449534,
    298449535,
    298448369,
    298448371,
    298448374,
    298448375,
    2463871833,
    2463871834,
    298449534
  ],
  "tags": {
    "landuse": "cemetery",
    "name": "Friedhof Nellingsheim"
  }
},
{
  "type": "way",
  "id": 27237278,
  "center": {
    "lat": 48.8366867,
    "lon": 8.8362682
  },
  "nodes": [
    298920736,
    5921115090,
    5921145819,
    5921145820,
    5921145818,
    3556973098,
    5921145811,
    5921145810,
    3556973097,
    5921145809,
    3556973095,
    3556973096,
    298920739,
    5922704909,
    3556973093,
    5922704910,
    298920740,
    5918800683,
    298920742,
    298920743,
    5921023422,
    1226923916,
    1226923875,
    5918761097,
    298920745,
    298920746,
    298920747,
    5921145799,
    298920749,
    315927422,
    5921023434,
    298920736
  ],
  "tags": {
    "landuse": "cemetery",
    "name": "Friedhof Friolzheim"
  }
},
{
  "type": "way",
  "id": 27249452,
  "center": {
    "lat": 48.8784465,
    "lon": 8.6713761
  },
  "nodes": [
    26595292,
    299069314,
    1552169997,
    299069315,
    299069318,
    10004401464,
    299069319,
    299069320,
    299069321,
    299069310,
    299069311,
    299069322,
    10000153763,
    299069323,
    583491558,
    3287437273,
    299069312,
    26595292
  ],
  "tags": {
    "landuse": "cemetery",
    "name": "Friedhof Dillweißenstein",
    "wikidata": "Q111478527"
  }
},
{
  "type": "way",
  "id": 27270883,
  "center": {
    "lat": 48.9021780,
    "lon": 8.2026288
  },
  "nodes": [
    299343502,
    10720714219,
    299343503,
    6032719448,
    299343504,
    8004742240,
    8004742241,
    299343505,
    9756908379,
    9756908380,
    299343502
  ],
  "tags": {
    "landuse": "cemetery",
    "name": "Friedhof Steinmauern"
  }
},
{
  "type": "way",
  "id": 27363247,
  "center": {
    "lat": 48.8918684,
    "lon": 8.6534868
  },
  "nodes": [
    300402993,
    300402994,
    300402997,
    561278223,
    300402998,
    300403002,
    300402999,
    300403003,
    569444607,
    300403000,
    300403001,
    300402993
  ],
  "tags": {
    "landuse": "cemetery",
    "name": "Friedhof Brötzingen",
    "religion": "no"
  }
},
{
  "type": "way",
  "id": 27401091,
  "center": {
    "lat": 48.7495715,
    "lon": 8.2555724
  },
  "nodes": [
    4795058640,
    11375588618,
    4795058641,
    300786761,
    300786762,
    6342878554,
    4795058639,
    4795058640
  ],
  "tags": {
    "landuse": "cemetery",
    "name": "Ehrenfriedhof Lichtental"
  }
},
{
  "type": "way",
  "id": 27416110,
  "center": {
    "lat": 48.8999741,
    "lon": 8.3692801
  },
  "nodes": [
    300965168,
    300965171,
    300965173,
    300965177,
    9529357978,
    9529357979,
    300965180,
    9529779501,
    300965182,
    9529357973,
    9529357972,
    9529357971,
    300965168
  ],
  "tags": {
    "landuse": "cemetery",
    "name": "Friedhof Sulzbach"
  }
},
{
  "type": "way",
  "id": 27516175,
  "center": {
    "lat": 48.8430452,
    "lon": 8.4919986
  },
  "nodes": [
    302075687,
    3020091193,
    3020091192,
    3020091191,
    3020091194,
    3020091190,
    302075688,
    2971999588,
    2971999589,
    2971999590,
    2971999592,
    302075765,
    2971999591,
    2971999576,
    2971999569,
    2971999577,
    302075687
  ],
  "tags": {
    "landuse": "cemetery",
    "name": "Friedhof Langenalb"
  }
},
{
  "type": "way",
  "id": 27517739,
  "center": {
    "lat": 48.5116285,
    "lon": 8.7703736
  },
  "nodes": [
    302093844,
    302093845,
    302093846,
    302093847,
    302093848,
    302093844
  ],
  "tags": {
    "barrier": "fence",
    "fence_type": "chain_link",
    "height": "1.7",
    "landuse": "cemetery",
    "name": "Jüdischer Friedhof Baisingen",
    "opening_hours:url": "https://www.synagoge-baisingen.de/de/synagoge/besucherinfos",
    "religion": "jewish",
    "website": "https://www.synagoge-baisingen.de/de/friedhof/beschreibung",
    "wikidata": "Q1716084"
  }
},
{
  "type": "way",
  "id": 27520922,
  "center": {
    "lat": 48.8559159,
    "lon": 8.5143696
  },
  "nodes": [
    302119742,
    302119743,
    302119744,
    302119746,
    302119742
  ],
  "tags": {
    "landuse": "cemetery",
    "name": "Friedhof Pfinzweiler"
  }
},
{
  "type": "way",
  "id": 27654526,
  "center": {
    "lat": 48.8650931,
    "lon": 8.6341073
  },
  "nodes": [
    10004186710,
    10004186714,
    10004186711,
    10004186715,
    10004225618,
    8936290380,
    247384411,
    8869478795,
    8936290385,
    8869478796,
    247384410,
    8869478793,
    8936290399,
    303732778,
    8869478794,
    8936290402,
    10004186710
  ],
  "tags": {
    "landuse": "cemetery",
    "name": "Friedhof Birkenfeld"
  }
},
{
  "type": "way",
  "id": 27659416,
  "center": {
    "lat": 48.9580713,
    "lon": 8.7574695
  },
  "nodes": [
    303782741,
    303782745,
    11199833024,
    303782751,
    252420007,
    9994312613,
    9994312834,
    9994312612,
    9994312611,
    9994312615,
    9994312616,
    9994312610,
    303782741
  ],
  "tags": {
    "landuse": "cemetery",
    "name": "Friedhof Dürrn"
  }
},
{
  "type": "way",
  "id": 27675209,
  "center": {
    "lat": 48.8561888,
    "lon": 8.6664090
  },
  "nodes": [
    303940466,
    303940467,
    2984582843,
    303940468,
    303940469,
    303940466
  ],
  "tags": {
    "landuse": "cemetery",
    "name": "Alter Friedhof Büchenbronn"
  }
},
{
  "type": "way",
  "id": 27695511,
  "center": {
    "lat": 48.7385306,
    "lon": 8.7370875
  },
  "nodes": [
    304151540,
    9585856675,
    1057697462,
    9585856674,
    9585856673,
    304151542,
    304151544,
    9585856671,
    9585856670,
    1057697908,
    1057697660,
    9585856672,
    304151546,
    9585856699,
    9585856687,
    3056964114,
    9585856695,
    3056964115,
    304151540
  ],
  "tags": {
    "landuse": "cemetery",
    "name": "Friedhof Hirsau"
  }
},
{
  "type": "way",
  "id": 27755652,
  "center": {
    "lat": 48.9158144,
    "lon": 8.4674074
  },
  "nodes": [
    304772482,
    3299059263,
    9967233967,
    304772480,
    304772481,
    9967233969,
    304772482
  ],
  "tags": {
    "landuse": "cemetery",
    "name": "Friedhof Etzenrot"
  }
},
{
  "type": "way",
  "id": 27762783,
  "center": {
    "lat": 48.2142288,
    "lon": 8.9613872
  },
  "nodes": [
    304855882,
    12994370979,
    12994370980,
    304855884,
    2821520531,
    2821520532,
    304855886,
    304855887,
    12994370984,
    12994370983,
    12994370982,
    12994370981,
    304855947,
    2821520533,
    12994403214,
    12994403213,
    304855882
  ],
  "tags": {
    "landuse": "cemetery"
  }
},
{
  "type": "way",
  "id": 27837273,
  "center": {
    "lat": 48.0572499,
    "lon": 8.5440893
  },
  "nodes": [
    3343252345,
    3343252347,
    3343252343,
    104612984,
    104612982,
    1392847602,
    305633512,
    305633514,
    305633515,
    305633516,
    305633517,
    305633518,
    305633519,
    104612981,
    305633521,
    3343252356,
    3343252355,
    3343252353,
    3343252352,
    3343252349,
    4175986440,
    4175986434,
    3343252345
  ],
  "tags": {
    "denomination": "united",
    "landuse": "cemetery",
    "name": "Waldfriedhof Schwenningen",
    "website": "https://www.villingen-schwenningen.de/rathaus-leben/sterbefaelle-in-vs/friedhoefe-villingen-schwenningen/"
  }
},
{
  "type": "way",
  "id": 28026924,
  "center": {
    "lat": 48.1053668,
    "lon": 8.9996949
  },
  "nodes": [
    307743291,
    10699529500,
    307743294,
    307743296,
    308194013,
    10604579343,
    308194018,
    308194020,
    10604579341,
    10604579342,
    308194017,
    10604579352,
    308194024,
    308194022,
    10604579351,
    10604579349,
    10604579350,
    308194015,
    308194012,
    307743299,
    307743291
  ],
  "tags": {
    "landuse": "cemetery",
    "religion": "christian"
  }
},
{
  "type": "way",
  "id": 28097951,
  "center": {
    "lat": 48.8579864,
    "lon": 8.5716846
  },
  "nodes": [
    308646748,
    9629022004,
    308646754,
    9629021413,
    9629021415,
    9629021416,
    9629042833,
    9629021420,
    2135714488,
    308646892,
    9629042820,
    9629021432,
    9629021433,
    9248889087,
    9248889085,
    9248889084,
    9248889086,
    2135714499,
    308646748
  ],
  "tags": {
    "landuse": "cemetery",
    "name": "Friedhof Arnbach"
  }
},
{
  "type": "way",
  "id": 28155365,
  "center": {
    "lat": 48.6339630,
    "lon": 8.0755362
  },
  "nodes": [
    12724332612,
    309252719,
    309252720,
    309252721,
    309252723,
    6416559151,
    6416559152,
    309252724,
    309252725,
    6416559167,
    309252726,
    309252727,
    2329384962,
    2329384963,
    2406747917,
    2406738381,
    2329384964,
    598668441,
    309252729,
    6416559165,
    12724332612
  ],
  "tags": {
    "landuse": "cemetery"
  }
},
{
  "type": "way",
  "id": 28157590,
  "center": {
    "lat": 48.5868141,
    "lon": 8.1010751
  },
  "nodes": [
    1054485499,
    309277111,
    3494414709,
    12492264942,
    12492265138,
    12492265137,
    309277112,
    309277116,
    3494414711,
    12492265072,
    12492265071,
    12492265127,
    3256854655,
    12492265128,
    12492265126,
    12492265068,
    12492265067,
    1054485499
  ],
  "tags": {
    "landuse": "cemetery"
  }
},
{
  "type": "way",
  "id": 28157607,
  "center": {
    "lat": 48.5641127,
    "lon": 8.1019061
  },
  "nodes": [
    309277356,
    309277358,
    309277359,
    309277361,
    309277356
  ],
  "tags": {
    "landuse": "cemetery",
    "name": "Soldatengräber"
  }
},
{
  "type": "way",
  "id": 28170555,
  "center": {
    "lat": 48.9255093,
    "lon": 8.4846561
  },
  "nodes": [
    299401604,
    9337455650,
    9510904300,
    9337455648,
    3316334932,
    9510904299,
    9510904298,
    9337455646,
    9337455643,
    9337455641,
    9337455639,
    9337455637,
    299401605,
    478682545,
    2270641329,
    2270641331,
    8990261087,
    2270641336,
    8990261085,
    309424905,
    309424954,
    299401604
  ],
  "tags": {
    "landuse": "cemetery",
    "name": "Friedhof Reichenbach"
  }
},
{
  "type": "way",
  "id": 28278396,
  "center": {
    "lat": 48.4715275,
    "lon": 8.9367025
  },
  "nodes": [
    310533492,
    310533493,
    2586517676,
    2586517672,
    2586517688,
    7617866411,
    310533494,
    2586517690,
    2586517670,
    2586517667,
    9668746821,
    310533495,
    8237851946,
    12466101518,
    310533496,
    3751368290,
    3751368286,
    3751368289,
    411572846,
    310533492
  ],
  "tags": {
    "barrier": "wall",
    "landuse": "cemetery",
    "name": "Klausenfriedhof"
  }
},
{
  "type": "way",
  "id": 28288077,
  "center": {
    "lat": 48.8179855,
    "lon": 8.5484526
  },
  "nodes": [
    12315644812,
    12315644823,
    310646799,
    3483919538,
    3483919539,
    310646795,
    310646796,
    3444702827,
    3444702828,
    3483919527,
    12315644814,
    12315644813,
    12315644822,
    12315644812
  ],
  "tags": {
    "landuse": "cemetery",
    "name": "Friedhof Dennach"
  }
},
{
  "type": "way",
  "id": 28288144,
  "center": {
    "lat": 48.9650467,
    "lon": 8.6161278
  },
  "nodes": [
    310647350,
    2118650250,
    8996323664,
    1019160116,
    2118650254,
    2118650252,
    2118650255,
    2313555461,
    2313555514,
    432971141,
    310647356,
    8996323618,
    2313555511,
    8996300508,
    2313555456,
    1339581652,
    2313555534,
    2313555473,
    1339581653,
    2313555463,
    8996323642,
    8996323640,
    8996323639,
    8996323638,
    8996323637,
    8996323636,
    8996323625,
    8996323635,
    8996323634,
    432971160,
    2313972816,
    2824447497,
    310647368,
    310647371,
    8996323663,
    310647350
  ],
  "tags": {
    "landuse": "cemetery"
  }
},
{
  "type": "way",
  "id": 28345328,
  "center": {
    "lat": 48.9570182,
    "lon": 8.6133417
  },
  "nodes": [
    10020889754,
    10020889751,
    311311713,
    312361803,
    10020889754
  ],
  "tags": {
    "amenity": "grave_yard",
    "name": "Alter Jüdischer Friedhof",
    "religion": "jewish",
    "url": "http://www.pfenz.de/wiki/Jüdischer_Friedhof_(Königsbach)",
    "wikidata": "Q1557530",
    "wikipedia": "de:Jüdischer Friedhof (Königsbach)"
  }
},
{
  "type": "way",
  "id": 28346893,
  "center": {
    "lat": 48.8157161,
    "lon": 8.4662136
  },
  "nodes": [
    10180378342,
    311324373,
    311324378,
    311324385,
    311324392,
    10180378352,
    8504983752,
    2423106764,
    2423106761,
    311324405,
    10180378342
  ],
  "tags": {
    "landuse": "cemetery",
    "name": "Friedhof Rotensol"
  }
},
{
  "type": "way",
  "id": 28429056,
  "center": {
    "lat": 48.3830816,
    "lon": 8.5861031
  },
  "nodes": [
    312352715,
    312352717,
    4891862828,
    4891862827,
    312352720,
    312352721,
    4891862831,
    9702902829,
    4891862830,
    4891862829,
    312352715
  ],
  "tags": {
    "amenity": "grave_yard"
  }
},
{
  "type": "way",
  "id": 28560542,
  "center": {
    "lat": 48.9457122,
    "lon": 8.6691250
  },
  "nodes": [
    313749201,
    3246927028,
    1027025193,
    11449097065,
    313749204,
    1027025270,
    313749207,
    1851359558,
    313749211,
    11445803326,
    1248008320,
    313749214,
    313749216,
    11445803336,
    313749221,
    11445803335,
    2119073692,
    11445803334,
    313749201
  ],
  "tags": {
    "landuse": "cemetery",
    "name": "Friedhof Eisingen"
  }
},
{
  "type": "way",
  "id": 28639891,
  "center": {
    "lat": 48.5879606,
    "lon": 8.6036936
  },
  "nodes": [
    314769587,
    314769588,
    314769589,
    314769590,
    314769591,
    314769592,
    314769593,
    314769594,
    314769595,
    314769597,
    314769598,
    314769606,
    314769600,
    314769601,
    314769602,
    314769603,
    314769604,
    314769587
  ],
  "tags": {
    "landuse": "cemetery",
    "name": "Alter Friedhof",
    "religion": "christian"
  }
},
{
  "type": "way",
  "id": 28700844,
  "center": {
    "lat": 48.9653623,
    "lon": 8.6428721
  },
  "nodes": [
    315508333,
    11449591783,
    11449591781,
    13015333083,
    315508334,
    13015333084,
    11449591782,
    315508335,
    315508336,
    315508337,
    315655713,
    315508338,
    315508339,
    11449591779,
    315508340,
    315508341,
    11449591778,
    315508342,
    11449591777,
    11449591776,
    315508344,
    315508333
  ],
  "tags": {
    "landuse": "cemetery",
    "name": "Friedhof Stein"
  }
},
{
  "type": "way",
  "id": 28856564,
  "center": {
    "lat": 48.4469010,
    "lon": 8.5876222
  },
  "nodes": [
    317255145,
    317255146,
    317255147,
    317255149,
    10889206339,
    10889206323,
    10889206340,
    317255145
  ],
  "tags": {
    "landuse": "cemetery",
    "name": "Friedhof Bittelbronn",
    "religion": "christian"
  }
},
{
  "type": "way",
  "id": 28861162,
  "center": {
    "lat": 48.7196648,
    "lon": 8.1845583
  },
  "nodes": [
    317290359,
    8621132855,
    8621132856,
    317290360,
    317290361,
    8621132857,
    317290362,
    8621132854,
    9665654551,
    8621132860,
    8621132853,
    8621132858,
    8621132859,
    317290363,
    317290359
  ],
  "tags": {
    "landuse": "cemetery",
    "name": "Friedhof Neuweier"
  }
},
{
  "type": "way",
  "id": 29218764,
  "center": {
    "lat": 48.3957450,
    "lon": 8.4061987
  },
  "nodes": [
    321381493,
    321381494,
    321381495,
    321381498,
    321381496,
    321381492,
    321381493
  ],
  "tags": {
    "denomination": "protestant",
    "landuse": "cemetery",
    "religion": "christian"
  }
},
{
  "type": "way",
  "id": 29233148,
  "center": {
    "lat": 48.8752715,
    "lon": 8.5396591
  },
  "nodes": [
    321535220,
    10118630094,
    692858663,
    692858661,
    321535221,
    10118630095,
    321535222,
    10118630102,
    321535207,
    321535223,
    321535224,
    321535225,
    321535180,
    321535226,
    321535164,
    321535228,
    321535229,
    692858728,
    692858725,
    692858724,
    321535232,
    321535220
  ],
  "tags": {
    "landuse": "cemetery"
  }
},
{
  "type": "way",
  "id": 29276031,
  "center": {
    "lat": 48.6523830,
    "lon": 8.8239514
  },
  "nodes": [
    321925603,
    2083975776,
    321925604,
    2045442596,
    2045442587,
    2045442589,
    2045442597,
    321925606,
    321925607,
    1803221999,
    321925608,
    1803222002,
    1803222001,
    2045442616,
    321925603
  ],
  "tags": {
    "landuse": "cemetery",
    "name": "Friedhof Deckenpfronn"
  }
},
{
  "type": "way",
  "id": 29317834,
  "center": {
    "lat": 48.0221475,
    "lon": 8.1750035
  },
  "nodes": [
    322549366,
    5420188126,
    5420188127,
    5420188125,
    322549367,
    5420188124,
    322549369,
    5420188123,
    322549370,
    5420188134,
    5420188131,
    5420188130,
    5420188129,
    5420188128,
    5420188132,
    5420188133,
    322549280,
    322549366
  ],
  "tags": {
    "landuse": "cemetery"
  }
},
{
  "type": "way",
  "id": 29389351,
  "center": {
    "lat": 48.8363143,
    "lon": 8.6105602
  },
  "nodes": [
    323247649,
    323247650,
    323247651,
    323247652,
    323247653,
    323247655,
    8869503990,
    323247649
  ],
  "tags": {
    "landuse": "cemetery",
    "name": "Friedhof Waldrennach"
  }
},
{
  "type": "way",
  "id": 29471608,
  "center": {
    "lat": 48.6266044,
    "lon": 8.9277027
  },
  "nodes": [
    324813055,
    324813056,
    8066630487,
    324813057,
    8066630491,
    8066630490,
    324813058,
    324813060,
    324813062,
    8066630489,
    324813055
  ],
  "tags": {
    "landuse": "cemetery",
    "name": "Friedhof Rohrau"
  }
},
{
  "type": "way",
  "id": 29569475,
  "center": {
    "lat": 48.6179650,
    "lon": 8.0894937
  },
  "nodes": [
    325857750,
    6432909491,
    6432909490,
    325857757,
    6432909489,
    325857764,
    6432909477,
    6432909506,
    6432909476,
    6432909505,
    6432909504,
    6432909502,
    6432909503,
    325857780,
    325857789,
    325857794,
    325857801,
    325857750
  ],
  "tags": {
    "landuse": "cemetery",
    "name": "Waldfriedhof",
    "religion": "christian"
  }
},
{
  "type": "way",
  "id": 29604142,
  "center": {
    "lat": 48.4513803,
    "lon": 8.5553626
  },
  "nodes": [
    326116925,
    326116929,
    5473356371,
    326116937,
    326116945,
    1688906954,
    9855565183,
    9855565182,
    9855565184,
    326116925
  ],
  "tags": {
    "landuse": "cemetery",
    "name": "Friedhof Schopfloch"
  }
},
{
  "type": "way",
  "id": 30076461,
  "center": {
    "lat": 48.9746797,
    "lon": 8.9484483
  },
  "nodes": [
    331276481,
    6279728151,
    6279728150,
    6279728149,
    6279728148,
    6279728147,
    6279728140,
    6279728146,
    6279728145,
    6279728152,
    331276496,
    331276521,
    6279728702,
    2099728149,
    6279728703,
    6279728167,
    331276503,
    2099728145,
    6279728168,
    1610811701,
    2099728151,
    331276527,
    2099728163,
    2099728165,
    331276481
  ],
  "tags": {
    "barrier": "fence",
    "landuse": "cemetery",
    "name": "Friedhof Ensingen"
  }
},
{
  "type": "way",
  "id": 30077518,
  "center": {
    "lat": 48.9518158,
    "lon": 8.9727536
  },
  "nodes": [
    331290941,
    325682318,
    325682330,
    1876685497,
    1876685500,
    325682344,
    1876685498,
    1876685494,
    1109551484,
    325682346,
    1109551471,
    1876685496,
    325682347,
    8850968269,
    331290941
  ],
  "tags": {
    "barrier": "hedge",
    "landuse": "cemetery"
  }
},
{
  "type": "way",
  "id": 30166300,
  "center": {
    "lat": 48.5813149,
    "lon": 8.8462735
  },
  "nodes": [
    332413353,
    276290827,
    1855832190,
    332413354,
    276290826,
    1905955660,
    1855832188,
    276290825,
    332413356,
    1905955655,
    332413353
  ],
  "tags": {
    "addr:housenumber": "30",
    "addr:street": "Schönhutstraße",
    "landuse": "cemetery"
  }
},
{
  "type": "way",
  "id": 30169024,
  "center": {
    "lat": 48.9121229,
    "lon": 8.9477563
  },
  "nodes": [
    332440740,
    332440746,
    332440750,
    1757372319,
    332440743,
    332440762,
    332440811,
    2117646493,
    332440740
  ],
  "tags": {
    "barrier": "fence",
    "denomination": "protestant",
    "landuse": "cemetery",
    "religion": "christian"
  }
},
{
  "type": "way",
  "id": 30412324,
  "center": {
    "lat": 48.8398241,
    "lon": 8.2833172
  },
  "nodes": [
    335633208,
    9833230406,
    335633209,
    325238677,
    5863317252,
    335633210,
    335633168,
    335633167,
    335633188,
    335633183,
    335633189,
    335633186,
    335633177,
    335633208
  ],
  "tags": {
    "landuse": "cemetery",
    "name": "Friedhof Bischweier",
    "religion": "christian"
  }
},
{
  "type": "way",
  "id": 30584072,
  "center": {
    "lat": 48.8594479,
    "lon": 8.2517587
  },
  "nodes": [
    13070321350,
    13070321352,
    13070321353,
    13070321355,
    13070321361,
    13070321372,
    13070321351,
    13070321350
  ],
  "tags": {
    "landuse": "cemetery",
    "name": "Friedhof Rauental"
  }
},
{
  "type": "way",
  "id": 30692721,
  "center": {
    "lat": 48.5811643,
    "lon": 8.9163229
  },
  "nodes": [
    2062029669,
    2062029675,
    336614983,
    442113710,
    369111829,
    442113693,
    442113682,
    336615000,
    3819144006,
    3819144009,
    369111820,
    3819143996,
    3819143995,
    3819143994,
    2062029732,
    339407101,
    339407102,
    336487436,
    339407099,
    2062029669
  ],
  "tags": {
    "landuse": "cemetery"
  }
},
{
  "type": "way",
  "id": 30839167,
  "center": {
    "lat": 48.8790537,
    "lon": 8.9633069
  },
  "nodes": [
    342978449,
    342978453,
    342978609,
    342978456,
    342978460,
    342978463,
    342978465,
    342978469,
    342978472,
    342978476,
    342978478,
    342978481,
    342978431,
    4672163530,
    4672163534,
    5268013109,
    1141484917,
    5268013104,
    342978434,
    342978438,
    342978441,
    342978449
  ],
  "tags": {
    "landuse": "cemetery",
    "name": "Friedhof Eberdingen"
  }
},
{
  "type": "way",
  "id": 30899293,
  "center": {
    "lat": 48.7346230,
    "lon": 8.1722212
  },
  "nodes": [
    343529329,
    343529336,
    343529341,
    343529347,
    343529352,
    343529357,
    343529329
  ],
  "tags": {
    "landuse": "cemetery",
    "name": "Friedhof Varnhalt"
  }
},
{
  "type": "way",
  "id": 31312750,
  "center": {
    "lat": 48.5847292,
    "lon": 8.7373999
  },
  "nodes": [
    348431908,
    348431917,
    348431928,
    348431944,
    348431952,
    348431968,
    348431981,
    4082598899,
    348431908
  ],
  "tags": {
    "landuse": "cemetery",
    "name": "Friedhof Emmingen"
  }
},
{
  "type": "way",
  "id": 31484672,
  "center": {
    "lat": 48.4601109,
    "lon": 8.7879509
  },
  "nodes": [
    351943750,
    1034255934,
    351929988,
    351929989,
    1034256861,
    351943750
  ],
  "tags": {
    "amenity": "grave_yard",
    "denomination": "catholic",
    "landuse": "cemetery",
    "name": "Friedhof Weitingen"
  }
},
{
  "type": "way",
  "id": 31486430,
  "center": {
    "lat": 48.8884924,
    "lon": 8.8525659
  },
  "nodes": [
    351946183,
    351946187,
    351946190,
    11920348017,
    351946195,
    12118179788,
    351946201,
    351946208,
    3772980161,
    3772980175,
    3772980169,
    3772980131,
    3772980122,
    3772980095,
    10222477499,
    351946183
  ],
  "tags": {
    "denomination": "lutheran",
    "landuse": "cemetery",
    "name": "Friedhof Wiernsheim",
    "religion": "christian"
  }
},
{
  "type": "way",
  "id": 31569646,
  "center": {
    "lat": 48.4287692,
    "lon": 8.7626066
  },
  "nodes": [
    353253866,
    1347031246,
    1349191375,
    1349191544,
    353253867,
    353253868,
    1349191626,
    1349191427,
    1347031265,
    353253869,
    353253870,
    353253866
  ],
  "tags": {
    "landuse": "cemetery",
    "name": "Jüdischer Friedhof Mühringen",
    "note": "Lage ist nicht genau. Bitte korrigieren.",
    "religion": "jewish",
    "wikidata": "Q1334621",
    "wikipedia": "de:Jüdischer Friedhof Mühringen"
  }
},
{
  "type": "way",
  "id": 31692820,
  "center": {
    "lat": 48.4915093,
    "lon": 8.7557215
  },
  "nodes": [
    354659036,
    354659039,
    354659040,
    6984780017,
    6984780018,
    354659041,
    354660109,
    354660108,
    354659036
  ],
  "tags": {
    "landuse": "cemetery",
    "name": "Friedhof Göttelfingen"
  }
},
{
  "type": "way",
  "id": 31713823,
  "center": {
    "lat": 48.4728125,
    "lon": 8.7478142
  },
  "nodes": [
    354827904,
    4094618797,
    354827905,
    354827906,
    354827907,
    354827908,
    354827909,
    354827910,
    4094618813,
    4094618818,
    354827911,
    4094618808,
    354827904
  ],
  "tags": {
    "landuse": "cemetery",
    "name": "Friedhof Eutingen im Gäu",
    "religion": "christian"
  }
},
{
  "type": "way",
  "id": 31751066,
  "center": {
    "lat": 48.4951351,
    "lon": 8.7291820
  },
  "nodes": [
    355328862,
    4112212201,
    4112212172,
    355328867,
    352655930,
    4112211505,
    298840652,
    4112211707,
    298840650,
    298840748,
    298840646,
    4112212252,
    355328893,
    355328862
  ],
  "tags": {
    "landuse": "cemetery",
    "name": "Friedhof Hochdorf"
  }
},
{
  "type": "way",
  "id": 31992253,
  "center": {
    "lat": 48.6961406,
    "lon": 8.1834532
  },
  "nodes": [
    358540873,
    358540874,
    359141956,
    358540879,
    359141946,
    359141943,
    358540880,
    359141942,
    359140956,
    358540881,
    359140953,
    359140946,
    358540882,
    359140940,
    359140932,
    358540873
  ],
  "tags": {
    "landuse": "cemetery"
  }
},
{
  "type": "way",
  "id": 32014654,
  "center": {
    "lat": 48.7891873,
    "lon": 8.6793213
  },
  "nodes": [
    359086807,
    359086818,
    359086834,
    359086885,
    359086849,
    359086807
  ],
  "tags": {
    "landuse": "cemetery",
    "name": "Friedhof Schwarzenberg"
  }
},
{
  "type": "way",
  "id": 32017386,
  "center": {
    "lat": 48.7826006,
    "lon": 8.6766379
  },
  "nodes": [
    359120422,
    3299158996,
    359120433,
    3299158997,
    359120445,
    359120465,
    359120476,
    3299158991,
    359120487,
    359120499,
    359120422
  ],
  "tags": {
    "landuse": "cemetery",
    "name": "Friedhof Oberlengenhardt"
  }
},
{
  "type": "way",
  "id": 32021245,
  "center": {
    "lat": 48.7689232,
    "lon": 8.6869392
  },
  "nodes": [
    359189143,
    359189144,
    2589312269,
    2589312271,
    2589312275,
    2589312272,
    359189146,
    359189150,
    359189148,
    359189143
  ],
  "tags": {
    "landuse": "cemetery",
    "name": "Friedhof Maisenbach-Zainen"
  }
},
{
  "type": "way",
  "id": 32089725,
  "center": {
    "lat": 48.9854497,
    "lon": 8.8251967
  },
  "nodes": [
    360276815,
    8761179477,
    360276826,
    360276830,
    360276832,
    2091275008,
    9897106527,
    2091274973,
    9892907902,
    9892907901,
    360276835,
    2091274894,
    2091274942,
    2091274976,
    360276838,
    360276815
  ],
  "tags": {
    "landuse": "cemetery"
  }
},
{
  "type": "way",
  "id": 32149011,
  "center": {
    "lat": 48.9296346,
    "lon": 8.2162472
  },
  "nodes": [
    360925910,
    360925914,
    12635300049,
    597381713,
    9983474302,
    360925917,
    360925921,
    9983474303,
    597381714,
    360925910
  ],
  "tags": {
    "designation": "Friedhof Illingen",
    "landuse": "cemetery",
    "name": "Friedhof Elchesheim"
  }
},
{
  "type": "way",
  "id": 32236399,
  "center": {
    "lat": 48.7187924,
    "lon": 8.7614531
  },
  "nodes": [
    2123105439,
    2123105440,
    361497738,
    361497740,
    361497743,
    361497745,
    2123068401,
    2123068383,
    2123068380,
    361497748,
    2123068376,
    361497750,
    2123068378,
    361497752,
    2123068385,
    2123105438,
    2123105439
  ],
  "tags": {
    "description": "Friedhof Heumaden",
    "landuse": "cemetery",
    "religion": "christian"
  }
},
{
  "type": "way",
  "id": 32334599,
  "center": {
    "lat": 48.3008499,
    "lon": 8.7817710
  },
  "nodes": [
    364017902,
    364017903,
    8612345762,
    8612345763,
    364017904,
    364017905,
    364017902
  ],
  "tags": {
    "landuse": "cemetery"
  }
},
{
  "type": "way",
  "id": 32348299,
  "center": {
    "lat": 48.3486626,
    "lon": 8.0622989
  },
  "nodes": [
    364134211,
    364134212,
    364134214,
    4437375220,
    364134216,
    13042863897,
    13042863896,
    13042863894,
    13042863895,
    790504590,
    364134217,
    364134219,
    1039831917,
    1039831471,
    1039831153,
    2511177423,
    364134221,
    13042863893,
    364134222,
    364134224,
    364134225,
    364134211
  ],
  "tags": {
    "landuse": "cemetery"
  }
},
{
  "type": "way",
  "id": 32431348,
  "center": {
    "lat": 48.4464990,
    "lon": 8.8556111
  },
  "nodes": [
    364686732,
    364686733,
    3963296853,
    3963296841,
    12710446791,
    12710446792,
    3963296838,
    364686732
  ],
  "tags": {
    "landuse": "cemetery",
    "name": "Friedhof Bieringen"
  }
},
{
  "type": "way",
  "id": 32452182,
  "center": {
    "lat": 48.8484989,
    "lon": 8.4486796
  },
  "nodes": [
    364840168,
    364840169,
    4606138155,
    4606138148,
    4606138147,
    4606138146,
    10180820217,
    4606138149,
    364840151,
    364840171,
    10180807015,
    12852926868,
    364840172,
    364840168
  ],
  "tags": {
    "landuse": "cemetery",
    "name": "Friedhof Schielberg"
  }
},
{
  "type": "way",
  "id": 32499549,
  "center": {
    "lat": 48.8614458,
    "lon": 8.0863585
  },
  "nodes": [
    365384696,
    365384697,
    365384698,
    365384699,
    365384696
  ],
  "tags": {
    "landuse": "cemetery",
    "ref:mhs": "IA67007304",
    "religion": "christian",
    "source": "cadastre-dgi-fr source : Direction Générale des Impôts - Cadastre. Mise à jour : 2009",
    "wikidata": "Q110330361"
  }
},
{
  "type": "way",
  "id": 32570294,
  "center": {
    "lat": 48.7525954,
    "lon": 8.5518158
  },
  "nodes": [
    366354488,
    366346306,
    295570494,
    295570495,
    366346308,
    1023876275,
    366354486,
    366354488
  ],
  "tags": {
    "amenity": "grave_yard",
    "name": "Kappelbergfriedhof"
  }
},
{
  "type": "way",
  "id": 32570295,
  "center": {
    "lat": 48.7527135,
    "lon": 8.5533968
  },
  "nodes": [
    725568893,
    725568933,
    725568929,
    366346310,
    295570506,
    725568944,
    725568893
  ],
  "tags": {
    "amenity": "grave_yard",
    "name": "Uhlandfriedhof"
  }
},
{
  "type": "way",
  "id": 32612354,
  "center": {
    "lat": 48.5257067,
    "lon": 8.7464795
  },
  "nodes": [
    366727283,
    12837163715,
    12837163714,
    12837163713,
    12837163711,
    366727322,
    1141371683,
    2456064826,
    366727320,
    366727283
  ],
  "tags": {
    "landuse": "cemetery",
    "name": "Friedhof Vollmaringen"
  }
},
{
  "type": "way",
  "id": 32641069,
  "center": {
    "lat": 48.7117749,
    "lon": 8.1611111
  },
  "nodes": [
    366970822,
    366970832,
    366970925,
    366971009,
    366971046,
    3852905757,
    366971074,
    366971160,
    366971209,
    366970822
  ],
  "tags": {
    "landuse": "cemetery",
    "religion": "christian"
  }
},
{
  "type": "way",
  "id": 32667260,
  "center": {
    "lat": 48.5740175,
    "lon": 8.9212415
  },
  "nodes": [
    2070332540,
    367480969,
    367480971,
    367480973,
    367480975,
    367480961,
    367480959,
    367480957,
    2070332506,
    2070332521,
    2070332528,
    2070332529,
    2070332531,
    2070332530,
    2070332540
  ],
  "tags": {
    "landuse": "cemetery"
  }
},
{
  "type": "way",
  "id": 32674537,
  "center": {
    "lat": 48.3234449,
    "lon": 8.4784213
  },
  "nodes": [
    367661177,
    367661188,
    367661209,
    367661218,
    367661177
  ],
  "tags": {
    "denomination": "protestant",
    "landuse": "cemetery",
    "religion": "christian"
  }
},
{
  "type": "way",
  "id": 32792182,
  "center": {
    "lat": 48.3250580,
    "lon": 8.4632199
  },
  "nodes": [
    369032211,
    2958891798,
    369032203,
    6029190528,
    6029190526,
    6029190527,
    2958891785,
    2958891784,
    369519449,
    369032198,
    369519454,
    6029007802,
    6029007801,
    369519458,
    2958891803,
    2958891804,
    369032211
  ],
  "tags": {
    "denomination": "catholic",
    "landuse": "cemetery",
    "religion": "christian"
  }
},
{
  "type": "way",
  "id": 32852329,
  "center": {
    "lat": 48.6477461,
    "lon": 8.7777034
  },
  "nodes": [
    370077593,
    8651197805,
    3467817167,
    3467817154,
    3467817153,
    370077599,
    3467817140,
    3467817137,
    3467817135,
    370077606,
    3467817144,
    3467817159,
    1267874106,
    3467817176,
    3467817182,
    3467818001,
    3467818000,
    3467818010,
    370077620,
    8651197802,
    3467817191,
    370077593
  ],
  "tags": {
    "fixme": "exact position and size",
    "landuse": "cemetery",
    "name": "Friedhof Gültlingen"
  }
},
{
  "type": "way",
  "id": 33002131,
  "center": {
    "lat": 48.8314523,
    "lon": 8.7949389
  },
  "nodes": [
    371825392,
    371825398,
    29749684,
    428959307,
    371825406,
    371825413,
    371825422,
    371832991,
    371825392
  ],
  "tags": {
    "landuse": "cemetery",
    "name": "Neuer Friedhof Tiefenbronn"
  }
},
{
  "type": "way",
  "id": 33049273,
  "center": {
    "lat": 48.6768900,
    "lon": 8.1911632
  },
  "nodes": [
    372696926,
    372697115,
    372697118,
    372698524,
    413770029,
    372698528,
    372698529,
    413770030,
    2703092175,
    2703092176,
    2703092177,
    2703092178,
    372698532,
    413770031,
    372696912,
    372696913,
    372696914,
    413770032,
    372696916,
    372696926
  ],
  "tags": {
    "landuse": "cemetery",
    "name": "Friedhof Bühlertal"
  }
},
{
  "type": "way",
  "id": 33129297,
  "center": {
    "lat": 48.9319408,
    "lon": 8.8660878
  },
  "nodes": [
    374157245,
    374157386,
    374157391,
    374157395,
    374157449,
    374157452,
    374157457,
    374157461,
    374157463,
    374157245
  ],
  "tags": {
    "amenity": "grave_yard"
  }
},
{
  "type": "way",
  "id": 33133276,
  "center": {
    "lat": 48.7284571,
    "lon": 8.8903414
  },
  "nodes": [
    43373225,
    375991225,
    411075493,
    374218462,
    374218479,
    1693971794,
    374218491,
    2204686939,
    2204934218,
    43373225
  ],
  "tags": {
    "landuse": "cemetery",
    "name": "Friedhof Schafhausen"
  }
},
{
  "type": "way",
  "id": 33173213,
  "center": {
    "lat": 48.7751673,
    "lon": 8.8199189
  },
  "nodes": [
    6846183308,
    375686691,
    375690134,
    375686693,
    375686694,
    13154741546,
    13154741545,
    13154741544,
    13154741543,
    6846183309,
    6846183293,
    6846183310,
    6846183308
  ],
  "tags": {
    "barrier": "fence",
    "landuse": "cemetery",
    "name": "Friedhof Münklingen"
  }
},
{
  "type": "way",
  "id": 33280167,
  "center": {
    "lat": 48.7728882,
    "lon": 8.8531293
  },
  "nodes": [
    378124448,
    1738469918,
    1738469876,
    1738469869,
    413435266,
    413435270,
    378124448
  ],
  "tags": {
    "amenity": "grave_yard"
  }
},
{
  "type": "way",
  "id": 33329285,
  "center": {
    "lat": 48.9369960,
    "lon": 8.8463522
  },
  "nodes": [
    379045471,
    928023958,
    928023961,
    928023952,
    928023946,
    928023956,
    928023945,
    928023954,
    379046427,
    309882624,
    379046199,
    928023962,
    928023957,
    928023959,
    928023947,
    9219044501,
    379046165,
    379046202,
    379046207,
    379046212,
    379046215,
    379046218,
    379046234,
    379046262,
    379046275,
    379046284,
    379046296,
    379046306,
    379046311,
    379046318,
    379046323,
    379046351,
    380902424,
    379046330,
    379045474,
    379045471
  ],
  "tags": {
    "landuse": "cemetery",
    "name": "Friedhof St. Peter"
  }
},
{
  "type": "way",
  "id": 33480187,
  "center": {
    "lat": 48.3171939,
    "lon": 8.9803881
  },
  "nodes": [
    381145899,
    4349152813,
    936941169,
    381134105,
    381134109,
    3748045003,
    3748045004,
    3748045005,
    4349152790,
    381145915,
    4349152772,
    381145899
  ],
  "tags": {
    "landuse": "cemetery"
  }
},
{
  "type": "way",
  "id": 33480254,
  "center": {
    "lat": 48.3172083,
    "lon": 8.9809334
  },
  "nodes": [
    3479390236,
    3748044999,
    3479390237,
    3479390238,
    381148262,
    8789270800,
    8789270799,
    381148268,
    3748044997,
    3748044996,
    3479390236
  ],
  "tags": {
    "landuse": "cemetery"
  }
},
{
  "type": "way",
  "id": 33681523,
  "center": {
    "lat": 48.0740905,
    "lon": 8.6434688
  },
  "nodes": [
    385097579,
    385097592,
    254666227,
    4716045111,
    12842550279,
    12842550280,
    12842550281,
    12842550282,
    12842550283,
    12842550284,
    4716045110,
    12842550285,
    12842550287,
    385097594,
    385097595,
    11735452128,
    385097591,
    385097596,
    13167158269,
    13167158270,
    385097597,
    385097598,
    385097580,
    8862174648,
    385097579
  ],
  "tags": {
    "landuse": "cemetery",
    "name": "Friedhof Trossingen",
    "religion": "christian"
  }
},
{
  "type": "way",
  "id": 33818160,
  "center": {
    "lat": 48.9166893,
    "lon": 8.9885186
  },
  "nodes": [
    387414114,
    444948960,
    387414117,
    444948963,
    387414118,
    444948985,
    444948976,
    387414119,
    387414120,
    448408708,
    444948983,
    387414114
  ],
  "tags": {
    "barrier": "wall",
    "denomination": "lutheran",
    "landuse": "cemetery",
    "name": "Friedhof Enzweihingen",
    "religion": "christian"
  }
},
{
  "type": "way",
  "id": 33857400,
  "center": {
    "lat": 48.8597093,
    "lon": 8.8691397
  },
  "nodes": [
    387891155,
    387891156,
    387891171,
    387891157,
    2497620336,
    11206327548,
    2497620334,
    3880561455,
    387891158,
    11206327538,
    8476397925,
    11206327537,
    387891155
  ],
  "tags": {
    "landuse": "cemetery",
    "name": "Friedhof Mönsheim"
  }
},
{
  "type": "way",
  "id": 33858044,
  "center": {
    "lat": 48.8736227,
    "lon": 8.8185580
  },
  "nodes": [
    387902019,
    387902020,
    2154865891,
    2154865899,
    387902021,
    387902022,
    3803507040,
    2154865888,
    2173202450,
    2154865892,
    387902019
  ],
  "tags": {
    "landuse": "cemetery",
    "name": "Friedhof Wurmberg"
  }
},
{
  "type": "way",
  "id": 33894591,
  "center": {
    "lat": 48.7465003,
    "lon": 8.0038816
  },
  "nodes": [
    388347794,
    388347795,
    2606347902,
    388347796,
    3833399836,
    10178349239,
    2606347899,
    10178349237,
    388347794
  ],
  "tags": {
    "landuse": "cemetery"
  }
},
{
  "type": "way",
  "id": 33897482,
  "center": {
    "lat": 48.7252401,
    "lon": 8.0069103
  },
  "nodes": [
    388371102,
    388371105,
    12086615067,
    5601926981,
    388371106,
    388371109,
    388371112,
    388371116,
    388371121,
    388371126,
    388371102
  ],
  "tags": {
    "landuse": "cemetery",
    "name": "Friedhof Lichtenau"
  }
},
{
  "type": "way",
  "id": 33917608,
  "center": {
    "lat": 48.6734162,
    "lon": 8.1323495
  },